{"type":"FeatureCollection","features":[{"type":"Feature","geometry":{"type":"Point","coordinates":[138.780869,36.696256]},"properties":{"name":"群馬県日向見発電所","name:ja":"","name:en":"Gunma Prefecture Hinatami Power Plant","operator":"群馬県企業局","fuel_type":"hydro","plant:source":"","capacity_mw":-1.0,"voltage":"","_region":"chubu","_display_name":"群馬県日向見発電所","_fuel_color":"#999999","osm_id":5744947416,"osm_type":"node","_category":"ipp","_enriched_by":"p03","_p03_distance_km":0.044}},{"type":"Feature","geometry":{"type":"Point","coordinates":[138.628312,36.552648]},"properties":{"name":"東京電力リニューアブルパワー㈱ 大津発電所","name:ja":"","name:en":"","operator":"","fuel_type":"unknown","plant:source":"","capacity_mw":null,"voltage":"","_region":"chubu","_display_name":"東京電力リニューアブルパワー㈱ 大津発電所","_fuel_color":"#999999","osm_id":13531172942,"osm_type":"node","_category":"ipp"}},{"type":"Feature","geometry":{"type":"Point","coordinates":[137.404378,35.291666]},"properties":{"name":"","name:ja":"","name:en":"","operator":"","fuel_type":"solar","plant:source":"solar","capacity_mw":null,"voltage":"","_region":"chubu","_display_name":"plant_61926007","_fuel_color":"#ffdd00","osm_id":61926007,"osm_type":"way","_category":"ipp"}},{"type":"Feature","geometry":{"type":"Point","coordinates":[139.079234,34.968517]},"properties":{"name":"","name:ja":"","name:en":"","operator":"","fuel_type":"solar","plant:source":"solar","capacity_mw":null,"voltage":"","_region":"chubu","_display_name":"plant_62242063","_fuel_color":"#ffdd00","osm_id":62242063,"osm_type":"way","_category":"ipp"}},{"type":"Feature","geometry":{"type":"Point","coordinates":[136.843545,36.771605]},"properties":{"name":"","name:ja":"","name:en":"","operator":"","fuel_type":"solar","plant:source":"solar","capacity_mw":null,"voltage":"","_region":"chubu","_display_name":"plant_62271105","_fuel_color":"#ffdd00","osm_id":62271105,"osm_type":"way","_category":"ipp"}},{"type":"Feature","geometry":{"type":"Point","coordinates":[136.946983,35.093279]},"properties":{"name":"名古屋市鳴海工場","name:ja":"","name:en":"","operator":"株式会社鳴海クリーンシステム","fuel_type":"waste","plant:source":"waste","capacity_mw":-1.0,"voltage":"","_region":"chubu","_display_name":"名古屋市鳴海工場","_fuel_color":"#996633","osm_id":98284921,"osm_type":"way","_category":"ipp","_enriched_by":"p03","_p03_distance_km":0.062}},{"type":"Feature","geometry":{"type":"Point","coordinates":[136.960462,34.840446]},"properties":{"name":"碧南火力発電所","name:ja":"碧南火力発電所","name:en":"","operator":"中部電力株式会社","fuel_type":"coal","plant:source":"coal","capacity_mw":4100.0,"voltage":"","_region":"chubu","_display_name":"碧南火力発電所","_fuel_color":"#444444","osm_id":101926129,"osm_type":"way","_category":"utility"}},{"type":"Feature","geometry":{"type":"Point","coordinates":[138.484344,36.156982]},"properties":{"name":"","name:ja":"","name:en":"","operator":"","fuel_type":"hydro","plant:source":"hydro","capacity_mw":null,"voltage":"","_region":"chubu","_display_name":"plant_133342780","_fuel_color":"#0088ff","osm_id":133342780,"osm_type":"way","_category":"ipp"}},{"type":"Feature","geometry":{"type":"Point","coordinates":[137.805681,35.091072]},"properties":{"name":"佐久間発電所","name:ja":"","name:en":"","operator":"電源開発","fuel_type":"hydro","plant:source":"hydro","capacity_mw":350.0,"voltage":"","_region":"chubu","_display_name":"佐久間発電所","_fuel_color":"#0088ff","osm_id":134376414,"osm_type":"way","_category":"utility"}},{"type":"Feature","geometry":{"type":"Point","coordinates":[136.765633,35.283988]},"properties":{"name":"","name:ja":"","name:en":"","operator":"","fuel_type":"solar","plant:source":"solar","capacity_mw":null,"voltage":"","_region":"chubu","_display_name":"plant_142872962","_fuel_color":"#ffdd00","osm_id":142872962,"osm_type":"way","_category":"ipp"}},{"type":"Feature","geometry":{"type":"Point","coordinates":[136.76621,35.283665]},"properties":{"name":"","name:ja":"","name:en":"","operator":"","fuel_type":"solar","plant:source":"solar","capacity_mw":null,"voltage":"","_region":"chubu","_display_name":"plant_142892823","_fuel_color":"#ffdd00","osm_id":142892823,"osm_type":"way","_category":"ipp"}},{"type":"Feature","geometry":{"type":"Point","coordinates":[137.574715,35.084286]},"properties":{"name":"","name:ja":"","name:en":"","operator":"","fuel_type":"solar","plant:source":"solar","capacity_mw":null,"voltage":"","_region":"chubu","_display_name":"plant_156603446","_fuel_color":"#ffdd00","osm_id":156603446,"osm_type":"way","_category":"ipp"}},{"type":"Feature","geometry":{"type":"Point","coordinates":[137.426439,34.709085]},"properties":{"name":"","name:ja":"","name:en":"","operator":"","fuel_type":"solar","plant:source":"solar","capacity_mw":null,"voltage":"","_region":"chubu","_display_name":"plant_166694918","_fuel_color":"#ffdd00","osm_id":166694918,"osm_type":"way","_category":"ipp"}},{"type":"Feature","geometry":{"type":"Point","coordinates":[137.454187,34.698777]},"properties":{"name":"","name:ja":"","name:en":"","operator":"","fuel_type":"solar","plant:source":"solar","capacity_mw":null,"voltage":"","_region":"chubu","_display_name":"plant_166704894","_fuel_color":"#ffdd00","osm_id":166704894,"osm_type":"way","_category":"ipp"}},{"type":"Feature","geometry":{"type":"Point","coordinates":[138.815036,36.562323]},"properties":{"name":"原町発電所","name:ja":"","name:en":"","operator":"東京電力リニューアブルパワー","fuel_type":"hydro","plant:source":"hydro","capacity_mw":27.4,"voltage":"","_region":"chubu","_display_name":"原町発電所","_fuel_color":"#0088ff","osm_id":169963236,"osm_type":"way","_category":"utility"}},{"type":"Feature","geometry":{"type":"Point","coordinates":[136.831195,35.032248]},"properties":{"name":"西名古屋火力発電所","name:ja":"西名古屋火力発電所","name:en":"Nishi-Nagoya Power Plant","operator":"中部電力株式会社","fuel_type":"gas","plant:source":"gas","capacity_mw":2376.4,"voltage":"","_region":"chubu","_display_name":"西名古屋火力発電所","_fuel_color":"#ff8800","osm_id":177598084,"osm_type":"way","_category":"utility"}},{"type":"Feature","geometry":{"type":"Point","coordinates":[136.688748,35.008942]},"properties":{"name":"川越火力発電所","name:ja":"川越火力発電所","name:en":"Kawagoe Power Station","operator":"JERA","fuel_type":"gas","plant:source":"gas","capacity_mw":4802.0,"voltage":"","_region":"chubu","_display_name":"川越火力発電所","_fuel_color":"#ff8800","osm_id":180359727,"osm_type":"way","_category":"utility"}},{"type":"Feature","geometry":{"type":"Point","coordinates":[136.878209,35.066454]},"properties":{"name":"新名古屋火力発電所","name:ja":"新名古屋火力発電所","name:en":"Shin-Nagoya Power Plant","operator":"中部電力株式会社","fuel_type":"gas","plant:source":"gas","capacity_mw":3058.0,"voltage":"","_region":"chubu","_display_name":"新名古屋火力発電所","_fuel_color":"#ff8800","osm_id":180359734,"osm_type":"way","_category":"utility"}},{"type":"Feature","geometry":{"type":"Point","coordinates":[136.845095,34.986024]},"properties":{"name":"知多火力発電所","name:ja":"知多火力発電所","name:en":"Chita Power Station","operator":"中部電力株式会社","fuel_type":"gas","plant:source":"gas","capacity_mw":3966.0,"voltage":"","_region":"chubu","_display_name":"知多火力発電所","_fuel_color":"#ff8800","osm_id":180359744,"osm_type":"way","_category":"utility"}},{"type":"Feature","geometry":{"type":"Point","coordinates":[136.863628,35.005808]},"properties":{"name":"知多第二火力発電所","name:ja":"知多第二火力発電所","name:en":"Chita Daini Thermal Power Plant","operator":"中部電力株式会社","fuel_type":"gas","plant:source":"gas","capacity_mw":1708.0,"voltage":"","_region":"chubu","_display_name":"知多第二火力発電所","_fuel_color":"#ff8800","osm_id":180359747,"osm_type":"way","_category":"utility"}},{"type":"Feature","geometry":{"type":"Point","coordinates":[139.19657,35.616036]},"properties":{"name":"神奈川県企業庁 相模発電所","name:ja":"","name:en":"","operator":"神奈川県企業庁","fuel_type":"hydro","plant:source":"hydro","capacity_mw":31.0,"voltage":"","_region":"chubu","_display_name":"神奈川県企業庁 相模発電所","_fuel_color":"#0088ff","osm_id":183516732,"osm_type":"way","_category":"ipp"}},{"type":"Feature","geometry":{"type":"Point","coordinates":[138.897784,36.559641]},"properties":{"name":"","name:ja":"","name:en":"","operator":"","fuel_type":"unknown","plant:source":"","capacity_mw":null,"voltage":"","_region":"chubu","_display_name":"plant_192183570","_fuel_color":"#999999","osm_id":192183570,"osm_type":"way","_category":"ipp"}},{"type":"Feature","geometry":{"type":"Point","coordinates":[138.733076,36.571719]},"properties":{"name":"松谷発電所","name:ja":"","name:en":"","operator":"東京電力リニューアブルパワー","fuel_type":"hydro","plant:source":"hydro","capacity_mw":25.4,"voltage":"","_region":"chubu","_display_name":"松谷発電所","_fuel_color":"#0088ff","osm_id":192361576,"osm_type":"way","_category":"utility"}},{"type":"Feature","geometry":{"type":"Point","coordinates":[137.591725,36.803595]},"properties":{"name":"新柳河原発電所","name:ja":"","name:en":"","operator":"関西電力","fuel_type":"hydro","plant:source":"hydro","capacity_mw":41.2,"voltage":"","_region":"chubu","_display_name":"新柳河原発電所","_fuel_color":"#0088ff","osm_id":197810111,"osm_type":"way","_category":"utility"}},{"type":"Feature","geometry":{"type":"Point","coordinates":[137.658828,36.695888]},"properties":{"name":"黒部川第三発電所","name:ja":"","name:en":"Kurobegawa Powerstation #3","operator":"関西電力株式会社","fuel_type":"hydro","plant:source":"hydro","capacity_mw":81.0,"voltage":"","_region":"chubu","_display_name":"黒部川第三発電所","_fuel_color":"#0088ff","osm_id":197821462,"osm_type":"way","_category":"utility"}},{"type":"Feature","geometry":{"type":"Point","coordinates":[137.637241,35.822267]},"properties":{"name":"三尾水力発電所","name:ja":"三尾水力発電所","name:en":"","operator":"関西電力","fuel_type":"hydro","plant:source":"hydro","capacity_mw":35.5,"voltage":"154000","_region":"chubu","_display_name":"三尾水力発電所","_fuel_color":"#0088ff","osm_id":210658598,"osm_type":"way","_category":"utility","_enriched_by":"p03","_p03_distance_km":0.01}},{"type":"Feature","geometry":{"type":"Point","coordinates":[137.610335,34.761596]},"properties":{"name":"","name:ja":"","name:en":"","operator":"カトウコーポレーション株式会社","fuel_type":"solar","plant:source":"solar","capacity_mw":0.05,"voltage":"","_region":"chubu","_display_name":"plant_229572030","_fuel_color":"#ffdd00","osm_id":229572030,"osm_type":"way","_category":"ipp"}},{"type":"Feature","geometry":{"type":"Point","coordinates":[139.176569,35.799442]},"properties":{"name":"東京都交通局 多摩川第三発電所","name:ja":"","name:en":"","operator":"東京都交通局","fuel_type":"hydro","plant:source":"hydro","capacity_mw":16.4,"voltage":"","_region":"chubu","_display_name":"東京都交通局 多摩川第三発電所","_fuel_color":"#0088ff","osm_id":235321718,"osm_type":"way","_category":"ipp"}},{"type":"Feature","geometry":{"type":"Point","coordinates":[137.103706,35.428624]},"properties":{"name":"","name:ja":"","name:en":"","operator":"","fuel_type":"solar","plant:source":"solar","capacity_mw":null,"voltage":"","_region":"chubu","_display_name":"plant_244248744","_fuel_color":"#ffdd00","osm_id":244248744,"osm_type":"way","_category":"ipp"}},{"type":"Feature","geometry":{"type":"Point","coordinates":[138.580944,35.668105]},"properties":{"name":"","name:ja":"","name:en":"","operator":"","fuel_type":"solar","plant:source":"solar","capacity_mw":null,"voltage":"","_region":"chubu","_display_name":"plant_250951790","_fuel_color":"#ffdd00","osm_id":250951790,"osm_type":"way","_category":"ipp"}},{"type":"Feature","geometry":{"type":"Point","coordinates":[138.352103,36.337441]},"properties":{"name":"島川原発電所","name:ja":"","name:en":"","operator":"東京電力リニューアブルパワー","fuel_type":"hydro","plant:source":"hydro","capacity_mw":16.3,"voltage":"","_region":"chubu","_display_name":"島川原発電所","_fuel_color":"#0088ff","osm_id":252476725,"osm_type":"way","_category":"utility"}},{"type":"Feature","geometry":{"type":"Point","coordinates":[138.793795,36.543557]},"properties":{"name":"厚田発電所","name:ja":"","name:en":"","operator":"東京電力株式会社","fuel_type":"hydro","plant:source":"hydro","capacity_mw":-1.0,"voltage":"","_region":"chubu","_display_name":"厚田発電所","_fuel_color":"#0088ff","osm_id":256046921,"osm_type":"way","_category":"utility","_enriched_by":"p03","_p03_distance_km":0.004}},{"type":"Feature","geometry":{"type":"Point","coordinates":[138.444512,35.374561]},"properties":{"name":"","name:ja":"","name:en":"","operator":"","fuel_type":"hydro","plant:source":"hydro","capacity_mw":null,"voltage":"","_region":"chubu","_display_name":"plant_263633056","_fuel_color":"#0088ff","osm_id":263633056,"osm_type":"way","_category":"ipp"}},{"type":"Feature","geometry":{"type":"Point","coordinates":[138.810046,35.458126]},"properties":{"name":"忍野発電所","name:ja":"","name:en":"","operator":"東京電力株式会社","fuel_type":"hydro","plant:source":"hydro","capacity_mw":0.8,"voltage":"","_region":"chubu","_display_name":"忍野発電所","_fuel_color":"#0088ff","osm_id":266938104,"osm_type":"way","_category":"utility"}},{"type":"Feature","geometry":{"type":"Point","coordinates":[138.869649,35.529532]},"properties":{"name":"鹿留発電所","name:ja":"","name:en":"","operator":"東京電力株式会社","fuel_type":"hydro","plant:source":"hydro","capacity_mw":18.4,"voltage":"","_region":"chubu","_display_name":"鹿留発電所","_fuel_color":"#0088ff","osm_id":277235516,"osm_type":"way","_category":"utility"}},{"type":"Feature","geometry":{"type":"Point","coordinates":[138.912913,35.558634]},"properties":{"name":"谷村発電所","name:ja":"","name:en":"","operator":"東京電力株式会社","fuel_type":"hydro","plant:source":"hydro","capacity_mw":14.7,"voltage":"","_region":"chubu","_display_name":"谷村発電所","_fuel_color":"#0088ff","osm_id":278848766,"osm_type":"way","_category":"utility"}},{"type":"Feature","geometry":{"type":"Point","coordinates":[138.921932,35.575235]},"properties":{"name":"川茂発電所","name:ja":"","name:en":"","operator":"東京電力株式会社","fuel_type":"hydro","plant:source":"hydro","capacity_mw":2.5,"voltage":"","_region":"chubu","_display_name":"川茂発電所","_fuel_color":"#0088ff","osm_id":279505759,"osm_type":"way","_category":"utility"}},{"type":"Feature","geometry":{"type":"Point","coordinates":[137.321496,35.217865]},"properties":{"name":"中部電力 笹戸発電所","name:ja":"","name:en":"","operator":"中部電力パワーグリッド","fuel_type":"hydro","plant:source":"hydro","capacity_mw":null,"voltage":"","_region":"chubu","_display_name":"中部電力 笹戸発電所","_fuel_color":"#0088ff","osm_id":301330066,"osm_type":"way","_category":"utility"}},{"type":"Feature","geometry":{"type":"Point","coordinates":[139.175525,36.453092]},"properties":{"name":"","name:ja":"","name:en":"","operator":"","fuel_type":"solar","plant:source":"solar","capacity_mw":null,"voltage":"","_region":"chubu","_display_name":"plant_308822465","_fuel_color":"#ffdd00","osm_id":308822465,"osm_type":"way","_category":"ipp"}},{"type":"Feature","geometry":{"type":"Point","coordinates":[136.767427,35.285007]},"properties":{"name":"","name:ja":"","name:en":"","operator":"","fuel_type":"solar","plant:source":"solar","capacity_mw":null,"voltage":"","_region":"chubu","_display_name":"plant_310760174","_fuel_color":"#ffdd00","osm_id":310760174,"osm_type":"way","_category":"ipp"}},{"type":"Feature","geometry":{"type":"Point","coordinates":[139.142038,36.348937]},"properties":{"name":"","name:ja":"","name:en":"","operator":"","fuel_type":"solar","plant:source":"solar","capacity_mw":null,"voltage":"","_region":"chubu","_display_name":"plant_311743893","_fuel_color":"#ffdd00","osm_id":311743893,"osm_type":"way","_category":"ipp"}},{"type":"Feature","geometry":{"type":"Point","coordinates":[139.006241,36.503766]},"properties":{"name":"渋川発電所","name:ja":"","name:en":"","operator":"東京電力株式会社","fuel_type":"hydro","plant:source":"hydro","capacity_mw":6.8,"voltage":"","_region":"chubu","_display_name":"渋川発電所","_fuel_color":"#0088ff","osm_id":315786801,"osm_type":"way","_category":"utility"}},{"type":"Feature","geometry":{"type":"Point","coordinates":[138.393084,35.82214]},"properties":{"name":"北杜サイト太陽光発電所","name:ja":"","name:en":"","operator":"北杜市","fuel_type":"solar","plant:source":"solar","capacity_mw":-1.0,"voltage":"","_region":"chubu","_display_name":"北杜サイト太陽光発電所","_fuel_color":"#ffdd00","osm_id":330788231,"osm_type":"way","_category":"ipp","_enriched_by":"p03","_p03_distance_km":0.014}},{"type":"Feature","geometry":{"type":"Point","coordinates":[137.718821,34.677998]},"properties":{"name":"","name:ja":"","name:en":"","operator":"個人","fuel_type":"solar","plant:source":"solar","capacity_mw":0.05,"voltage":"","_region":"chubu","_display_name":"plant_333200559","_fuel_color":"#ffdd00","osm_id":333200559,"osm_type":"way","_category":"ipp"}},{"type":"Feature","geometry":{"type":"Point","coordinates":[137.215641,36.757686]},"properties":{"name":"富山火力発電所","name:ja":"","name:en":"Toyama Thermal Power Station","operator":"北陸電力株式会社","fuel_type":"oil","plant:source":"oil","capacity_mw":250.0,"voltage":"","_region":"chubu","_display_name":"富山火力発電所","_fuel_color":"#884400","osm_id":339231657,"osm_type":"way","_category":"utility","_enriched_by":"p03","_p03_distance_km":0.137}},{"type":"Feature","geometry":{"type":"Point","coordinates":[137.223089,36.554035]},"properties":{"name":"神通川第二水力発電所","name:ja":"","name:en":"","operator":"北陸電力株式会社","fuel_type":"hydro","plant:source":"hydro","capacity_mw":41.0,"voltage":"","_region":"chubu","_display_name":"神通川第二水力発電所","_fuel_color":"#0088ff","osm_id":369433303,"osm_type":"way","_category":"utility","_enriched_by":"p03","_p03_distance_km":0.019}},{"type":"Feature","geometry":{"type":"Point","coordinates":[137.689876,34.68636]},"properties":{"name":"宝和工業株式会社","name:ja":"","name:en":"","operator":"個人","fuel_type":"solar","plant:source":"solar","capacity_mw":0.02,"voltage":"","_region":"chubu","_display_name":"宝和工業株式会社","_fuel_color":"#ffdd00","osm_id":370129921,"osm_type":"way","_category":"ipp","_enriched_by":"p03","_p03_distance_km":0.176}},{"type":"Feature","geometry":{"type":"Point","coordinates":[137.119075,36.294552]},"properties":{"name":"","name:ja":"","name:en":"","operator":"","fuel_type":"unknown","plant:source":"","capacity_mw":null,"voltage":"","_region":"chubu","_display_name":"plant_370257140","_fuel_color":"#999999","osm_id":370257140,"osm_type":"way","_category":"ipp"}},{"type":"Feature","geometry":{"type":"Point","coordinates":[137.257577,35.953429]},"properties":{"name":"小坂水力発電所","name:ja":"","name:en":"","operator":"中部電力株式会社","fuel_type":"hydro","plant:source":"hydro","capacity_mw":50.1,"voltage":"","_region":"chubu","_display_name":"小坂水力発電所","_fuel_color":"#0088ff","osm_id":370717459,"osm_type":"way","_category":"utility","_enriched_by":"p03","_p03_distance_km":0.043}},{"type":"Feature","geometry":{"type":"Point","coordinates":[137.184141,35.644871]},"properties":{"name":"佐見川水力発電所","name:ja":"","name:en":"","operator":"中部電力株式会社","fuel_type":"hydro","plant:source":"hydro","capacity_mw":-1.0,"voltage":"","_region":"chubu","_display_name":"佐見川水力発電所","_fuel_color":"#0088ff","osm_id":371419040,"osm_type":"way","_category":"utility","_enriched_by":"p03","_p03_distance_km":0.841}},{"type":"Feature","geometry":{"type":"Point","coordinates":[136.883629,35.833046]},"properties":{"name":"","name:ja":"","name:en":"","operator":"","fuel_type":"unknown","plant:source":"","capacity_mw":null,"voltage":"","_region":"chubu","_display_name":"plant_372424233","_fuel_color":"#999999","osm_id":372424233,"osm_type":"way","_category":"ipp"}},{"type":"Feature","geometry":{"type":"Point","coordinates":[136.855045,35.894137]},"properties":{"name":"","name:ja":"","name:en":"","operator":"","fuel_type":"unknown","plant:source":"","capacity_mw":null,"voltage":"","_region":"chubu","_display_name":"plant_372649855","_fuel_color":"#999999","osm_id":372649855,"osm_type":"way","_category":"ipp"}},{"type":"Feature","geometry":{"type":"Point","coordinates":[136.931437,35.572593]},"properties":{"name":"","name:ja":"","name:en":"","operator":"","fuel_type":"unknown","plant:source":"","capacity_mw":null,"voltage":"","_region":"chubu","_display_name":"plant_373877222","_fuel_color":"#999999","osm_id":373877222,"osm_type":"way","_category":"ipp"}},{"type":"Feature","geometry":{"type":"Point","coordinates":[136.916529,35.403378]},"properties":{"name":"","name:ja":"","name:en":"","operator":"","fuel_type":"unknown","plant:source":"","capacity_mw":null,"voltage":"","_region":"chubu","_display_name":"plant_374781385","_fuel_color":"#999999","osm_id":374781385,"osm_type":"way","_category":"ipp"}},{"type":"Feature","geometry":{"type":"Point","coordinates":[136.938206,35.399271]},"properties":{"name":"","name:ja":"","name:en":"","operator":"","fuel_type":"unknown","plant:source":"","capacity_mw":null,"voltage":"","_region":"chubu","_display_name":"plant_374781390","_fuel_color":"#999999","osm_id":374781390,"osm_type":"way","_category":"ipp"}},{"type":"Feature","geometry":{"type":"Point","coordinates":[138.027279,36.068112]},"properties":{"name":"諏訪湖周クリーンセンター","name:ja":"","name:en":"","operator":"湖周行政事務組合","fuel_type":"waste","plant:source":"waste","capacity_mw":2.05,"voltage":"","_region":"chubu","_display_name":"諏訪湖周クリーンセンター","_fuel_color":"#996633","osm_id":375411619,"osm_type":"way","_category":"ipp"}},{"type":"Feature","geometry":{"type":"Point","coordinates":[136.668556,35.467122]},"properties":{"name":"","name:ja":"","name:en":"","operator":"","fuel_type":"solar","plant:source":"solar","capacity_mw":null,"voltage":"","_region":"chubu","_display_name":"plant_375746557","_fuel_color":"#ffdd00","osm_id":375746557,"osm_type":"way","_category":"ipp"}},{"type":"Feature","geometry":{"type":"Point","coordinates":[136.641279,35.372858]},"properties":{"name":"","name:ja":"","name:en":"","operator":"","fuel_type":"unknown","plant:source":"","capacity_mw":null,"voltage":"","_region":"chubu","_display_name":"plant_375933663","_fuel_color":"#999999","osm_id":375933663,"osm_type":"way","_category":"ipp"}},{"type":"Feature","geometry":{"type":"Point","coordinates":[136.678599,35.389824]},"properties":{"name":"","name:ja":"","name:en":"","operator":"","fuel_type":"unknown","plant:source":"","capacity_mw":null,"voltage":"","_region":"chubu","_display_name":"plant_376075827","_fuel_color":"#999999","osm_id":376075827,"osm_type":"way","_category":"ipp"}},{"type":"Feature","geometry":{"type":"Point","coordinates":[136.677066,35.389675]},"properties":{"name":"","name:ja":"","name:en":"","operator":"","fuel_type":"unknown","plant:source":"","capacity_mw":null,"voltage":"","_region":"chubu","_display_name":"plant_376075828","_fuel_color":"#999999","osm_id":376075828,"osm_type":"way","_category":"ipp"}},{"type":"Feature","geometry":{"type":"Point","coordinates":[136.676633,35.388984]},"properties":{"name":"","name:ja":"","name:en":"","operator":"","fuel_type":"unknown","plant:source":"","capacity_mw":null,"voltage":"","_region":"chubu","_display_name":"plant_376075829","_fuel_color":"#999999","osm_id":376075829,"osm_type":"way","_category":"ipp"}},{"type":"Feature","geometry":{"type":"Point","coordinates":[136.680543,35.390924]},"properties":{"name":"","name:ja":"","name:en":"","operator":"","fuel_type":"solar","plant:source":"solar","capacity_mw":null,"voltage":"","_region":"chubu","_display_name":"plant_376080822","_fuel_color":"#ffdd00","osm_id":376080822,"osm_type":"way","_category":"ipp"}},{"type":"Feature","geometry":{"type":"Point","coordinates":[137.795496,36.180878]},"properties":{"name":"竜島発電所","name:ja":"","name:en":"","operator":"東京電力株式会社","fuel_type":"hydro","plant:source":"hydro","capacity_mw":32.0,"voltage":"","_region":"chubu","_display_name":"竜島発電所","_fuel_color":"#0088ff","osm_id":377300642,"osm_type":"way","_category":"utility","_enriched_by":"p03","_p03_distance_km":0.158}},{"type":"Feature","geometry":{"type":"Point","coordinates":[137.793999,36.181239]},"properties":{"name":"竜島第二発電所","name:ja":"","name:en":"","operator":"東京電力株式会社","fuel_type":"hydro","plant:source":"hydro","capacity_mw":2.4,"voltage":"","_region":"chubu","_display_name":"竜島第二発電所","_fuel_color":"#0088ff","osm_id":377300643,"osm_type":"way","_category":"utility","_enriched_by":"p03","_p03_distance_km":0.019}},{"type":"Feature","geometry":{"type":"Point","coordinates":[137.567345,34.692928]},"properties":{"name":"","name:ja":"","name:en":"","operator":"","fuel_type":"solar","plant:source":"solar","capacity_mw":null,"voltage":"","_region":"chubu","_display_name":"plant_387751493","_fuel_color":"#ffdd00","osm_id":387751493,"osm_type":"way","_category":"ipp"}},{"type":"Feature","geometry":{"type":"Point","coordinates":[137.556961,36.859346]},"properties":{"name":"愛本発電所","name:ja":"","name:en":"","operator":"関西電力株式会社","fuel_type":"hydro","plant:source":"hydro","capacity_mw":6.8,"voltage":"","_region":"chubu","_display_name":"愛本発電所","_fuel_color":"#0088ff","osm_id":395006458,"osm_type":"way","_category":"utility"}},{"type":"Feature","geometry":{"type":"Point","coordinates":[137.546962,36.870722]},"properties":{"name":"黒東第一発電所","name:ja":"","name:en":"","operator":"北陸電力","fuel_type":"hydro","plant:source":"hydro","capacity_mw":1.7,"voltage":"","_region":"chubu","_display_name":"黒東第一発電所","_fuel_color":"#0088ff","osm_id":395006460,"osm_type":"way","_category":"utility"}},{"type":"Feature","geometry":{"type":"Point","coordinates":[138.994604,36.362443]},"properties":{"name":"","name:ja":"","name:en":"","operator":"","fuel_type":"solar","plant:source":"solar","capacity_mw":null,"voltage":"","_region":"chubu","_display_name":"plant_395985730","_fuel_color":"#ffdd00","osm_id":395985730,"osm_type":"way","_category":"ipp"}},{"type":"Feature","geometry":{"type":"Point","coordinates":[138.993792,36.363758]},"properties":{"name":"","name:ja":"","name:en":"","operator":"","fuel_type":"solar","plant:source":"solar","capacity_mw":null,"voltage":"","_region":"chubu","_display_name":"plant_395986776","_fuel_color":"#ffdd00","osm_id":395986776,"osm_type":"way","_category":"ipp"}},{"type":"Feature","geometry":{"type":"Point","coordinates":[137.708929,34.745897]},"properties":{"name":"","name:ja":"","name:en":"","operator":"","fuel_type":"solar","plant:source":"solar","capacity_mw":null,"voltage":"","_region":"chubu","_display_name":"plant_396107653","_fuel_color":"#ffdd00","osm_id":396107653,"osm_type":"way","_category":"ipp"}},{"type":"Feature","geometry":{"type":"Point","coordinates":[137.019051,34.973351]},"properties":{"name":"電気興業依佐美太陽光発電所","name:ja":"","name:en":"","operator":"","fuel_type":"solar","plant:source":"solar","capacity_mw":2.0,"voltage":"","_region":"chubu","_display_name":"電気興業依佐美太陽光発電所","_fuel_color":"#ffdd00","osm_id":409007058,"osm_type":"way","_category":"ipp"}},{"type":"Feature","geometry":{"type":"Point","coordinates":[137.624884,34.696094]},"properties":{"name":"","name:ja":"","name:en":"","operator":"","fuel_type":"solar","plant:source":"solar","capacity_mw":null,"voltage":"","_region":"chubu","_display_name":"plant_420013123","_fuel_color":"#ffdd00","osm_id":420013123,"osm_type":"way","_category":"ipp"}},{"type":"Feature","geometry":{"type":"Point","coordinates":[137.62267,34.698471]},"properties":{"name":"","name:ja":"","name:en":"","operator":"","fuel_type":"solar","plant:source":"solar","capacity_mw":null,"voltage":"","_region":"chubu","_display_name":"plant_420013126","_fuel_color":"#ffdd00","osm_id":420013126,"osm_type":"way","_category":"ipp"}},{"type":"Feature","geometry":{"type":"Point","coordinates":[137.645416,34.686516]},"properties":{"name":"","name:ja":"","name:en":"","operator":"株式会社東陽産業","fuel_type":"solar","plant:source":"solar","capacity_mw":5.0,"voltage":"","_region":"chubu","_display_name":"plant_420013129","_fuel_color":"#ffdd00","osm_id":420013129,"osm_type":"way","_category":"ipp"}},{"type":"Feature","geometry":{"type":"Point","coordinates":[137.957336,34.814822]},"properties":{"name":"","name:ja":"","name:en":"","operator":"","fuel_type":"solar","plant:source":"solar","capacity_mw":null,"voltage":"","_region":"chubu","_display_name":"plant_428462988","_fuel_color":"#ffdd00","osm_id":428462988,"osm_type":"way","_category":"ipp"}},{"type":"Feature","geometry":{"type":"Point","coordinates":[137.995074,34.869384]},"properties":{"name":"","name:ja":"","name:en":"","operator":"","fuel_type":"solar","plant:source":"solar","capacity_mw":null,"voltage":"","_region":"chubu","_display_name":"plant_429404921","_fuel_color":"#ffdd00","osm_id":429404921,"osm_type":"way","_category":"ipp"}},{"type":"Feature","geometry":{"type":"Point","coordinates":[138.040228,34.790523]},"properties":{"name":"","name:ja":"","name:en":"","operator":"","fuel_type":"solar","plant:source":"solar","capacity_mw":null,"voltage":"","_region":"chubu","_display_name":"plant_430125903","_fuel_color":"#ffdd00","osm_id":430125903,"osm_type":"way","_category":"ipp"}},{"type":"Feature","geometry":{"type":"Point","coordinates":[138.039898,34.687255]},"properties":{"name":"","name:ja":"","name:en":"","operator":"","fuel_type":"solar","plant:source":"solar","capacity_mw":null,"voltage":"","_region":"chubu","_display_name":"plant_432887887","_fuel_color":"#ffdd00","osm_id":432887887,"osm_type":"way","_category":"ipp"}},{"type":"Feature","geometry":{"type":"Point","coordinates":[138.008524,34.681515]},"properties":{"name":"","name:ja":"","name:en":"","operator":"","fuel_type":"solar","plant:source":"solar","capacity_mw":null,"voltage":"","_region":"chubu","_display_name":"plant_433052465","_fuel_color":"#ffdd00","osm_id":433052465,"osm_type":"way","_category":"ipp"}},{"type":"Feature","geometry":{"type":"Point","coordinates":[138.056903,34.662338]},"properties":{"name":"","name:ja":"","name:en":"","operator":"","fuel_type":"solar","plant:source":"solar","capacity_mw":null,"voltage":"","_region":"chubu","_display_name":"plant_435286053","_fuel_color":"#ffdd00","osm_id":435286053,"osm_type":"way","_category":"ipp"}},{"type":"Feature","geometry":{"type":"Point","coordinates":[136.40561,34.655579]},"properties":{"name":"","name:ja":"","name:en":"","operator":"","fuel_type":"unknown","plant:source":"","capacity_mw":null,"voltage":"","_region":"chubu","_display_name":"plant_435373330","_fuel_color":"#999999","osm_id":435373330,"osm_type":"way","_category":"ipp"}},{"type":"Feature","geometry":{"type":"Point","coordinates":[136.511462,34.604539]},"properties":{"name":"","name:ja":"","name:en":"","operator":"","fuel_type":"unknown","plant:source":"","capacity_mw":null,"voltage":"","_region":"chubu","_display_name":"plant_435467428","_fuel_color":"#999999","osm_id":435467428,"osm_type":"way","_category":"ipp"}},{"type":"Feature","geometry":{"type":"Point","coordinates":[136.513263,34.602931]},"properties":{"name":"","name:ja":"","name:en":"","operator":"","fuel_type":"unknown","plant:source":"","capacity_mw":null,"voltage":"","_region":"chubu","_display_name":"plant_435468447","_fuel_color":"#999999","osm_id":435468447,"osm_type":"way","_category":"ipp"}},{"type":"Feature","geometry":{"type":"Point","coordinates":[137.999124,34.677388]},"properties":{"name":"","name:ja":"","name:en":"","operator":"","fuel_type":"solar","plant:source":"solar","capacity_mw":null,"voltage":"","_region":"chubu","_display_name":"plant_435572527","_fuel_color":"#ffdd00","osm_id":435572527,"osm_type":"way","_category":"ipp"}},{"type":"Feature","geometry":{"type":"Point","coordinates":[138.005084,34.683396]},"properties":{"name":"","name:ja":"","name:en":"","operator":"","fuel_type":"solar","plant:source":"solar","capacity_mw":null,"voltage":"","_region":"chubu","_display_name":"plant_435611464","_fuel_color":"#ffdd00","osm_id":435611464,"osm_type":"way","_category":"ipp"}},{"type":"Feature","geometry":{"type":"Point","coordinates":[136.51322,34.602078]},"properties":{"name":"","name:ja":"","name:en":"","operator":"","fuel_type":"unknown","plant:source":"","capacity_mw":null,"voltage":"","_region":"chubu","_display_name":"plant_435916896","_fuel_color":"#999999","osm_id":435916896,"osm_type":"way","_category":"ipp"}},{"type":"Feature","geometry":{"type":"Point","coordinates":[136.512711,34.676865]},"properties":{"name":"","name:ja":"","name:en":"","operator":"","fuel_type":"unknown","plant:source":"","capacity_mw":null,"voltage":"","_region":"chubu","_display_name":"plant_435958942","_fuel_color":"#999999","osm_id":435958942,"osm_type":"way","_category":"ipp"}},{"type":"Feature","geometry":{"type":"Point","coordinates":[136.512936,34.675854]},"properties":{"name":"","name:ja":"","name:en":"","operator":"","fuel_type":"unknown","plant:source":"","capacity_mw":null,"voltage":"","_region":"chubu","_display_name":"plant_435958943","_fuel_color":"#999999","osm_id":435958943,"osm_type":"way","_category":"ipp"}},{"type":"Feature","geometry":{"type":"Point","coordinates":[136.506823,34.629979]},"properties":{"name":"","name:ja":"","name:en":"","operator":"","fuel_type":"unknown","plant:source":"","capacity_mw":null,"voltage":"","_region":"chubu","_display_name":"plant_436018871","_fuel_color":"#999999","osm_id":436018871,"osm_type":"way","_category":"ipp"}},{"type":"Feature","geometry":{"type":"Point","coordinates":[136.50806,34.621943]},"properties":{"name":"三雲町南幼児園","name:ja":"","name:en":"","operator":"三雲町長","fuel_type":"solar","plant:source":"solar","capacity_mw":-1.0,"voltage":"","_region":"chubu","_display_name":"三雲町南幼児園","_fuel_color":"#ffdd00","osm_id":436019376,"osm_type":"way","_category":"ipp","_enriched_by":"p03","_p03_distance_km":0.911}},{"type":"Feature","geometry":{"type":"Point","coordinates":[136.508329,34.60993]},"properties":{"name":"三雲町南幼児園","name:ja":"","name:en":"","operator":"三雲町長","fuel_type":"solar","plant:source":"","capacity_mw":-1.0,"voltage":"","_region":"chubu","_display_name":"三雲町南幼児園","_fuel_color":"#999999","osm_id":436024638,"osm_type":"way","_category":"ipp","_enriched_by":"p03","_p03_distance_km":0.536}},{"type":"Feature","geometry":{"type":"Point","coordinates":[136.480498,34.618814]},"properties":{"name":"","name:ja":"","name:en":"","operator":"","fuel_type":"unknown","plant:source":"","capacity_mw":null,"voltage":"","_region":"chubu","_display_name":"plant_436171697","_fuel_color":"#999999","osm_id":436171697,"osm_type":"way","_category":"ipp"}},{"type":"Feature","geometry":{"type":"Point","coordinates":[136.446929,34.647189]},"properties":{"name":"","name:ja":"","name:en":"","operator":"","fuel_type":"unknown","plant:source":"","capacity_mw":null,"voltage":"","_region":"chubu","_display_name":"plant_436175980","_fuel_color":"#999999","osm_id":436175980,"osm_type":"way","_category":"ipp"}},{"type":"Feature","geometry":{"type":"Point","coordinates":[136.41697,34.644156]},"properties":{"name":"","name:ja":"","name:en":"","operator":"","fuel_type":"unknown","plant:source":"","capacity_mw":null,"voltage":"","_region":"chubu","_display_name":"plant_436179199","_fuel_color":"#999999","osm_id":436179199,"osm_type":"way","_category":"ipp"}},{"type":"Feature","geometry":{"type":"Point","coordinates":[136.416723,34.643937]},"properties":{"name":"","name:ja":"","name:en":"","operator":"","fuel_type":"unknown","plant:source":"","capacity_mw":null,"voltage":"","_region":"chubu","_display_name":"plant_436179200","_fuel_color":"#999999","osm_id":436179200,"osm_type":"way","_category":"ipp"}},{"type":"Feature","geometry":{"type":"Point","coordinates":[136.34234,34.640156]},"properties":{"name":"","name:ja":"","name:en":"","operator":"","fuel_type":"unknown","plant:source":"","capacity_mw":null,"voltage":"","_region":"chubu","_display_name":"plant_436182052","_fuel_color":"#999999","osm_id":436182052,"osm_type":"way","_category":"ipp"}},{"type":"Feature","geometry":{"type":"Point","coordinates":[136.309798,34.600443]},"properties":{"name":"竹原水力発電所","name:ja":"","name:en":"","operator":"中部電力株式会社","fuel_type":"solar","plant:source":"solar","capacity_mw":-1.0,"voltage":"","_region":"chubu","_display_name":"竹原水力発電所","_fuel_color":"#ffdd00","osm_id":436315073,"osm_type":"way","_category":"utility","_enriched_by":"p03","_p03_distance_km":0.763}},{"type":"Feature","geometry":{"type":"Point","coordinates":[138.070961,34.678729]},"properties":{"name":"","name:ja":"","name:en":"","operator":"","fuel_type":"solar","plant:source":"solar","capacity_mw":null,"voltage":"","_region":"chubu","_display_name":"plant_436324762","_fuel_color":"#ffdd00","osm_id":436324762,"osm_type":"way","_category":"ipp"}},{"type":"Feature","geometry":{"type":"Point","coordinates":[136.59905,34.842235]},"properties":{"name":"","name:ja":"","name:en":"","operator":"","fuel_type":"unknown","plant:source":"","capacity_mw":null,"voltage":"","_region":"chubu","_display_name":"plant_436783687","_fuel_color":"#999999","osm_id":436783687,"osm_type":"way","_category":"ipp"}},{"type":"Feature","geometry":{"type":"Point","coordinates":[136.532038,35.000985]},"properties":{"name":"朝日ガスエナジー株式会社","name:ja":"","name:en":"","operator":"朝日ガスエナジー株式会社","fuel_type":"solar","plant:source":"","capacity_mw":-1.0,"voltage":"","_region":"chubu","_display_name":"朝日ガスエナジー株式会社","_fuel_color":"#999999","osm_id":437022413,"osm_type":"way","_category":"ipp","_enriched_by":"p03","_p03_distance_km":0.842}},{"type":"Feature","geometry":{"type":"Point","coordinates":[136.484972,35.013064]},"properties":{"name":"","name:ja":"","name:en":"","operator":"","fuel_type":"unknown","plant:source":"","capacity_mw":null,"voltage":"","_region":"chubu","_display_name":"plant_437082284","_fuel_color":"#999999","osm_id":437082284,"osm_type":"way","_category":"ipp"}},{"type":"Feature","geometry":{"type":"Point","coordinates":[136.485988,35.012782]},"properties":{"name":"","name:ja":"","name:en":"","operator":"","fuel_type":"unknown","plant:source":"","capacity_mw":null,"voltage":"","_region":"chubu","_display_name":"plant_437082473","_fuel_color":"#999999","osm_id":437082473,"osm_type":"way","_category":"ipp"}},{"type":"Feature","geometry":{"type":"Point","coordinates":[136.531005,35.002565]},"properties":{"name":"朝日ガスエナジー株式会社","name:ja":"","name:en":"","operator":"朝日ガスエナジー株式会社","fuel_type":"solar","plant:source":"","capacity_mw":-1.0,"voltage":"","_region":"chubu","_display_name":"朝日ガスエナジー株式会社","_fuel_color":"#999999","osm_id":437108381,"osm_type":"way","_category":"ipp","_enriched_by":"p03","_p03_distance_km":0.651}},{"type":"Feature","geometry":{"type":"Point","coordinates":[136.552263,34.987065]},"properties":{"name":"","name:ja":"","name:en":"","operator":"","fuel_type":"unknown","plant:source":"","capacity_mw":null,"voltage":"","_region":"chubu","_display_name":"plant_437112444","_fuel_color":"#999999","osm_id":437112444,"osm_type":"way","_category":"ipp"}},{"type":"Feature","geometry":{"type":"Point","coordinates":[136.601196,34.955799]},"properties":{"name":"","name:ja":"","name:en":"","operator":"","fuel_type":"solar","plant:source":"solar","capacity_mw":null,"voltage":"","_region":"chubu","_display_name":"plant_437304281","_fuel_color":"#ffdd00","osm_id":437304281,"osm_type":"way","_category":"ipp"}},{"type":"Feature","geometry":{"type":"Point","coordinates":[136.769616,35.286203]},"properties":{"name":"","name:ja":"","name:en":"","operator":"","fuel_type":"solar","plant:source":"solar","capacity_mw":null,"voltage":"","_region":"chubu","_display_name":"plant_437383287","_fuel_color":"#ffdd00","osm_id":437383287,"osm_type":"way","_category":"ipp"}},{"type":"Feature","geometry":{"type":"Point","coordinates":[137.995126,34.675791]},"properties":{"name":"","name:ja":"","name:en":"","operator":"","fuel_type":"solar","plant:source":"solar","capacity_mw":null,"voltage":"","_region":"chubu","_display_name":"plant_437399144","_fuel_color":"#ffdd00","osm_id":437399144,"osm_type":"way","_category":"ipp"}},{"type":"Feature","geometry":{"type":"Point","coordinates":[136.588997,34.926792]},"properties":{"name":"","name:ja":"","name:en":"","operator":"","fuel_type":"solar","plant:source":"solar","capacity_mw":null,"voltage":"","_region":"chubu","_display_name":"plant_437578152","_fuel_color":"#ffdd00","osm_id":437578152,"osm_type":"way","_category":"ipp"}},{"type":"Feature","geometry":{"type":"Point","coordinates":[138.013019,34.676524]},"properties":{"name":"","name:ja":"","name:en":"","operator":"","fuel_type":"solar","plant:source":"solar","capacity_mw":null,"voltage":"","_region":"chubu","_display_name":"plant_437715953","_fuel_color":"#ffdd00","osm_id":437715953,"osm_type":"way","_category":"ipp"}},{"type":"Feature","geometry":{"type":"Point","coordinates":[136.66636,35.025688]},"properties":{"name":"川越町立川越南小学校","name:ja":"","name:en":"","operator":"三重県三重郡川越町","fuel_type":"solar","plant:source":"solar","capacity_mw":-1.0,"voltage":"","_region":"chubu","_display_name":"川越町立川越南小学校","_fuel_color":"#ffdd00","osm_id":438128545,"osm_type":"way","_category":"ipp","_enriched_by":"p03","_p03_distance_km":0.38}},{"type":"Feature","geometry":{"type":"Point","coordinates":[138.058244,34.655495]},"properties":{"name":"大東海洋公園風力発電所","name:ja":"","name:en":"","operator":"掛川市","fuel_type":"solar","plant:source":"solar","capacity_mw":-1.0,"voltage":"","_region":"chubu","_display_name":"大東海洋公園風力発電所","_fuel_color":"#ffdd00","osm_id":440019704,"osm_type":"way","_category":"ipp","_enriched_by":"p03","_p03_distance_km":0.792}},{"type":"Feature","geometry":{"type":"Point","coordinates":[138.059574,34.655629]},"properties":{"name":"大東海洋公園風力発電所","name:ja":"","name:en":"","operator":"掛川市","fuel_type":"solar","plant:source":"solar","capacity_mw":-1.0,"voltage":"","_region":"chubu","_display_name":"大東海洋公園風力発電所","_fuel_color":"#ffdd00","osm_id":440019708,"osm_type":"way","_category":"ipp","_enriched_by":"p03","_p03_distance_km":0.723}},{"type":"Feature","geometry":{"type":"Point","coordinates":[138.061203,34.655485]},"properties":{"name":"大東海洋公園風力発電所","name:ja":"","name:en":"","operator":"掛川市","fuel_type":"solar","plant:source":"solar","capacity_mw":-1.0,"voltage":"","_region":"chubu","_display_name":"大東海洋公園風力発電所","_fuel_color":"#ffdd00","osm_id":440019716,"osm_type":"way","_category":"ipp","_enriched_by":"p03","_p03_distance_km":0.629}},{"type":"Feature","geometry":{"type":"Point","coordinates":[136.909345,36.140378]},"properties":{"name":"御母衣水力発電所","name:ja":"御母衣水力発電所","name:en":"","operator":"電源開発株式会社","fuel_type":"hydro","plant:source":"hydro","capacity_mw":215.0,"voltage":"","_region":"chubu","_display_name":"御母衣水力発電所","_fuel_color":"#0088ff","osm_id":440218167,"osm_type":"way","_category":"utility"}},{"type":"Feature","geometry":{"type":"Point","coordinates":[136.87501,36.354117]},"properties":{"name":"新成出水力発電所","name:ja":"新成出水力発電所","name:en":"","operator":"関西電力株式会社","fuel_type":"hydro","plant:source":"hydro","capacity_mw":35.0,"voltage":"","_region":"chubu","_display_name":"新成出水力発電所","_fuel_color":"#0088ff","osm_id":440225776,"osm_type":"way","_category":"utility","_enriched_by":"p03","_p03_distance_km":0.013}},{"type":"Feature","geometry":{"type":"Point","coordinates":[139.113894,35.232541]},"properties":{"name":"","name:ja":"","name:en":"","operator":"","fuel_type":"hydro","plant:source":"hydro","capacity_mw":null,"voltage":"","_region":"chubu","_display_name":"plant_441375468","_fuel_color":"#0088ff","osm_id":441375468,"osm_type":"way","_category":"ipp"}},{"type":"Feature","geometry":{"type":"Point","coordinates":[138.242969,35.947188]},"properties":{"name":"","name:ja":"","name:en":"","operator":"","fuel_type":"solar","plant:source":"solar","capacity_mw":null,"voltage":"","_region":"chubu","_display_name":"plant_441605413","_fuel_color":"#ffdd00","osm_id":441605413,"osm_type":"way","_category":"ipp"}},{"type":"Feature","geometry":{"type":"Point","coordinates":[138.382219,35.797596]},"properties":{"name":"","name:ja":"","name:en":"","operator":"","fuel_type":"solar","plant:source":"solar","capacity_mw":null,"voltage":"","_region":"chubu","_display_name":"plant_442999057","_fuel_color":"#ffdd00","osm_id":442999057,"osm_type":"way","_category":"ipp"}},{"type":"Feature","geometry":{"type":"Point","coordinates":[138.46053,35.701188]},"properties":{"name":"山梨県北巨摩合同庁舎峡北地域振興局太陽電池発電所","name:ja":"","name:en":"","operator":"山梨県北巨摩合同庁舎峡北地域振興局","fuel_type":"solar","plant:source":"solar","capacity_mw":-1.0,"voltage":"","_region":"chubu","_display_name":"山梨県北巨摩合同庁舎峡北地域振興局太陽電池発電所","_fuel_color":"#ffdd00","osm_id":443120043,"osm_type":"way","_category":"ipp","_enriched_by":"p03","_p03_distance_km":0.196}},{"type":"Feature","geometry":{"type":"Point","coordinates":[138.506882,35.668785]},"properties":{"name":"","name:ja":"","name:en":"","operator":"","fuel_type":"solar","plant:source":"solar","capacity_mw":null,"voltage":"","_region":"chubu","_display_name":"plant_443124159","_fuel_color":"#ffdd00","osm_id":443124159,"osm_type":"way","_category":"ipp"}},{"type":"Feature","geometry":{"type":"Point","coordinates":[138.624082,35.657343]},"properties":{"name":"","name:ja":"","name:en":"","operator":"","fuel_type":"solar","plant:source":"solar","capacity_mw":null,"voltage":"","_region":"chubu","_display_name":"plant_443471036","_fuel_color":"#ffdd00","osm_id":443471036,"osm_type":"way","_category":"ipp"}},{"type":"Feature","geometry":{"type":"Point","coordinates":[138.622666,35.657299]},"properties":{"name":"","name:ja":"","name:en":"","operator":"","fuel_type":"solar","plant:source":"solar","capacity_mw":null,"voltage":"","_region":"chubu","_display_name":"plant_443471037","_fuel_color":"#ffdd00","osm_id":443471037,"osm_type":"way","_category":"ipp"}},{"type":"Feature","geometry":{"type":"Point","coordinates":[138.677623,35.686272]},"properties":{"name":"","name:ja":"","name:en":"","operator":"","fuel_type":"unknown","plant:source":"","capacity_mw":null,"voltage":"","_region":"chubu","_display_name":"plant_443684725","_fuel_color":"#999999","osm_id":443684725,"osm_type":"way","_category":"ipp"}},{"type":"Feature","geometry":{"type":"Point","coordinates":[138.691326,35.687946]},"properties":{"name":"","name:ja":"","name:en":"","operator":"","fuel_type":"unknown","plant:source":"","capacity_mw":null,"voltage":"","_region":"chubu","_display_name":"plant_443691105","_fuel_color":"#999999","osm_id":443691105,"osm_type":"way","_category":"ipp"}},{"type":"Feature","geometry":{"type":"Point","coordinates":[138.69689,35.691316]},"properties":{"name":"","name:ja":"","name:en":"","operator":"","fuel_type":"unknown","plant:source":"","capacity_mw":null,"voltage":"","_region":"chubu","_display_name":"plant_443691213","_fuel_color":"#999999","osm_id":443691213,"osm_type":"way","_category":"ipp"}},{"type":"Feature","geometry":{"type":"Point","coordinates":[138.723786,35.705949]},"properties":{"name":"","name:ja":"","name:en":"","operator":"","fuel_type":"unknown","plant:source":"","capacity_mw":null,"voltage":"","_region":"chubu","_display_name":"plant_443701623","_fuel_color":"#999999","osm_id":443701623,"osm_type":"way","_category":"ipp"}},{"type":"Feature","geometry":{"type":"Point","coordinates":[138.740862,35.704828]},"properties":{"name":"","name:ja":"","name:en":"","operator":"","fuel_type":"unknown","plant:source":"","capacity_mw":null,"voltage":"","_region":"chubu","_display_name":"plant_443718781","_fuel_color":"#999999","osm_id":443718781,"osm_type":"way","_category":"ipp"}},{"type":"Feature","geometry":{"type":"Point","coordinates":[138.057815,34.783839]},"properties":{"name":"","name:ja":"","name:en":"","operator":"","fuel_type":"solar","plant:source":"solar","capacity_mw":null,"voltage":"","_region":"chubu","_display_name":"plant_444519169","_fuel_color":"#ffdd00","osm_id":444519169,"osm_type":"way","_category":"ipp"}},{"type":"Feature","geometry":{"type":"Point","coordinates":[136.019967,35.751983]},"properties":{"name":"敦賀原子力発電所","name:ja":"敦賀原子力発電所","name:en":"Tsuruga Nuclear Power Plant","operator":"日本原子力発電株式会社","fuel_type":"nuclear","plant:source":"nuclear","capacity_mw":1160.0,"voltage":"","_region":"chubu","_display_name":"敦賀原子力発電所","_fuel_color":"#ff0000","osm_id":449155824,"osm_type":"way","_category":"utility"}},{"type":"Feature","geometry":{"type":"Point","coordinates":[138.184851,36.853636]},"properties":{"name":"杉野沢発電所","name:ja":"","name:en":"","operator":"","fuel_type":"hydro","plant:source":"hydro","capacity_mw":null,"voltage":"","_region":"chubu","_display_name":"杉野沢発電所","_fuel_color":"#0088ff","osm_id":452574946,"osm_type":"way","_category":"ipp"}},{"type":"Feature","geometry":{"type":"Point","coordinates":[138.366254,35.409965]},"properties":{"name":"角瀬発電所","name:ja":"","name:en":"","operator":"","fuel_type":"hydro","plant:source":"hydro","capacity_mw":null,"voltage":"","_region":"chubu","_display_name":"角瀬発電所","_fuel_color":"#0088ff","osm_id":459553480,"osm_type":"way","_category":"ipp"}},{"type":"Feature","geometry":{"type":"Point","coordinates":[138.004083,34.675568]},"properties":{"name":"","name:ja":"","name:en":"","operator":"","fuel_type":"solar","plant:source":"solar","capacity_mw":null,"voltage":"","_region":"chubu","_display_name":"plant_459680666","_fuel_color":"#ffdd00","osm_id":459680666,"osm_type":"way","_category":"ipp"}},{"type":"Feature","geometry":{"type":"Point","coordinates":[136.581527,34.818857]},"properties":{"name":"寺家太陽光発電所","name:ja":"","name:en":"","operator":"","fuel_type":"solar","plant:source":"solar","capacity_mw":null,"voltage":"","_region":"chubu","_display_name":"寺家太陽光発電所","_fuel_color":"#ffdd00","osm_id":462670276,"osm_type":"way","_category":"ipp"}},{"type":"Feature","geometry":{"type":"Point","coordinates":[137.790513,35.303157]},"properties":{"name":"豊発電所","name:ja":"","name:en":"","operator":"","fuel_type":"hydro","plant:source":"hydro","capacity_mw":null,"voltage":"","_region":"chubu","_display_name":"豊発電所","_fuel_color":"#0088ff","osm_id":463583082,"osm_type":"way","_category":"ipp"}},{"type":"Feature","geometry":{"type":"Point","coordinates":[137.945318,34.878629]},"properties":{"name":"","name:ja":"","name:en":"","operator":"","fuel_type":"solar","plant:source":"solar","capacity_mw":null,"voltage":"","_region":"chubu","_display_name":"plant_465828148","_fuel_color":"#ffdd00","osm_id":465828148,"osm_type":"way","_category":"ipp"}},{"type":"Feature","geometry":{"type":"Point","coordinates":[137.939092,34.838675]},"properties":{"name":"","name:ja":"","name:en":"","operator":"","fuel_type":"solar","plant:source":"solar","capacity_mw":null,"voltage":"","_region":"chubu","_display_name":"plant_466389884","_fuel_color":"#ffdd00","osm_id":466389884,"osm_type":"way","_category":"ipp"}},{"type":"Feature","geometry":{"type":"Point","coordinates":[137.915468,34.826633]},"properties":{"name":"","name:ja":"","name:en":"","operator":"","fuel_type":"solar","plant:source":"solar","capacity_mw":null,"voltage":"","_region":"chubu","_display_name":"plant_467121961","_fuel_color":"#ffdd00","osm_id":467121961,"osm_type":"way","_category":"ipp"}},{"type":"Feature","geometry":{"type":"Point","coordinates":[138.508844,34.999719]},"properties":{"name":"","name:ja":"","name:en":"","operator":"","fuel_type":"solar","plant:source":"solar","capacity_mw":null,"voltage":"","_region":"chubu","_display_name":"plant_469821243","_fuel_color":"#ffdd00","osm_id":469821243,"osm_type":"way","_category":"ipp"}},{"type":"Feature","geometry":{"type":"Point","coordinates":[137.894802,34.959837]},"properties":{"name":"","name:ja":"","name:en":"","operator":"","fuel_type":"solar","plant:source":"solar","capacity_mw":null,"voltage":"","_region":"chubu","_display_name":"plant_469925210","_fuel_color":"#ffdd00","osm_id":469925210,"osm_type":"way","_category":"ipp"}},{"type":"Feature","geometry":{"type":"Point","coordinates":[138.056708,34.762542]},"properties":{"name":"浜崎商店 菊川市西方ソーラー発電所","name:ja":"","name:en":"","operator":"","fuel_type":"solar","plant:source":"solar","capacity_mw":null,"voltage":"","_region":"chubu","_display_name":"浜崎商店 菊川市西方ソーラー発電所","_fuel_color":"#ffdd00","osm_id":475181160,"osm_type":"way","_category":"ipp"}},{"type":"Feature","geometry":{"type":"Point","coordinates":[138.206179,34.61768]},"properties":{"name":"元旦ビューティ工業株式会社","name:ja":"","name:en":"","operator":"元旦ビューティ工業株式会社","fuel_type":"solar","plant:source":"solar","capacity_mw":-1.0,"voltage":"","_region":"chubu","_display_name":"元旦ビューティ工業株式会社","_fuel_color":"#ffdd00","osm_id":481317060,"osm_type":"way","_category":"ipp","_enriched_by":"p03","_p03_distance_km":0.866}},{"type":"Feature","geometry":{"type":"Point","coordinates":[138.079431,34.782015]},"properties":{"name":"","name:ja":"","name:en":"","operator":"","fuel_type":"solar","plant:source":"solar","capacity_mw":null,"voltage":"","_region":"chubu","_display_name":"plant_482640272","_fuel_color":"#ffdd00","osm_id":482640272,"osm_type":"way","_category":"ipp"}},{"type":"Feature","geometry":{"type":"Point","coordinates":[138.12749,34.783351]},"properties":{"name":"","name:ja":"","name:en":"","operator":"","fuel_type":"solar","plant:source":"solar","capacity_mw":null,"voltage":"","_region":"chubu","_display_name":"plant_483370386","_fuel_color":"#ffdd00","osm_id":483370386,"osm_type":"way","_category":"ipp"}},{"type":"Feature","geometry":{"type":"Point","coordinates":[138.109004,34.777393]},"properties":{"name":"","name:ja":"","name:en":"","operator":"","fuel_type":"solar","plant:source":"solar","capacity_mw":null,"voltage":"","_region":"chubu","_display_name":"plant_483642168","_fuel_color":"#ffdd00","osm_id":483642168,"osm_type":"way","_category":"ipp"}},{"type":"Feature","geometry":{"type":"Point","coordinates":[138.093874,34.676708]},"properties":{"name":"","name:ja":"","name:en":"","operator":"","fuel_type":"solar","plant:source":"solar","capacity_mw":null,"voltage":"","_region":"chubu","_display_name":"plant_483675159","_fuel_color":"#ffdd00","osm_id":483675159,"osm_type":"way","_category":"ipp"}},{"type":"Feature","geometry":{"type":"Point","coordinates":[138.097623,34.676071]},"properties":{"name":"","name:ja":"","name:en":"","operator":"","fuel_type":"solar","plant:source":"solar","capacity_mw":null,"voltage":"","_region":"chubu","_display_name":"plant_483675175","_fuel_color":"#ffdd00","osm_id":483675175,"osm_type":"way","_category":"ipp"}},{"type":"Feature","geometry":{"type":"Point","coordinates":[138.097851,34.675394]},"properties":{"name":"","name:ja":"","name:en":"","operator":"","fuel_type":"solar","plant:source":"solar","capacity_mw":null,"voltage":"","_region":"chubu","_display_name":"plant_483675176","_fuel_color":"#ffdd00","osm_id":483675176,"osm_type":"way","_category":"ipp"}},{"type":"Feature","geometry":{"type":"Point","coordinates":[139.04315,36.451039]},"properties":{"name":"田口発電所","name:ja":"","name:en":"","operator":"群馬県企業局","fuel_type":"hydro","plant:source":"hydro","capacity_mw":6.0,"voltage":"","_region":"chubu","_display_name":"田口発電所","_fuel_color":"#0088ff","osm_id":484344788,"osm_type":"way","_category":"ipp"}},{"type":"Feature","geometry":{"type":"Point","coordinates":[139.042898,36.451154]},"properties":{"name":"群馬県坂東発電事務所","name:ja":"","name:en":"","operator":"","fuel_type":"hydro","plant:source":"hydro","capacity_mw":null,"voltage":"","_region":"chubu","_display_name":"群馬県坂東発電事務所","_fuel_color":"#0088ff","osm_id":484344791,"osm_type":"way","_category":"ipp"}},{"type":"Feature","geometry":{"type":"Point","coordinates":[137.95867,34.669289]},"properties":{"name":"","name:ja":"","name:en":"","operator":"","fuel_type":"solar","plant:source":"solar","capacity_mw":null,"voltage":"","_region":"chubu","_display_name":"plant_494878368","_fuel_color":"#ffdd00","osm_id":494878368,"osm_type":"way","_category":"ipp"}},{"type":"Feature","geometry":{"type":"Point","coordinates":[137.875962,34.80374]},"properties":{"name":"","name:ja":"","name:en":"","operator":"","fuel_type":"solar","plant:source":"solar","capacity_mw":null,"voltage":"","_region":"chubu","_display_name":"plant_496326033","_fuel_color":"#ffdd00","osm_id":496326033,"osm_type":"way","_category":"ipp"}},{"type":"Feature","geometry":{"type":"Point","coordinates":[137.945869,34.67174]},"properties":{"name":"","name:ja":"","name:en":"","operator":"","fuel_type":"solar","plant:source":"solar","capacity_mw":null,"voltage":"","_region":"chubu","_display_name":"plant_497058386","_fuel_color":"#ffdd00","osm_id":497058386,"osm_type":"way","_category":"ipp"}},{"type":"Feature","geometry":{"type":"Point","coordinates":[138.112696,34.772879]},"properties":{"name":"","name:ja":"","name:en":"","operator":"","fuel_type":"solar","plant:source":"solar","capacity_mw":null,"voltage":"","_region":"chubu","_display_name":"plant_497600650","_fuel_color":"#ffdd00","osm_id":497600650,"osm_type":"way","_category":"ipp"}},{"type":"Feature","geometry":{"type":"Point","coordinates":[138.132016,34.635012]},"properties":{"name":"","name:ja":"","name:en":"","operator":"","fuel_type":"solar","plant:source":"solar","capacity_mw":null,"voltage":"","_region":"chubu","_display_name":"plant_498261752","_fuel_color":"#ffdd00","osm_id":498261752,"osm_type":"way","_category":"ipp"}},{"type":"Feature","geometry":{"type":"Point","coordinates":[138.200266,34.608793]},"properties":{"name":"御前崎町白羽小学校","name:ja":"","name:en":"","operator":"御前崎市","fuel_type":"solar","plant:source":"solar","capacity_mw":-1.0,"voltage":"","_region":"chubu","_display_name":"御前崎町白羽小学校","_fuel_color":"#ffdd00","osm_id":498573340,"osm_type":"way","_category":"ipp","_enriched_by":"p03","_p03_distance_km":0.985}},{"type":"Feature","geometry":{"type":"Point","coordinates":[138.089753,34.674114]},"properties":{"name":"","name:ja":"","name:en":"","operator":"","fuel_type":"solar","plant:source":"solar","capacity_mw":null,"voltage":"","_region":"chubu","_display_name":"plant_500173253","_fuel_color":"#ffdd00","osm_id":500173253,"osm_type":"way","_category":"ipp"}},{"type":"Feature","geometry":{"type":"Point","coordinates":[138.183531,34.625913]},"properties":{"name":"","name:ja":"","name:en":"","operator":"","fuel_type":"solar","plant:source":"solar","capacity_mw":null,"voltage":"","_region":"chubu","_display_name":"plant_500392856","_fuel_color":"#ffdd00","osm_id":500392856,"osm_type":"way","_category":"ipp"}},{"type":"Feature","geometry":{"type":"Point","coordinates":[138.229883,34.602945]},"properties":{"name":"マリンパーク御前崎風力発電所","name:ja":"","name:en":"","operator":"御前崎市","fuel_type":"solar","plant:source":"solar","capacity_mw":-1.0,"voltage":"","_region":"chubu","_display_name":"マリンパーク御前崎風力発電所","_fuel_color":"#ffdd00","osm_id":500432582,"osm_type":"way","_category":"ipp","_enriched_by":"p03","_p03_distance_km":0.505}},{"type":"Feature","geometry":{"type":"Point","coordinates":[138.232187,34.602121]},"properties":{"name":"マリンパーク御前崎風力発電所","name:ja":"","name:en":"","operator":"御前崎市","fuel_type":"solar","plant:source":"solar","capacity_mw":-1.0,"voltage":"","_region":"chubu","_display_name":"マリンパーク御前崎風力発電所","_fuel_color":"#ffdd00","osm_id":500432587,"osm_type":"way","_category":"ipp","_enriched_by":"p03","_p03_distance_km":0.694}},{"type":"Feature","geometry":{"type":"Point","coordinates":[138.173115,34.622532]},"properties":{"name":"","name:ja":"","name:en":"","operator":"","fuel_type":"solar","plant:source":"solar","capacity_mw":null,"voltage":"","_region":"chubu","_display_name":"plant_500446763","_fuel_color":"#ffdd00","osm_id":500446763,"osm_type":"way","_category":"ipp"}},{"type":"Feature","geometry":{"type":"Point","coordinates":[138.100345,34.647873]},"properties":{"name":"","name:ja":"","name:en":"","operator":"","fuel_type":"solar","plant:source":"solar","capacity_mw":null,"voltage":"","_region":"chubu","_display_name":"plant_500560437","_fuel_color":"#ffdd00","osm_id":500560437,"osm_type":"way","_category":"ipp"}},{"type":"Feature","geometry":{"type":"Point","coordinates":[138.108343,34.659954]},"properties":{"name":"","name:ja":"","name:en":"","operator":"","fuel_type":"solar","plant:source":"solar","capacity_mw":null,"voltage":"","_region":"chubu","_display_name":"plant_500565260","_fuel_color":"#ffdd00","osm_id":500565260,"osm_type":"way","_category":"ipp"}},{"type":"Feature","geometry":{"type":"Point","coordinates":[137.097105,34.931648]},"properties":{"name":"株式会社エイ・ダブリュ・エンジニアリング","name:ja":"","name:en":"","operator":"株式会社エイ・ダブリュ・エンジニアリング","fuel_type":"solar","plant:source":"solar","capacity_mw":-1.0,"voltage":"","_region":"chubu","_display_name":"株式会社エイ・ダブリュ・エンジニアリング","_fuel_color":"#ffdd00","osm_id":501252115,"osm_type":"way","_category":"ipp","_enriched_by":"p03","_p03_distance_km":0.504}},{"type":"Feature","geometry":{"type":"Point","coordinates":[137.119891,34.904999]},"properties":{"name":"","name:ja":"","name:en":"","operator":"","fuel_type":"unknown","plant:source":"","capacity_mw":null,"voltage":"","_region":"chubu","_display_name":"plant_501255384","_fuel_color":"#999999","osm_id":501255384,"osm_type":"way","_category":"ipp"}},{"type":"Feature","geometry":{"type":"Point","coordinates":[137.15251,34.869661]},"properties":{"name":"","name:ja":"","name:en":"","operator":"","fuel_type":"solar","plant:source":"solar","capacity_mw":null,"voltage":"","_region":"chubu","_display_name":"plant_501278844","_fuel_color":"#ffdd00","osm_id":501278844,"osm_type":"way","_category":"ipp"}},{"type":"Feature","geometry":{"type":"Point","coordinates":[137.251109,34.820412]},"properties":{"name":"","name:ja":"","name:en":"","operator":"","fuel_type":"solar","plant:source":"solar","capacity_mw":null,"voltage":"","_region":"chubu","_display_name":"plant_501290238","_fuel_color":"#ffdd00","osm_id":501290238,"osm_type":"way","_category":"ipp"}},{"type":"Feature","geometry":{"type":"Point","coordinates":[137.253339,34.819307]},"properties":{"name":"","name:ja":"","name:en":"","operator":"","fuel_type":"solar","plant:source":"solar","capacity_mw":null,"voltage":"","_region":"chubu","_display_name":"plant_501291647","_fuel_color":"#ffdd00","osm_id":501291647,"osm_type":"way","_category":"ipp"}},{"type":"Feature","geometry":{"type":"Point","coordinates":[137.360446,34.786507]},"properties":{"name":"","name:ja":"","name:en":"","operator":"","fuel_type":"solar","plant:source":"solar","capacity_mw":null,"voltage":"","_region":"chubu","_display_name":"plant_501295507","_fuel_color":"#ffdd00","osm_id":501295507,"osm_type":"way","_category":"ipp"}},{"type":"Feature","geometry":{"type":"Point","coordinates":[137.356617,34.786865]},"properties":{"name":"","name:ja":"","name:en":"","operator":"","fuel_type":"solar","plant:source":"solar","capacity_mw":null,"voltage":"","_region":"chubu","_display_name":"plant_501295516","_fuel_color":"#ffdd00","osm_id":501295516,"osm_type":"way","_category":"ipp"}},{"type":"Feature","geometry":{"type":"Point","coordinates":[138.128885,34.653882]},"properties":{"name":"","name:ja":"","name:en":"","operator":"","fuel_type":"solar","plant:source":"solar","capacity_mw":null,"voltage":"","_region":"chubu","_display_name":"plant_501299694","_fuel_color":"#ffdd00","osm_id":501299694,"osm_type":"way","_category":"ipp"}},{"type":"Feature","geometry":{"type":"Point","coordinates":[138.170699,34.622556]},"properties":{"name":"","name:ja":"","name:en":"","operator":"","fuel_type":"solar","plant:source":"solar","capacity_mw":null,"voltage":"","_region":"chubu","_display_name":"plant_501352346","_fuel_color":"#ffdd00","osm_id":501352346,"osm_type":"way","_category":"ipp"}},{"type":"Feature","geometry":{"type":"Point","coordinates":[138.166314,34.621372]},"properties":{"name":"","name:ja":"","name:en":"","operator":"","fuel_type":"solar","plant:source":"solar","capacity_mw":null,"voltage":"","_region":"chubu","_display_name":"plant_501352352","_fuel_color":"#ffdd00","osm_id":501352352,"osm_type":"way","_category":"ipp"}},{"type":"Feature","geometry":{"type":"Point","coordinates":[138.171551,34.623812]},"properties":{"name":"","name:ja":"","name:en":"","operator":"","fuel_type":"solar","plant:source":"solar","capacity_mw":null,"voltage":"","_region":"chubu","_display_name":"plant_501352383","_fuel_color":"#ffdd00","osm_id":501352383,"osm_type":"way","_category":"ipp"}},{"type":"Feature","geometry":{"type":"Point","coordinates":[138.190497,34.621466]},"properties":{"name":"","name:ja":"","name:en":"","operator":"","fuel_type":"solar","plant:source":"solar","capacity_mw":null,"voltage":"","_region":"chubu","_display_name":"plant_501382614","_fuel_color":"#ffdd00","osm_id":501382614,"osm_type":"way","_category":"ipp"}},{"type":"Feature","geometry":{"type":"Point","coordinates":[138.075843,34.752359]},"properties":{"name":"菊川町市立菊川学校給食センター","name:ja":"","name:en":"","operator":"菊川町","fuel_type":"solar","plant:source":"solar","capacity_mw":-1.0,"voltage":"","_region":"chubu","_display_name":"菊川町市立菊川学校給食センター","_fuel_color":"#ffdd00","osm_id":501581377,"osm_type":"way","_category":"ipp","_enriched_by":"p03","_p03_distance_km":0.608}},{"type":"Feature","geometry":{"type":"Point","coordinates":[137.698686,34.736466]},"properties":{"name":"","name:ja":"","name:en":"","operator":"","fuel_type":"solar","plant:source":"solar","capacity_mw":null,"voltage":"","_region":"chubu","_display_name":"plant_501675231","_fuel_color":"#ffdd00","osm_id":501675231,"osm_type":"way","_category":"ipp"}},{"type":"Feature","geometry":{"type":"Point","coordinates":[137.413111,34.734642]},"properties":{"name":"株式会社野口製作所","name:ja":"","name:en":"","operator":"株式会社野口製作所","fuel_type":"solar","plant:source":"","capacity_mw":-1.0,"voltage":"","_region":"chubu","_display_name":"株式会社野口製作所","_fuel_color":"#999999","osm_id":503172351,"osm_type":"way","_category":"ipp","_enriched_by":"p03","_p03_distance_km":0.946}},{"type":"Feature","geometry":{"type":"Point","coordinates":[137.600506,34.692017]},"properties":{"name":"","name:ja":"","name:en":"","operator":"","fuel_type":"solar","plant:source":"solar","capacity_mw":null,"voltage":"","_region":"chubu","_display_name":"plant_503282509","_fuel_color":"#ffdd00","osm_id":503282509,"osm_type":"way","_category":"ipp"}},{"type":"Feature","geometry":{"type":"Point","coordinates":[137.596698,34.693216]},"properties":{"name":"","name:ja":"","name:en":"","operator":"","fuel_type":"solar","plant:source":"solar","capacity_mw":null,"voltage":"","_region":"chubu","_display_name":"plant_503282515","_fuel_color":"#ffdd00","osm_id":503282515,"osm_type":"way","_category":"ipp"}},{"type":"Feature","geometry":{"type":"Point","coordinates":[137.616007,34.687312]},"properties":{"name":"","name:ja":"","name:en":"","operator":"株式会社Eネクスト","fuel_type":"solar","plant:source":"solar","capacity_mw":0.04,"voltage":"","_region":"chubu","_display_name":"plant_503283525","_fuel_color":"#ffdd00","osm_id":503283525,"osm_type":"way","_category":"ipp"}},{"type":"Feature","geometry":{"type":"Point","coordinates":[137.615431,34.687229]},"properties":{"name":"","name:ja":"","name:en":"","operator":"株式会社ヤマリュウ","fuel_type":"solar","plant:source":"solar","capacity_mw":0.04,"voltage":"","_region":"chubu","_display_name":"plant_503283526","_fuel_color":"#ffdd00","osm_id":503283526,"osm_type":"way","_category":"ipp"}},{"type":"Feature","geometry":{"type":"Point","coordinates":[137.610051,34.688352]},"properties":{"name":"","name:ja":"","name:en":"","operator":"株式会社タテケイ","fuel_type":"solar","plant:source":"solar","capacity_mw":0.33,"voltage":"","_region":"chubu","_display_name":"plant_503283528","_fuel_color":"#ffdd00","osm_id":503283528,"osm_type":"way","_category":"ipp"}},{"type":"Feature","geometry":{"type":"Point","coordinates":[137.655969,34.691173]},"properties":{"name":"","name:ja":"","name:en":"","operator":"株式会社アサヒコーポレーション","fuel_type":"solar","plant:source":"solar","capacity_mw":10.99,"voltage":"","_region":"chubu","_display_name":"plant_503285549","_fuel_color":"#ffdd00","osm_id":503285549,"osm_type":"way","_category":"ipp"}},{"type":"Feature","geometry":{"type":"Point","coordinates":[137.654917,34.690433]},"properties":{"name":"","name:ja":"","name:en":"","operator":"","fuel_type":"solar","plant:source":"solar","capacity_mw":null,"voltage":"","_region":"chubu","_display_name":"plant_503285550","_fuel_color":"#ffdd00","osm_id":503285550,"osm_type":"way","_category":"ipp"}},{"type":"Feature","geometry":{"type":"Point","coordinates":[137.700384,34.693803]},"properties":{"name":"","name:ja":"","name:en":"","operator":"個人","fuel_type":"solar","plant:source":"solar","capacity_mw":0.1,"voltage":"","_region":"chubu","_display_name":"plant_503288316","_fuel_color":"#ffdd00","osm_id":503288316,"osm_type":"way","_category":"ipp"}},{"type":"Feature","geometry":{"type":"Point","coordinates":[137.679847,34.695027]},"properties":{"name":"","name:ja":"","name:en":"","operator":"夏目技研","fuel_type":"solar","plant:source":"solar","capacity_mw":0.04,"voltage":"","_region":"chubu","_display_name":"plant_503288329","_fuel_color":"#ffdd00","osm_id":503288329,"osm_type":"way","_category":"ipp"}},{"type":"Feature","geometry":{"type":"Point","coordinates":[137.868213,34.709285]},"properties":{"name":"","name:ja":"","name:en":"","operator":"","fuel_type":"unknown","plant:source":"","capacity_mw":null,"voltage":"","_region":"chubu","_display_name":"plant_504537540","_fuel_color":"#999999","osm_id":504537540,"osm_type":"way","_category":"ipp"}},{"type":"Feature","geometry":{"type":"Point","coordinates":[136.594094,36.454992]},"properties":{"name":"手取川宮竹用水第2発電所","name:ja":"","name:en":"","operator":"手取川七ヶ用水土地改良区","fuel_type":"hydro","plant:source":"hydro","capacity_mw":0.58,"voltage":"","_region":"chubu","_display_name":"手取川宮竹用水第2発電所","_fuel_color":"#0088ff","osm_id":505835398,"osm_type":"way","_category":"ipp","_enriched_by":"p03","_p03_distance_km":0.927}},{"type":"Feature","geometry":{"type":"Point","coordinates":[136.564751,36.455891]},"properties":{"name":"宮竹用水第1発電所","name:ja":"","name:en":"","operator":"宮竹用水土地改良区","fuel_type":"hydro","plant:source":"hydro","capacity_mw":0.64,"voltage":"","_region":"chubu","_display_name":"宮竹用水第1発電所","_fuel_color":"#0088ff","osm_id":505835399,"osm_type":"way","_category":"ipp","_enriched_by":"p03","_p03_distance_km":0.005}},{"type":"Feature","geometry":{"type":"Point","coordinates":[137.610668,34.74157]},"properties":{"name":"","name:ja":"","name:en":"","operator":"","fuel_type":"solar","plant:source":"solar","capacity_mw":null,"voltage":"","_region":"chubu","_display_name":"plant_506852048","_fuel_color":"#ffdd00","osm_id":506852048,"osm_type":"way","_category":"ipp"}},{"type":"Feature","geometry":{"type":"Point","coordinates":[137.607865,34.742557]},"properties":{"name":"","name:ja":"","name:en":"","operator":"","fuel_type":"solar","plant:source":"solar","capacity_mw":null,"voltage":"","_region":"chubu","_display_name":"plant_506852049","_fuel_color":"#ffdd00","osm_id":506852049,"osm_type":"way","_category":"ipp"}},{"type":"Feature","geometry":{"type":"Point","coordinates":[137.60734,34.740989]},"properties":{"name":"","name:ja":"","name:en":"","operator":"","fuel_type":"solar","plant:source":"solar","capacity_mw":null,"voltage":"","_region":"chubu","_display_name":"plant_506852050","_fuel_color":"#ffdd00","osm_id":506852050,"osm_type":"way","_category":"ipp"}},{"type":"Feature","geometry":{"type":"Point","coordinates":[137.605102,34.744357]},"properties":{"name":"","name:ja":"","name:en":"","operator":"","fuel_type":"solar","plant:source":"solar","capacity_mw":null,"voltage":"","_region":"chubu","_display_name":"plant_506852051","_fuel_color":"#ffdd00","osm_id":506852051,"osm_type":"way","_category":"ipp"}},{"type":"Feature","geometry":{"type":"Point","coordinates":[137.607224,34.743914]},"properties":{"name":"","name:ja":"","name:en":"","operator":"","fuel_type":"solar","plant:source":"solar","capacity_mw":null,"voltage":"","_region":"chubu","_display_name":"plant_506852052","_fuel_color":"#ffdd00","osm_id":506852052,"osm_type":"way","_category":"ipp"}},{"type":"Feature","geometry":{"type":"Point","coordinates":[137.609273,34.736867]},"properties":{"name":"株式会社オーエムソーラー協会","name:ja":"","name:en":"","operator":"ＯＭソーラー株式会社","fuel_type":"solar","plant:source":"solar","capacity_mw":-1.0,"voltage":"","_region":"chubu","_display_name":"株式会社オーエムソーラー協会","_fuel_color":"#ffdd00","osm_id":506852053,"osm_type":"way","_category":"ipp","_enriched_by":"p03","_p03_distance_km":0.955}},{"type":"Feature","geometry":{"type":"Point","coordinates":[137.607123,34.737744]},"properties":{"name":"","name:ja":"","name:en":"","operator":"","fuel_type":"solar","plant:source":"solar","capacity_mw":null,"voltage":"","_region":"chubu","_display_name":"plant_506852054","_fuel_color":"#ffdd00","osm_id":506852054,"osm_type":"way","_category":"ipp"}},{"type":"Feature","geometry":{"type":"Point","coordinates":[137.61185,34.744691]},"properties":{"name":"","name:ja":"","name:en":"","operator":"","fuel_type":"solar","plant:source":"solar","capacity_mw":null,"voltage":"","_region":"chubu","_display_name":"plant_506852056","_fuel_color":"#ffdd00","osm_id":506852056,"osm_type":"way","_category":"ipp"}},{"type":"Feature","geometry":{"type":"Point","coordinates":[137.610974,34.739746]},"properties":{"name":"","name:ja":"","name:en":"","operator":"","fuel_type":"solar","plant:source":"solar","capacity_mw":null,"voltage":"","_region":"chubu","_display_name":"plant_506852062","_fuel_color":"#ffdd00","osm_id":506852062,"osm_type":"way","_category":"ipp"}},{"type":"Feature","geometry":{"type":"Point","coordinates":[138.585349,35.666148]},"properties":{"name":"","name:ja":"","name:en":"","operator":"","fuel_type":"solar","plant:source":"solar","capacity_mw":null,"voltage":"","_region":"chubu","_display_name":"plant_511035983","_fuel_color":"#ffdd00","osm_id":511035983,"osm_type":"way","_category":"ipp"}},{"type":"Feature","geometry":{"type":"Point","coordinates":[138.160045,34.630083]},"properties":{"name":"","name:ja":"","name:en":"","operator":"","fuel_type":"solar","plant:source":"solar","capacity_mw":null,"voltage":"","_region":"chubu","_display_name":"plant_514215841","_fuel_color":"#ffdd00","osm_id":514215841,"osm_type":"way","_category":"ipp"}},{"type":"Feature","geometry":{"type":"Point","coordinates":[138.592653,35.582253]},"properties":{"name":"","name:ja":"","name:en":"","operator":"","fuel_type":"solar","plant:source":"solar","capacity_mw":null,"voltage":"","_region":"chubu","_display_name":"plant_518977836","_fuel_color":"#ffdd00","osm_id":518977836,"osm_type":"way","_category":"ipp"}},{"type":"Feature","geometry":{"type":"Point","coordinates":[138.592897,35.583632]},"properties":{"name":"","name:ja":"","name:en":"","operator":"","fuel_type":"solar","plant:source":"solar","capacity_mw":null,"voltage":"","_region":"chubu","_display_name":"plant_518977837","_fuel_color":"#ffdd00","osm_id":518977837,"osm_type":"way","_category":"ipp"}},{"type":"Feature","geometry":{"type":"Point","coordinates":[138.592261,35.583706]},"properties":{"name":"","name:ja":"","name:en":"","operator":"","fuel_type":"solar","plant:source":"solar","capacity_mw":null,"voltage":"","_region":"chubu","_display_name":"plant_518977838","_fuel_color":"#ffdd00","osm_id":518977838,"osm_type":"way","_category":"ipp"}},{"type":"Feature","geometry":{"type":"Point","coordinates":[138.571238,36.547466]},"properties":{"name":"今井発電所","name:ja":"","name:en":"","operator":"東京電力リニューアブルパワー","fuel_type":"hydro","plant:source":"hydro","capacity_mw":7.9,"voltage":"66000","_region":"chubu","_display_name":"今井発電所","_fuel_color":"#0088ff","osm_id":520113428,"osm_type":"way","_category":"utility"}},{"type":"Feature","geometry":{"type":"Point","coordinates":[138.263904,34.767188]},"properties":{"name":"","name:ja":"","name:en":"","operator":"","fuel_type":"solar","plant:source":"solar","capacity_mw":null,"voltage":"","_region":"chubu","_display_name":"plant_521145166","_fuel_color":"#ffdd00","osm_id":521145166,"osm_type":"way","_category":"ipp"}},{"type":"Feature","geometry":{"type":"Point","coordinates":[139.110062,35.802241]},"properties":{"name":"氷川発電所","name:ja":"","name:en":"","operator":"東京発電株式会社","fuel_type":"hydro","plant:source":"hydro","capacity_mw":8.2,"voltage":"66000","_region":"chubu","_display_name":"氷川発電所","_fuel_color":"#0088ff","osm_id":521155246,"osm_type":"way","_category":"ipp"}},{"type":"Feature","geometry":{"type":"Point","coordinates":[138.23524,36.405135]},"properties":{"name":"","name:ja":"","name:en":"","operator":"","fuel_type":"unknown","plant:source":"","capacity_mw":null,"voltage":"","_region":"chubu","_display_name":"plant_524925254","_fuel_color":"#999999","osm_id":524925254,"osm_type":"way","_category":"ipp"}},{"type":"Feature","geometry":{"type":"Point","coordinates":[138.929539,36.364854]},"properties":{"name":"本郷太陽光発電所","name:ja":"","name:en":"","operator":"太陽誘電","fuel_type":"solar","plant:source":"solar","capacity_mw":-1.0,"voltage":"","_region":"chubu","_display_name":"本郷太陽光発電所","_fuel_color":"#ffdd00","osm_id":525908453,"osm_type":"way","_category":"ipp","_enriched_by":"p03","_p03_distance_km":0.385}},{"type":"Feature","geometry":{"type":"Point","coordinates":[137.412395,36.839811]},"properties":{"name":"","name:ja":"","name:en":"","operator":"","fuel_type":"solar","plant:source":"solar","capacity_mw":null,"voltage":"","_region":"chubu","_display_name":"plant_526581461","_fuel_color":"#ffdd00","osm_id":526581461,"osm_type":"way","_category":"ipp"}},{"type":"Feature","geometry":{"type":"Point","coordinates":[137.371677,36.783613]},"properties":{"name":"","name:ja":"","name:en":"","operator":"","fuel_type":"unknown","plant:source":"","capacity_mw":null,"voltage":"","_region":"chubu","_display_name":"plant_526905949","_fuel_color":"#999999","osm_id":526905949,"osm_type":"way","_category":"ipp"}},{"type":"Feature","geometry":{"type":"Point","coordinates":[137.318885,36.69465]},"properties":{"name":"","name:ja":"","name:en":"","operator":"","fuel_type":"unknown","plant:source":"","capacity_mw":null,"voltage":"","_region":"chubu","_display_name":"plant_527272526","_fuel_color":"#999999","osm_id":527272526,"osm_type":"way","_category":"ipp"}},{"type":"Feature","geometry":{"type":"Point","coordinates":[137.927499,35.044366]},"properties":{"name":"","name:ja":"","name:en":"","operator":"","fuel_type":"hydro","plant:source":"hydro","capacity_mw":null,"voltage":"","_region":"chubu","_display_name":"plant_527688112","_fuel_color":"#0088ff","osm_id":527688112,"osm_type":"way","_category":"ipp"}},{"type":"Feature","geometry":{"type":"Point","coordinates":[137.847621,34.783555]},"properties":{"name":"","name:ja":"","name:en":"","operator":"","fuel_type":"solar","plant:source":"solar","capacity_mw":null,"voltage":"","_region":"chubu","_display_name":"plant_528256412","_fuel_color":"#ffdd00","osm_id":528256412,"osm_type":"way","_category":"ipp"}},{"type":"Feature","geometry":{"type":"Point","coordinates":[137.871457,34.769225]},"properties":{"name":"","name:ja":"","name:en":"","operator":"","fuel_type":"solar","plant:source":"solar","capacity_mw":null,"voltage":"","_region":"chubu","_display_name":"plant_528932134","_fuel_color":"#ffdd00","osm_id":528932134,"osm_type":"way","_category":"ipp"}},{"type":"Feature","geometry":{"type":"Point","coordinates":[137.808953,34.700182]},"properties":{"name":"","name:ja":"","name:en":"","operator":"","fuel_type":"solar","plant:source":"solar","capacity_mw":null,"voltage":"","_region":"chubu","_display_name":"plant_529997639","_fuel_color":"#ffdd00","osm_id":529997639,"osm_type":"way","_category":"ipp"}},{"type":"Feature","geometry":{"type":"Point","coordinates":[137.820736,34.747998]},"properties":{"name":"","name:ja":"","name:en":"","operator":"","fuel_type":"solar","plant:source":"solar","capacity_mw":null,"voltage":"","_region":"chubu","_display_name":"plant_530281206","_fuel_color":"#ffdd00","osm_id":530281206,"osm_type":"way","_category":"ipp"}},{"type":"Feature","geometry":{"type":"Point","coordinates":[136.936281,36.605174]},"properties":{"name":"","name:ja":"","name:en":"","operator":"","fuel_type":"unknown","plant:source":"","capacity_mw":null,"voltage":"","_region":"chubu","_display_name":"plant_531964685","_fuel_color":"#999999","osm_id":531964685,"osm_type":"way","_category":"ipp"}},{"type":"Feature","geometry":{"type":"Point","coordinates":[136.884888,36.564405]},"properties":{"name":"","name:ja":"","name:en":"","operator":"","fuel_type":"unknown","plant:source":"","capacity_mw":null,"voltage":"","_region":"chubu","_display_name":"plant_532709446","_fuel_color":"#999999","osm_id":532709446,"osm_type":"way","_category":"ipp"}},{"type":"Feature","geometry":{"type":"Point","coordinates":[136.892442,36.573451]},"properties":{"name":"","name:ja":"","name:en":"","operator":"","fuel_type":"unknown","plant:source":"","capacity_mw":null,"voltage":"","_region":"chubu","_display_name":"plant_532718508","_fuel_color":"#999999","osm_id":532718508,"osm_type":"way","_category":"ipp"}},{"type":"Feature","geometry":{"type":"Point","coordinates":[136.995776,36.845336]},"properties":{"name":"","name:ja":"","name:en":"","operator":"","fuel_type":"unknown","plant:source":"","capacity_mw":null,"voltage":"","_region":"chubu","_display_name":"plant_536302608","_fuel_color":"#999999","osm_id":536302608,"osm_type":"way","_category":"ipp"}},{"type":"Feature","geometry":{"type":"Point","coordinates":[137.055721,36.797711]},"properties":{"name":"","name:ja":"","name:en":"","operator":"","fuel_type":"unknown","plant:source":"","capacity_mw":null,"voltage":"","_region":"chubu","_display_name":"plant_536371037","_fuel_color":"#999999","osm_id":536371037,"osm_type":"way","_category":"ipp"}},{"type":"Feature","geometry":{"type":"Point","coordinates":[137.878221,34.674813]},"properties":{"name":"磐田市福田支所太陽光発電設備","name:ja":"","name:en":"","operator":"磐田市","fuel_type":"solar","plant:source":"solar","capacity_mw":-1.0,"voltage":"","_region":"chubu","_display_name":"磐田市福田支所太陽光発電設備","_fuel_color":"#ffdd00","osm_id":536543035,"osm_type":"way","_category":"ipp","_enriched_by":"p03","_p03_distance_km":0.788}},{"type":"Feature","geometry":{"type":"Point","coordinates":[137.878354,34.684526]},"properties":{"name":"磐田市福田支所太陽光発電設備","name:ja":"","name:en":"","operator":"磐田市","fuel_type":"solar","plant:source":"solar","capacity_mw":-1.0,"voltage":"","_region":"chubu","_display_name":"磐田市福田支所太陽光発電設備","_fuel_color":"#ffdd00","osm_id":536589626,"osm_type":"way","_category":"ipp","_enriched_by":"p03","_p03_distance_km":0.421}},{"type":"Feature","geometry":{"type":"Point","coordinates":[137.051648,36.775889]},"properties":{"name":"","name:ja":"","name:en":"","operator":"","fuel_type":"unknown","plant:source":"","capacity_mw":null,"voltage":"","_region":"chubu","_display_name":"plant_536661533","_fuel_color":"#999999","osm_id":536661533,"osm_type":"way","_category":"ipp"}},{"type":"Feature","geometry":{"type":"Point","coordinates":[138.14266,35.165403]},"properties":{"name":"奥泉水力発電所","name:ja":"","name:en":"","operator":"中部電力株式会社","fuel_type":"hydro","plant:source":"hydro","capacity_mw":87.0,"voltage":"","_region":"chubu","_display_name":"奥泉水力発電所","_fuel_color":"#0088ff","osm_id":537919840,"osm_type":"way","_category":"utility","_enriched_by":"p03","_p03_distance_km":0.066}},{"type":"Feature","geometry":{"type":"Point","coordinates":[137.139259,36.716654]},"properties":{"name":"","name:ja":"","name:en":"","operator":"","fuel_type":"unknown","plant:source":"","capacity_mw":null,"voltage":"","_region":"chubu","_display_name":"plant_538301008","_fuel_color":"#999999","osm_id":538301008,"osm_type":"way","_category":"ipp"}},{"type":"Feature","geometry":{"type":"Point","coordinates":[137.154665,36.717533]},"properties":{"name":"富山いすゞ自動車株式会社","name:ja":"","name:en":"","operator":"富山いすゞ自動車株式会社","fuel_type":"solar","plant:source":"","capacity_mw":-1.0,"voltage":"","_region":"chubu","_display_name":"富山いすゞ自動車株式会社","_fuel_color":"#999999","osm_id":538303900,"osm_type":"way","_category":"ipp","_enriched_by":"p03","_p03_distance_km":0.497}},{"type":"Feature","geometry":{"type":"Point","coordinates":[137.311551,36.702878]},"properties":{"name":"","name:ja":"","name:en":"","operator":"","fuel_type":"unknown","plant:source":"","capacity_mw":null,"voltage":"","_region":"chubu","_display_name":"plant_538773514","_fuel_color":"#999999","osm_id":538773514,"osm_type":"way","_category":"ipp"}},{"type":"Feature","geometry":{"type":"Point","coordinates":[138.198472,34.676688]},"properties":{"name":"株式会社　栗山商店","name:ja":"","name:en":"","operator":"株式会社栗山商店","fuel_type":"solar","plant:source":"solar","capacity_mw":-1.0,"voltage":"","_region":"chubu","_display_name":"株式会社　栗山商店","_fuel_color":"#ffdd00","osm_id":539109112,"osm_type":"way","_category":"ipp","_enriched_by":"p03","_p03_distance_km":0.878}},{"type":"Feature","geometry":{"type":"Point","coordinates":[137.860995,34.814562]},"properties":{"name":"","name:ja":"","name:en":"","operator":"","fuel_type":"solar","plant:source":"solar","capacity_mw":null,"voltage":"","_region":"chubu","_display_name":"plant_539868523","_fuel_color":"#ffdd00","osm_id":539868523,"osm_type":"way","_category":"ipp"}},{"type":"Feature","geometry":{"type":"Point","coordinates":[136.275949,36.017665]},"properties":{"name":"","name:ja":"","name:en":"","operator":"","fuel_type":"solar","plant:source":"solar","capacity_mw":null,"voltage":"","_region":"chubu","_display_name":"plant_539971171","_fuel_color":"#ffdd00","osm_id":539971171,"osm_type":"way","_category":"ipp"}},{"type":"Feature","geometry":{"type":"Point","coordinates":[137.567698,36.960113]},"properties":{"name":"","name:ja":"","name:en":"","operator":"","fuel_type":"solar","plant:source":"solar","capacity_mw":null,"voltage":"","_region":"chubu","_display_name":"plant_541631359","_fuel_color":"#ffdd00","osm_id":541631359,"osm_type":"way","_category":"ipp"}},{"type":"Feature","geometry":{"type":"Point","coordinates":[137.174676,36.599962]},"properties":{"name":"薄島発電所","name:ja":"","name:en":"","operator":"北陸電力","fuel_type":"hydro","plant:source":"hydro","capacity_mw":null,"voltage":"","_region":"chubu","_display_name":"薄島発電所","_fuel_color":"#0088ff","osm_id":541999391,"osm_type":"way","_category":"utility"}},{"type":"Feature","geometry":{"type":"Point","coordinates":[137.169995,36.676879]},"properties":{"name":"","name:ja":"","name:en":"","operator":"","fuel_type":"solar","plant:source":"solar","capacity_mw":null,"voltage":"","_region":"chubu","_display_name":"plant_543030904","_fuel_color":"#ffdd00","osm_id":543030904,"osm_type":"way","_category":"ipp"}},{"type":"Feature","geometry":{"type":"Point","coordinates":[137.121042,36.695543]},"properties":{"name":"","name:ja":"","name:en":"","operator":"","fuel_type":"solar","plant:source":"solar","capacity_mw":null,"voltage":"","_region":"chubu","_display_name":"plant_543046412","_fuel_color":"#ffdd00","osm_id":543046412,"osm_type":"way","_category":"ipp"}},{"type":"Feature","geometry":{"type":"Point","coordinates":[136.155936,34.740508]},"properties":{"name":"伊賀市立友生小学校","name:ja":"","name:en":"","operator":"伊賀市","fuel_type":"solar","plant:source":"solar","capacity_mw":-1.0,"voltage":"","_region":"chubu","_display_name":"伊賀市立友生小学校","_fuel_color":"#ffdd00","osm_id":544741119,"osm_type":"way","_category":"ipp","_enriched_by":"p03","_p03_distance_km":0.882}},{"type":"Feature","geometry":{"type":"Point","coordinates":[136.154201,34.738886]},"properties":{"name":"伊賀市立友生小学校","name:ja":"","name:en":"","operator":"伊賀市","fuel_type":"solar","plant:source":"solar","capacity_mw":-1.0,"voltage":"","_region":"chubu","_display_name":"伊賀市立友生小学校","_fuel_color":"#ffdd00","osm_id":544741120,"osm_type":"way","_category":"ipp","_enriched_by":"p03","_p03_distance_km":0.973}},{"type":"Feature","geometry":{"type":"Point","coordinates":[137.707931,34.776581]},"properties":{"name":"株式会社ケーデイーケー","name:ja":"","name:en":"","operator":"株式会社ケーデイーケー","fuel_type":"solar","plant:source":"solar","capacity_mw":-1.0,"voltage":"","_region":"chubu","_display_name":"株式会社ケーデイーケー","_fuel_color":"#ffdd00","osm_id":546941509,"osm_type":"way","_category":"ipp","_enriched_by":"p03","_p03_distance_km":0.649}},{"type":"Feature","geometry":{"type":"Point","coordinates":[137.320164,36.531538]},"properties":{"name":"","name:ja":"","name:en":"","operator":"","fuel_type":"hydro","plant:source":"hydro","capacity_mw":null,"voltage":"","_region":"chubu","_display_name":"plant_547573200","_fuel_color":"#0088ff","osm_id":547573200,"osm_type":"way","_category":"ipp"}},{"type":"Feature","geometry":{"type":"Point","coordinates":[137.23869,36.567309]},"properties":{"name":"SGET富山メガソーラー発電所","name:ja":"","name:en":"","operator":"","fuel_type":"solar","plant:source":"solar","capacity_mw":null,"voltage":"","_region":"chubu","_display_name":"SGET富山メガソーラー発電所","_fuel_color":"#ffdd00","osm_id":547589077,"osm_type":"way","_category":"ipp"}},{"type":"Feature","geometry":{"type":"Point","coordinates":[137.30206,36.607168]},"properties":{"name":"熊野川第二発電所","name:ja":"","name:en":"","operator":"北陸電力株式会社","fuel_type":"hydro","plant:source":"","capacity_mw":-1.0,"voltage":"","_region":"chubu","_display_name":"熊野川第二発電所","_fuel_color":"#999999","osm_id":547614443,"osm_type":"way","_category":"utility","_enriched_by":"p03","_p03_distance_km":0.527}},{"type":"Feature","geometry":{"type":"Point","coordinates":[138.082535,35.005366]},"properties":{"name":"久野脇水力発電所","name:ja":"","name:en":"","operator":"中部電力株式会社","fuel_type":"hydro","plant:source":"hydro","capacity_mw":32.0,"voltage":"","_region":"chubu","_display_name":"久野脇水力発電所","_fuel_color":"#0088ff","osm_id":547874018,"osm_type":"way","_category":"utility","_enriched_by":"p03","_p03_distance_km":0.017}},{"type":"Feature","geometry":{"type":"Point","coordinates":[137.206843,36.560717]},"properties":{"name":"関西電力","name:ja":"","name:en":"","operator":"","fuel_type":"unknown","plant:source":"","capacity_mw":null,"voltage":"","_region":"chubu","_display_name":"関西電力","_fuel_color":"#999999","osm_id":548927975,"osm_type":"way","_category":"ipp"}},{"type":"Feature","geometry":{"type":"Point","coordinates":[136.596524,36.463115]},"properties":{"name":"七ヶ用水発電所","name:ja":"","name:en":"","operator":"白山市","fuel_type":"hydro","plant:source":"hydro","capacity_mw":-1.0,"voltage":"","_region":"chubu","_display_name":"七ヶ用水発電所","_fuel_color":"#0088ff","osm_id":549329657,"osm_type":"way","_category":"ipp","_enriched_by":"p03","_p03_distance_km":0.003}},{"type":"Feature","geometry":{"type":"Point","coordinates":[137.935723,35.19796]},"properties":{"name":"","name:ja":"","name:en":"","operator":"","fuel_type":"solar","plant:source":"solar","capacity_mw":null,"voltage":"","_region":"chubu","_display_name":"plant_550809345","_fuel_color":"#ffdd00","osm_id":550809345,"osm_type":"way","_category":"ipp"}},{"type":"Feature","geometry":{"type":"Point","coordinates":[137.707126,34.781449]},"properties":{"name":"株式会社ケーデイーケー","name:ja":"","name:en":"","operator":"株式会社ケーデイーケー","fuel_type":"solar","plant:source":"solar","capacity_mw":-1.0,"voltage":"","_region":"chubu","_display_name":"株式会社ケーデイーケー","_fuel_color":"#ffdd00","osm_id":553174759,"osm_type":"way","_category":"ipp","_enriched_by":"p03","_p03_distance_km":0.751}},{"type":"Feature","geometry":{"type":"Point","coordinates":[136.995604,36.575204]},"properties":{"name":"庄川合口ダム","name:ja":"","name:en":"","operator":"庄川沿岸用水土地改良区連合","fuel_type":"hydro","plant:source":"hydro","capacity_mw":-1.0,"voltage":"","_region":"chubu","_display_name":"庄川合口ダム","_fuel_color":"#0088ff","osm_id":553178704,"osm_type":"way","_category":"ipp","_enriched_by":"p03","_p03_distance_km":0.095}},{"type":"Feature","geometry":{"type":"Point","coordinates":[137.426056,34.719973]},"properties":{"name":"","name:ja":"","name:en":"","operator":"","fuel_type":"solar","plant:source":"solar","capacity_mw":null,"voltage":"","_region":"chubu","_display_name":"plant_554605566","_fuel_color":"#ffdd00","osm_id":554605566,"osm_type":"way","_category":"ipp"}},{"type":"Feature","geometry":{"type":"Point","coordinates":[137.298886,36.337977]},"properties":{"name":"北陸電力東町発電所","name:ja":"","name:en":"","operator":"北陸電力株式会社","fuel_type":"hydro","plant:source":"hydro","capacity_mw":31.3,"voltage":"","_region":"chubu","_display_name":"北陸電力東町発電所","_fuel_color":"#0088ff","osm_id":554778115,"osm_type":"way","_category":"utility","_enriched_by":"p03","_p03_distance_km":0.048}},{"type":"Feature","geometry":{"type":"Point","coordinates":[137.71452,34.770175]},"properties":{"name":"太陽光パネル","name:ja":"","name:en":"","operator":"","fuel_type":"solar","plant:source":"solar","capacity_mw":null,"voltage":"","_region":"chubu","_display_name":"太陽光パネル","_fuel_color":"#ffdd00","osm_id":555347358,"osm_type":"way","_category":"ipp"}},{"type":"Feature","geometry":{"type":"Point","coordinates":[137.205983,36.725149]},"properties":{"name":"神通川浄水場太陽光発電所","name:ja":"","name:en":"","operator":"富山県","fuel_type":"solar","plant:source":"solar","capacity_mw":1.8,"voltage":"","_region":"chubu","_display_name":"神通川浄水場太陽光発電所","_fuel_color":"#ffdd00","osm_id":555607367,"osm_type":"way","_category":"ipp"}},{"type":"Feature","geometry":{"type":"Point","coordinates":[138.871127,34.70991]},"properties":{"name":"","name:ja":"","name:en":"","operator":"","fuel_type":"solar","plant:source":"solar","capacity_mw":null,"voltage":"","_region":"chubu","_display_name":"plant_555920860","_fuel_color":"#ffdd00","osm_id":555920860,"osm_type":"way","_category":"ipp"}},{"type":"Feature","geometry":{"type":"Point","coordinates":[136.088277,34.786914]},"properties":{"name":"","name:ja":"","name:en":"","operator":"","fuel_type":"solar","plant:source":"solar","capacity_mw":0.05,"voltage":"","_region":"chubu","_display_name":"plant_556710811","_fuel_color":"#ffdd00","osm_id":556710811,"osm_type":"way","_category":"ipp"}},{"type":"Feature","geometry":{"type":"Point","coordinates":[138.201372,34.67988]},"properties":{"name":"株式会社　栗山商店","name:ja":"","name:en":"","operator":"株式会社栗山商店","fuel_type":"solar","plant:source":"solar","capacity_mw":-1.0,"voltage":"","_region":"chubu","_display_name":"株式会社　栗山商店","_fuel_color":"#ffdd00","osm_id":557515665,"osm_type":"way","_category":"ipp","_enriched_by":"p03","_p03_distance_km":0.725}},{"type":"Feature","geometry":{"type":"Point","coordinates":[137.788751,34.822878]},"properties":{"name":"","name:ja":"","name:en":"","operator":"","fuel_type":"solar","plant:source":"solar","capacity_mw":null,"voltage":"","_region":"chubu","_display_name":"plant_557630593","_fuel_color":"#ffdd00","osm_id":557630593,"osm_type":"way","_category":"ipp"}},{"type":"Feature","geometry":{"type":"Point","coordinates":[138.175541,34.690038]},"properties":{"name":"","name:ja":"","name:en":"","operator":"","fuel_type":"solar","plant:source":"solar","capacity_mw":null,"voltage":"","_region":"chubu","_display_name":"plant_557933057","_fuel_color":"#ffdd00","osm_id":557933057,"osm_type":"way","_category":"ipp"}},{"type":"Feature","geometry":{"type":"Point","coordinates":[138.807264,34.797623]},"properties":{"name":"仁科川第三発電所","name:ja":"","name:en":"","operator":"東京発電株式会社","fuel_type":"hydro","plant:source":"hydro","capacity_mw":-1.0,"voltage":"","_region":"chubu","_display_name":"仁科川第三発電所","_fuel_color":"#0088ff","osm_id":559148623,"osm_type":"way","_category":"ipp","_enriched_by":"p03","_p03_distance_km":0.011}},{"type":"Feature","geometry":{"type":"Point","coordinates":[138.846212,36.361331]},"properties":{"name":"","name:ja":"","name:en":"","operator":"","fuel_type":"unknown","plant:source":"","capacity_mw":null,"voltage":"","_region":"chubu","_display_name":"plant_559696875","_fuel_color":"#999999","osm_id":559696875,"osm_type":"way","_category":"ipp"}},{"type":"Feature","geometry":{"type":"Point","coordinates":[136.133221,34.783685]},"properties":{"name":"","name:ja":"","name:en":"","operator":"","fuel_type":"solar","plant:source":"solar","capacity_mw":null,"voltage":"","_region":"chubu","_display_name":"plant_561911601","_fuel_color":"#ffdd00","osm_id":561911601,"osm_type":"way","_category":"ipp"}},{"type":"Feature","geometry":{"type":"Point","coordinates":[139.068563,35.216589]},"properties":{"name":"畑宿発電所","name:ja":"","name:en":"","operator":"","fuel_type":"hydro","plant:source":"hydro","capacity_mw":null,"voltage":"","_region":"chubu","_display_name":"畑宿発電所","_fuel_color":"#0088ff","osm_id":562116071,"osm_type":"way","_category":"ipp"}},{"type":"Feature","geometry":{"type":"Point","coordinates":[137.55371,36.930938]},"properties":{"name":"","name:ja":"","name:en":"","operator":"","fuel_type":"unknown","plant:source":"","capacity_mw":null,"voltage":"","_region":"chubu","_display_name":"plant_563885411","_fuel_color":"#999999","osm_id":563885411,"osm_type":"way","_category":"ipp"}},{"type":"Feature","geometry":{"type":"Point","coordinates":[137.145615,36.562498]},"properties":{"name":"","name:ja":"","name:en":"","operator":"","fuel_type":"unknown","plant:source":"","capacity_mw":null,"voltage":"","_region":"chubu","_display_name":"plant_565723893","_fuel_color":"#999999","osm_id":565723893,"osm_type":"way","_category":"ipp"}},{"type":"Feature","geometry":{"type":"Point","coordinates":[136.73747,35.4569]},"properties":{"name":"岐阜大学","name:ja":"","name:en":"","operator":"岐阜大学","fuel_type":"solar","plant:source":"solar","capacity_mw":-1.0,"voltage":"","_region":"chubu","_display_name":"岐阜大学","_fuel_color":"#ffdd00","osm_id":566338552,"osm_type":"way","_category":"ipp","_enriched_by":"p03","_p03_distance_km":0.787}},{"type":"Feature","geometry":{"type":"Point","coordinates":[137.647848,34.737311]},"properties":{"name":"浜松市立はまゆう図書館","name:ja":"","name:en":"","operator":"合同会社MKNW","fuel_type":"solar","plant:source":"solar","capacity_mw":0.05,"voltage":"","_region":"chubu","_display_name":"浜松市立はまゆう図書館","_fuel_color":"#ffdd00","osm_id":566346684,"osm_type":"way","_category":"ipp","_enriched_by":"p03","_p03_distance_km":0.901}},{"type":"Feature","geometry":{"type":"Point","coordinates":[136.723806,35.476624]},"properties":{"name":"","name:ja":"","name:en":"","operator":"","fuel_type":"solar","plant:source":"solar","capacity_mw":null,"voltage":"","_region":"chubu","_display_name":"plant_567013219","_fuel_color":"#ffdd00","osm_id":567013219,"osm_type":"way","_category":"ipp"}},{"type":"Feature","geometry":{"type":"Point","coordinates":[137.672435,34.673233]},"properties":{"name":"浜松市西部清掃工場発電所","name:ja":"","name:en":"","operator":"株式会社Eネクスト","fuel_type":"solar","plant:source":"solar","capacity_mw":0.6,"voltage":"","_region":"chubu","_display_name":"浜松市西部清掃工場発電所","_fuel_color":"#ffdd00","osm_id":567207427,"osm_type":"way","_category":"ipp","_enriched_by":"p03","_p03_distance_km":0.694}},{"type":"Feature","geometry":{"type":"Point","coordinates":[139.146495,35.293207]},"properties":{"name":"","name:ja":"","name:en":"","operator":"","fuel_type":"solar","plant:source":"solar","capacity_mw":null,"voltage":"","_region":"chubu","_display_name":"plant_567584074","_fuel_color":"#ffdd00","osm_id":567584074,"osm_type":"way","_category":"ipp"}},{"type":"Feature","geometry":{"type":"Point","coordinates":[136.708316,35.476901]},"properties":{"name":"","name:ja":"","name:en":"","operator":"","fuel_type":"solar","plant:source":"solar","capacity_mw":null,"voltage":"","_region":"chubu","_display_name":"plant_568447487","_fuel_color":"#ffdd00","osm_id":568447487,"osm_type":"way","_category":"ipp"}},{"type":"Feature","geometry":{"type":"Point","coordinates":[136.699254,35.481143]},"properties":{"name":"","name:ja":"","name:en":"","operator":"","fuel_type":"solar","plant:source":"solar","capacity_mw":null,"voltage":"","_region":"chubu","_display_name":"plant_568693865","_fuel_color":"#ffdd00","osm_id":568693865,"osm_type":"way","_category":"ipp"}},{"type":"Feature","geometry":{"type":"Point","coordinates":[137.865083,36.424745]},"properties":{"name":"","name:ja":"","name:en":"","operator":"","fuel_type":"solar","plant:source":"solar","capacity_mw":null,"voltage":"","_region":"chubu","_display_name":"plant_569978789","_fuel_color":"#ffdd00","osm_id":569978789,"osm_type":"way","_category":"ipp"}},{"type":"Feature","geometry":{"type":"Point","coordinates":[138.170425,34.728944]},"properties":{"name":"","name:ja":"","name:en":"","operator":"","fuel_type":"solar","plant:source":"solar","capacity_mw":null,"voltage":"","_region":"chubu","_display_name":"plant_570000513","_fuel_color":"#ffdd00","osm_id":570000513,"osm_type":"way","_category":"ipp"}},{"type":"Feature","geometry":{"type":"Point","coordinates":[138.171821,34.72341]},