{"type":"FeatureCollection","features":[{"type":"Feature","geometry":{"type":"Point","coordinates":[136.843545,36.771605]},"properties":{"name":"","name:ja":"","name:en":"","operator":"","fuel_type":"solar","plant:source":"solar","capacity_mw":null,"voltage":"","_region":"hokuriku","_display_name":"plant_62271105","_fuel_color":"#ffdd00","osm_id":62271105,"osm_type":"way","_category":"ipp"}},{"type":"Feature","geometry":{"type":"Point","coordinates":[137.591725,36.803595]},"properties":{"name":"新柳河原発電所","name:ja":"","name:en":"","operator":"関西電力","fuel_type":"hydro","plant:source":"hydro","capacity_mw":41.2,"voltage":"","_region":"hokuriku","_display_name":"新柳河原発電所","_fuel_color":"#0088ff","osm_id":197810111,"osm_type":"way","_category":"utility"}},{"type":"Feature","geometry":{"type":"Point","coordinates":[137.658828,36.695888]},"properties":{"name":"黒部川第三発電所","name:ja":"","name:en":"Kurobegawa Powerstation #3","operator":"関西電力株式会社","fuel_type":"hydro","plant:source":"hydro","capacity_mw":81.0,"voltage":"","_region":"hokuriku","_display_name":"黒部川第三発電所","_fuel_color":"#0088ff","osm_id":197821462,"osm_type":"way","_category":"utility"}},{"type":"Feature","geometry":{"type":"Point","coordinates":[137.637241,35.822267]},"properties":{"name":"三尾水力発電所","name:ja":"三尾水力発電所","name:en":"","operator":"関西電力","fuel_type":"hydro","plant:source":"hydro","capacity_mw":35.5,"voltage":"154000","_region":"hokuriku","_display_name":"三尾水力発電所","_fuel_color":"#0088ff","osm_id":210658598,"osm_type":"way","_category":"utility","_enriched_by":"p03","_p03_distance_km":0.01}},{"type":"Feature","geometry":{"type":"Point","coordinates":[136.729249,37.060972]},"properties":{"name":"志賀原子力発電所","name:ja":"志賀原子力発電所","name:en":"Shika Nuclear Power Plant","operator":"北陸電力株式会社","fuel_type":"nuclear","plant:source":"nuclear","capacity_mw":1898.0,"voltage":"","_region":"hokuriku","_display_name":"志賀原子力発電所","_fuel_color":"#ff0000","osm_id":255763556,"osm_type":"way","_category":"utility"}},{"type":"Feature","geometry":{"type":"Point","coordinates":[137.006611,37.069896]},"properties":{"name":"七尾大田火力発電所","name:ja":"七尾大田火力発電所","name:en":"Nanao-Ohta Power Plant","operator":"北陸電力","fuel_type":"biomass","plant:source":"","capacity_mw":-1.0,"voltage":"","_region":"hokuriku","_display_name":"七尾大田火力発電所","_fuel_color":"#999999","osm_id":289146236,"osm_type":"way","_category":"utility","_enriched_by":"p03","_p03_distance_km":0.491}},{"type":"Feature","geometry":{"type":"Point","coordinates":[137.215641,36.757686]},"properties":{"name":"富山火力発電所","name:ja":"","name:en":"Toyama Thermal Power Station","operator":"北陸電力株式会社","fuel_type":"oil","plant:source":"oil","capacity_mw":250.0,"voltage":"","_region":"hokuriku","_display_name":"富山火力発電所","_fuel_color":"#884400","osm_id":339231657,"osm_type":"way","_category":"utility","_enriched_by":"p03","_p03_distance_km":0.137}},{"type":"Feature","geometry":{"type":"Point","coordinates":[137.223089,36.554035]},"properties":{"name":"神通川第二水力発電所","name:ja":"","name:en":"","operator":"北陸電力株式会社","fuel_type":"hydro","plant:source":"hydro","capacity_mw":41.0,"voltage":"","_region":"hokuriku","_display_name":"神通川第二水力発電所","_fuel_color":"#0088ff","osm_id":369433303,"osm_type":"way","_category":"utility","_enriched_by":"p03","_p03_distance_km":0.019}},{"type":"Feature","geometry":{"type":"Point","coordinates":[137.119075,36.294552]},"properties":{"name":"","name:ja":"","name:en":"","operator":"","fuel_type":"unknown","plant:source":"","capacity_mw":null,"voltage":"","_region":"hokuriku","_display_name":"plant_370257140","_fuel_color":"#999999","osm_id":370257140,"osm_type":"way","_category":"ipp"}},{"type":"Feature","geometry":{"type":"Point","coordinates":[137.257577,35.953429]},"properties":{"name":"小坂水力発電所","name:ja":"","name:en":"","operator":"中部電力株式会社","fuel_type":"hydro","plant:source":"hydro","capacity_mw":50.1,"voltage":"","_region":"hokuriku","_display_name":"小坂水力発電所","_fuel_color":"#0088ff","osm_id":370717459,"osm_type":"way","_category":"utility","_enriched_by":"p03","_p03_distance_km":0.043}},{"type":"Feature","geometry":{"type":"Point","coordinates":[136.883629,35.833046]},"properties":{"name":"","name:ja":"","name:en":"","operator":"","fuel_type":"unknown","plant:source":"","capacity_mw":null,"voltage":"","_region":"hokuriku","_display_name":"plant_372424233","_fuel_color":"#999999","osm_id":372424233,"osm_type":"way","_category":"ipp"}},{"type":"Feature","geometry":{"type":"Point","coordinates":[136.855045,35.894137]},"properties":{"name":"","name:ja":"","name:en":"","operator":"","fuel_type":"unknown","plant:source":"","capacity_mw":null,"voltage":"","_region":"hokuriku","_display_name":"plant_372649855","_fuel_color":"#999999","osm_id":372649855,"osm_type":"way","_category":"ipp"}},{"type":"Feature","geometry":{"type":"Point","coordinates":[137.795496,36.180878]},"properties":{"name":"竜島発電所","name:ja":"","name:en":"","operator":"東京電力株式会社","fuel_type":"hydro","plant:source":"hydro","capacity_mw":32.0,"voltage":"","_region":"hokuriku","_display_name":"竜島発電所","_fuel_color":"#0088ff","osm_id":377300642,"osm_type":"way","_category":"utility","_enriched_by":"p03","_p03_distance_km":0.158}},{"type":"Feature","geometry":{"type":"Point","coordinates":[137.793999,36.181239]},"properties":{"name":"竜島第二発電所","name:ja":"","name:en":"","operator":"東京電力株式会社","fuel_type":"hydro","plant:source":"hydro","capacity_mw":2.4,"voltage":"","_region":"hokuriku","_display_name":"竜島第二発電所","_fuel_color":"#0088ff","osm_id":377300643,"osm_type":"way","_category":"utility","_enriched_by":"p03","_p03_distance_km":0.019}},{"type":"Feature","geometry":{"type":"Point","coordinates":[137.556961,36.859346]},"properties":{"name":"愛本発電所","name:ja":"","name:en":"","operator":"関西電力株式会社","fuel_type":"hydro","plant:source":"hydro","capacity_mw":6.8,"voltage":"","_region":"hokuriku","_display_name":"愛本発電所","_fuel_color":"#0088ff","osm_id":395006458,"osm_type":"way","_category":"utility"}},{"type":"Feature","geometry":{"type":"Point","coordinates":[137.546962,36.870722]},"properties":{"name":"黒東第一発電所","name:ja":"","name:en":"","operator":"北陸電力","fuel_type":"hydro","plant:source":"hydro","capacity_mw":1.7,"voltage":"","_region":"hokuriku","_display_name":"黒東第一発電所","_fuel_color":"#0088ff","osm_id":395006460,"osm_type":"way","_category":"utility"}},{"type":"Feature","geometry":{"type":"Point","coordinates":[136.909345,36.140378]},"properties":{"name":"御母衣水力発電所","name:ja":"御母衣水力発電所","name:en":"","operator":"電源開発株式会社","fuel_type":"hydro","plant:source":"hydro","capacity_mw":215.0,"voltage":"","_region":"hokuriku","_display_name":"御母衣水力発電所","_fuel_color":"#0088ff","osm_id":440218167,"osm_type":"way","_category":"utility"}},{"type":"Feature","geometry":{"type":"Point","coordinates":[136.87501,36.354117]},"properties":{"name":"新成出水力発電所","name:ja":"新成出水力発電所","name:en":"","operator":"関西電力株式会社","fuel_type":"hydro","plant:source":"hydro","capacity_mw":35.0,"voltage":"","_region":"hokuriku","_display_name":"新成出水力発電所","_fuel_color":"#0088ff","osm_id":440225776,"osm_type":"way","_category":"utility","_enriched_by":"p03","_p03_distance_km":0.013}},{"type":"Feature","geometry":{"type":"Point","coordinates":[136.019967,35.751983]},"properties":{"name":"敦賀原子力発電所","name:ja":"敦賀原子力発電所","name:en":"Tsuruga Nuclear Power Plant","operator":"日本原子力発電株式会社","fuel_type":"nuclear","plant:source":"nuclear","capacity_mw":1160.0,"voltage":"","_region":"hokuriku","_display_name":"敦賀原子力発電所","_fuel_color":"#ff0000","osm_id":449155824,"osm_type":"way","_category":"utility"}},{"type":"Feature","geometry":{"type":"Point","coordinates":[136.594094,36.454992]},"properties":{"name":"手取川宮竹用水第2発電所","name:ja":"","name:en":"","operator":"手取川七ヶ用水土地改良区","fuel_type":"hydro","plant:source":"hydro","capacity_mw":0.58,"voltage":"","_region":"hokuriku","_display_name":"手取川宮竹用水第2発電所","_fuel_color":"#0088ff","osm_id":505835398,"osm_type":"way","_category":"ipp","_enriched_by":"p03","_p03_distance_km":0.927}},{"type":"Feature","geometry":{"type":"Point","coordinates":[136.564751,36.455891]},"properties":{"name":"宮竹用水第1発電所","name:ja":"","name:en":"","operator":"宮竹用水土地改良区","fuel_type":"hydro","plant:source":"hydro","capacity_mw":0.64,"voltage":"","_region":"hokuriku","_display_name":"宮竹用水第1発電所","_fuel_color":"#0088ff","osm_id":505835399,"osm_type":"way","_category":"ipp","_enriched_by":"p03","_p03_distance_km":0.005}},{"type":"Feature","geometry":{"type":"Point","coordinates":[137.412395,36.839811]},"properties":{"name":"","name:ja":"","name:en":"","operator":"","fuel_type":"solar","plant:source":"solar","capacity_mw":null,"voltage":"","_region":"hokuriku","_display_name":"plant_526581461","_fuel_color":"#ffdd00","osm_id":526581461,"osm_type":"way","_category":"ipp"}},{"type":"Feature","geometry":{"type":"Point","coordinates":[137.371677,36.783613]},"properties":{"name":"","name:ja":"","name:en":"","operator":"","fuel_type":"unknown","plant:source":"","capacity_mw":null,"voltage":"","_region":"hokuriku","_display_name":"plant_526905949","_fuel_color":"#999999","osm_id":526905949,"osm_type":"way","_category":"ipp"}},{"type":"Feature","geometry":{"type":"Point","coordinates":[137.318885,36.69465]},"properties":{"name":"","name:ja":"","name:en":"","operator":"","fuel_type":"unknown","plant:source":"","capacity_mw":null,"voltage":"","_region":"hokuriku","_display_name":"plant_527272526","_fuel_color":"#999999","osm_id":527272526,"osm_type":"way","_category":"ipp"}},{"type":"Feature","geometry":{"type":"Point","coordinates":[136.936281,36.605174]},"properties":{"name":"","name:ja":"","name:en":"","operator":"","fuel_type":"unknown","plant:source":"","capacity_mw":null,"voltage":"","_region":"hokuriku","_display_name":"plant_531964685","_fuel_color":"#999999","osm_id":531964685,"osm_type":"way","_category":"ipp"}},{"type":"Feature","geometry":{"type":"Point","coordinates":[136.884888,36.564405]},"properties":{"name":"","name:ja":"","name:en":"","operator":"","fuel_type":"unknown","plant:source":"","capacity_mw":null,"voltage":"","_region":"hokuriku","_display_name":"plant_532709446","_fuel_color":"#999999","osm_id":532709446,"osm_type":"way","_category":"ipp"}},{"type":"Feature","geometry":{"type":"Point","coordinates":[136.892442,36.573451]},"properties":{"name":"","name:ja":"","name:en":"","operator":"","fuel_type":"unknown","plant:source":"","capacity_mw":null,"voltage":"","_region":"hokuriku","_display_name":"plant_532718508","_fuel_color":"#999999","osm_id":532718508,"osm_type":"way","_category":"ipp"}},{"type":"Feature","geometry":{"type":"Point","coordinates":[136.995776,36.845336]},"properties":{"name":"","name:ja":"","name:en":"","operator":"","fuel_type":"unknown","plant:source":"","capacity_mw":null,"voltage":"","_region":"hokuriku","_display_name":"plant_536302608","_fuel_color":"#999999","osm_id":536302608,"osm_type":"way","_category":"ipp"}},{"type":"Feature","geometry":{"type":"Point","coordinates":[137.055721,36.797711]},"properties":{"name":"","name:ja":"","name:en":"","operator":"","fuel_type":"unknown","plant:source":"","capacity_mw":null,"voltage":"","_region":"hokuriku","_display_name":"plant_536371037","_fuel_color":"#999999","osm_id":536371037,"osm_type":"way","_category":"ipp"}},{"type":"Feature","geometry":{"type":"Point","coordinates":[137.051648,36.775889]},"properties":{"name":"","name:ja":"","name:en":"","operator":"","fuel_type":"unknown","plant:source":"","capacity_mw":null,"voltage":"","_region":"hokuriku","_display_name":"plant_536661533","_fuel_color":"#999999","osm_id":536661533,"osm_type":"way","_category":"ipp"}},{"type":"Feature","geometry":{"type":"Point","coordinates":[137.139259,36.716654]},"properties":{"name":"","name:ja":"","name:en":"","operator":"","fuel_type":"unknown","plant:source":"","capacity_mw":null,"voltage":"","_region":"hokuriku","_display_name":"plant_538301008","_fuel_color":"#999999","osm_id":538301008,"osm_type":"way","_category":"ipp"}},{"type":"Feature","geometry":{"type":"Point","coordinates":[137.154665,36.717533]},"properties":{"name":"富山いすゞ自動車株式会社","name:ja":"","name:en":"","operator":"富山いすゞ自動車株式会社","fuel_type":"solar","plant:source":"","capacity_mw":-1.0,"voltage":"","_region":"hokuriku","_display_name":"富山いすゞ自動車株式会社","_fuel_color":"#999999","osm_id":538303900,"osm_type":"way","_category":"ipp","_enriched_by":"p03","_p03_distance_km":0.497}},{"type":"Feature","geometry":{"type":"Point","coordinates":[137.311551,36.702878]},"properties":{"name":"","name:ja":"","name:en":"","operator":"","fuel_type":"unknown","plant:source":"","capacity_mw":null,"voltage":"","_region":"hokuriku","_display_name":"plant_538773514","_fuel_color":"#999999","osm_id":538773514,"osm_type":"way","_category":"ipp"}},{"type":"Feature","geometry":{"type":"Point","coordinates":[136.275949,36.017665]},"properties":{"name":"","name:ja":"","name:en":"","operator":"","fuel_type":"solar","plant:source":"solar","capacity_mw":null,"voltage":"","_region":"hokuriku","_display_name":"plant_539971171","_fuel_color":"#ffdd00","osm_id":539971171,"osm_type":"way","_category":"ipp"}},{"type":"Feature","geometry":{"type":"Point","coordinates":[137.567698,36.960113]},"properties":{"name":"","name:ja":"","name:en":"","operator":"","fuel_type":"solar","plant:source":"solar","capacity_mw":null,"voltage":"","_region":"hokuriku","_display_name":"plant_541631359","_fuel_color":"#ffdd00","osm_id":541631359,"osm_type":"way","_category":"ipp"}},{"type":"Feature","geometry":{"type":"Point","coordinates":[137.174676,36.599962]},"properties":{"name":"薄島発電所","name:ja":"","name:en":"","operator":"北陸電力","fuel_type":"hydro","plant:source":"hydro","capacity_mw":null,"voltage":"","_region":"hokuriku","_display_name":"薄島発電所","_fuel_color":"#0088ff","osm_id":541999391,"osm_type":"way","_category":"utility"}},{"type":"Feature","geometry":{"type":"Point","coordinates":[137.169995,36.676879]},"properties":{"name":"","name:ja":"","name:en":"","operator":"","fuel_type":"solar","plant:source":"solar","capacity_mw":null,"voltage":"","_region":"hokuriku","_display_name":"plant_543030904","_fuel_color":"#ffdd00","osm_id":543030904,"osm_type":"way","_category":"ipp"}},{"type":"Feature","geometry":{"type":"Point","coordinates":[137.121042,36.695543]},"properties":{"name":"","name:ja":"","name:en":"","operator":"","fuel_type":"solar","plant:source":"solar","capacity_mw":null,"voltage":"","_region":"hokuriku","_display_name":"plant_543046412","_fuel_color":"#ffdd00","osm_id":543046412,"osm_type":"way","_category":"ipp"}},{"type":"Feature","geometry":{"type":"Point","coordinates":[137.320164,36.531538]},"properties":{"name":"","name:ja":"","name:en":"","operator":"","fuel_type":"hydro","plant:source":"hydro","capacity_mw":null,"voltage":"","_region":"hokuriku","_display_name":"plant_547573200","_fuel_color":"#0088ff","osm_id":547573200,"osm_type":"way","_category":"ipp"}},{"type":"Feature","geometry":{"type":"Point","coordinates":[137.23869,36.567309]},"properties":{"name":"SGET富山メガソーラー発電所","name:ja":"","name:en":"","operator":"","fuel_type":"solar","plant:source":"solar","capacity_mw":null,"voltage":"","_region":"hokuriku","_display_name":"SGET富山メガソーラー発電所","_fuel_color":"#ffdd00","osm_id":547589077,"osm_type":"way","_category":"ipp"}},{"type":"Feature","geometry":{"type":"Point","coordinates":[137.30206,36.607168]},"properties":{"name":"熊野川第二発電所","name:ja":"","name:en":"","operator":"北陸電力株式会社","fuel_type":"hydro","plant:source":"","capacity_mw":-1.0,"voltage":"","_region":"hokuriku","_display_name":"熊野川第二発電所","_fuel_color":"#999999","osm_id":547614443,"osm_type":"way","_category":"utility","_enriched_by":"p03","_p03_distance_km":0.527}},{"type":"Feature","geometry":{"type":"Point","coordinates":[137.206843,36.560717]},"properties":{"name":"関西電力","name:ja":"","name:en":"","operator":"","fuel_type":"unknown","plant:source":"","capacity_mw":null,"voltage":"","_region":"hokuriku","_display_name":"関西電力","_fuel_color":"#999999","osm_id":548927975,"osm_type":"way","_category":"ipp"}},{"type":"Feature","geometry":{"type":"Point","coordinates":[136.596524,36.463115]},"properties":{"name":"七ヶ用水発電所","name:ja":"","name:en":"","operator":"白山市","fuel_type":"hydro","plant:source":"hydro","capacity_mw":-1.0,"voltage":"","_region":"hokuriku","_display_name":"七ヶ用水発電所","_fuel_color":"#0088ff","osm_id":549329657,"osm_type":"way","_category":"ipp","_enriched_by":"p03","_p03_distance_km":0.003}},{"type":"Feature","geometry":{"type":"Point","coordinates":[136.995604,36.575204]},"properties":{"name":"庄川合口ダム","name:ja":"","name:en":"","operator":"庄川沿岸用水土地改良区連合","fuel_type":"hydro","plant:source":"hydro","capacity_mw":-1.0,"voltage":"","_region":"hokuriku","_display_name":"庄川合口ダム","_fuel_color":"#0088ff","osm_id":553178704,"osm_type":"way","_category":"ipp","_enriched_by":"p03","_p03_distance_km":0.095}},{"type":"Feature","geometry":{"type":"Point","coordinates":[137.298886,36.337977]},"properties":{"name":"北陸電力東町発電所","name:ja":"","name:en":"","operator":"北陸電力株式会社","fuel_type":"hydro","plant:source":"hydro","capacity_mw":31.3,"voltage":"","_region":"hokuriku","_display_name":"北陸電力東町発電所","_fuel_color":"#0088ff","osm_id":554778115,"osm_type":"way","_category":"utility","_enriched_by":"p03","_p03_distance_km":0.048}},{"type":"Feature","geometry":{"type":"Point","coordinates":[137.205983,36.725149]},"properties":{"name":"神通川浄水場太陽光発電所","name:ja":"","name:en":"","operator":"富山県","fuel_type":"solar","plant:source":"solar","capacity_mw":1.8,"voltage":"","_region":"hokuriku","_display_name":"神通川浄水場太陽光発電所","_fuel_color":"#ffdd00","osm_id":555607367,"osm_type":"way","_category":"ipp"}},{"type":"Feature","geometry":{"type":"Point","coordinates":[137.55371,36.930938]},"properties":{"name":"","name:ja":"","name:en":"","operator":"","fuel_type":"unknown","plant:source":"","capacity_mw":null,"voltage":"","_region":"hokuriku","_display_name":"plant_563885411","_fuel_color":"#999999","osm_id":563885411,"osm_type":"way","_category":"ipp"}},{"type":"Feature","geometry":{"type":"Point","coordinates":[136.986736,37.121474]},"properties":{"name":"","name:ja":"","name:en":"","operator":"","fuel_type":"solar","plant:source":"solar","capacity_mw":null,"voltage":"","_region":"hokuriku","_display_name":"plant_564161869","_fuel_color":"#ffdd00","osm_id":564161869,"osm_type":"way","_category":"ipp"}},{"type":"Feature","geometry":{"type":"Point","coordinates":[136.934347,37.081742]},"properties":{"name":"","name:ja":"","name:en":"","operator":"","fuel_type":"unknown","plant:source":"","capacity_mw":null,"voltage":"","_region":"hokuriku","_display_name":"plant_564163469","_fuel_color":"#999999","osm_id":564163469,"osm_type":"way","_category":"ipp"}},{"type":"Feature","geometry":{"type":"Point","coordinates":[136.959983,37.063085]},"properties":{"name":"SOLOAR・ENERGY 七尾太陽光発電所","name:ja":"","name:en":"","operator":"","fuel_type":"solar","plant:source":"solar","capacity_mw":null,"voltage":"","_region":"hokuriku","_display_name":"SOLOAR・ENERGY 七尾太陽光発電所","_fuel_color":"#ffdd00","osm_id":564163474,"osm_type":"way","_category":"ipp"}},{"type":"Feature","geometry":{"type":"Point","coordinates":[137.145615,36.562498]},"properties":{"name":"","name:ja":"","name:en":"","operator":"","fuel_type":"unknown","plant:source":"","capacity_mw":null,"voltage":"","_region":"hokuriku","_display_name":"plant_565723893","_fuel_color":"#999999","osm_id":565723893,"osm_type":"way","_category":"ipp"}},{"type":"Feature","geometry":{"type":"Point","coordinates":[137.865083,36.424745]},"properties":{"name":"","name:ja":"","name:en":"","operator":"","fuel_type":"solar","plant:source":"solar","capacity_mw":null,"voltage":"","_region":"hokuriku","_display_name":"plant_569978789","_fuel_color":"#ffdd00","osm_id":569978789,"osm_type":"way","_category":"ipp"}},{"type":"Feature","geometry":{"type":"Point","coordinates":[137.556377,36.940517]},"properties":{"name":"","name:ja":"","name:en":"","operator":"","fuel_type":"unknown","plant:source":"","capacity_mw":null,"voltage":"","_region":"hokuriku","_display_name":"plant_571667343","_fuel_color":"#999999","osm_id":571667343,"osm_type":"way","_category":"ipp"}},{"type":"Feature","geometry":{"type":"Point","coordinates":[137.536671,36.896144]},"properties":{"name":"","name:ja":"","name:en":"","operator":"","fuel_type":"unknown","plant:source":"","capacity_mw":null,"voltage":"","_region":"hokuriku","_display_name":"plant_583950527","_fuel_color":"#999999","osm_id":583950527,"osm_type":"way","_category":"ipp"}},{"type":"Feature","geometry":{"type":"Point","coordinates":[137.531355,36.90677]},"properties":{"name":"黒東第三発電所","name:ja":"","name:en":"","operator":"","fuel_type":"hydro","plant:source":"hydro","capacity_mw":null,"voltage":"","_region":"hokuriku","_display_name":"黒東第三発電所","_fuel_color":"#0088ff","osm_id":583977844,"osm_type":"way","_category":"ipp"}},{"type":"Feature","geometry":{"type":"Point","coordinates":[137.500633,36.863483]},"properties":{"name":"","name:ja":"","name:en":"","operator":"","fuel_type":"unknown","plant:source":"","capacity_mw":null,"voltage":"","_region":"hokuriku","_display_name":"plant_591381878","_fuel_color":"#999999","osm_id":591381878,"osm_type":"way","_category":"ipp"}},{"type":"Feature","geometry":{"type":"Point","coordinates":[137.500653,36.863614]},"properties":{"name":"","name:ja":"","name:en":"","operator":"","fuel_type":"unknown","plant:source":"","capacity_mw":null,"voltage":"","_region":"hokuriku","_display_name":"plant_591381879","_fuel_color":"#999999","osm_id":591381879,"osm_type":"way","_category":"ipp"}},{"type":"Feature","geometry":{"type":"Point","coordinates":[137.1284,36.764482]},"properties":{"name":"富山新港火力発電所","name:ja":"富山新港火力発電所","name:en":"Toyama Shinko Thermal Power Station","operator":"北陸電力株式会社 (Hokuriku Electric Power Company)","fuel_type":"coal","plant:source":"coal;oil","capacity_mw":1500.0,"voltage":"","_region":"hokuriku","_display_name":"富山新港火力発電所","_fuel_color":"#444444","osm_id":605420895,"osm_type":"way","_category":"utility"}},{"type":"Feature","geometry":{"type":"Point","coordinates":[136.016878,35.754667]},"properties":{"name":"ふげん","name:ja":"","name:en":"Fugen Nuclear Power Plant","operator":"日本原子力発電株式会社","fuel_type":"nuclear","plant:source":"nuclear","capacity_mw":35.7,"voltage":"","_region":"hokuriku","_display_name":"ふげん","_fuel_color":"#ff0000","osm_id":605420909,"osm_type":"way","_category":"utility","_enriched_by":"p03","_p03_distance_km":0.268}},{"type":"Feature","geometry":{"type":"Point","coordinates":[136.005456,35.752896]},"properties":{"name":"敦賀原子力発電所","name:ja":"敦賀原子力発電所","name:en":"Tsuruga Nuclear Power Plant","operator":"日本原子力発電株式会社","fuel_type":"nuclear","plant:source":"nuclear","capacity_mw":null,"voltage":"","_region":"hokuriku","_display_name":"敦賀原子力発電所","_fuel_color":"#ff0000","osm_id":605420910,"osm_type":"way","_category":"utility"}},{"type":"Feature","geometry":{"type":"Point","coordinates":[137.427428,36.911627]},"properties":{"name":"","name:ja":"","name:en":"","operator":"","fuel_type":"unknown","plant:source":"","capacity_mw":null,"voltage":"","_region":"hokuriku","_display_name":"plant_607022051","_fuel_color":"#999999","osm_id":607022051,"osm_type":"way","_category":"ipp"}},{"type":"Feature","geometry":{"type":"Point","coordinates":[137.601063,36.900595]},"properties":{"name":"朝日小川第二発電所","name:ja":"","name:en":"","operator":"","fuel_type":"unknown","plant:source":"","capacity_mw":null,"voltage":"","_region":"hokuriku","_display_name":"朝日小川第二発電所","_fuel_color":"#999999","osm_id":611848136,"osm_type":"way","_category":"ipp"}},{"type":"Feature","geometry":{"type":"Point","coordinates":[137.044988,37.130588]},"properties":{"name":"","name:ja":"","name:en":"","operator":"","fuel_type":"unknown","plant:source":"","capacity_mw":null,"voltage":"","_region":"hokuriku","_display_name":"plant_623764174","_fuel_color":"#999999","osm_id":623764174,"osm_type":"way","_category":"ipp"}},{"type":"Feature","geometry":{"type":"Point","coordinates":[137.839925,37.024189]},"properties":{"name":"姫川第七発電所","name:ja":"","name:en":"","operator":"東京発電株式会社","fuel_type":"hydro","plant:source":"hydro","capacity_mw":43.2,"voltage":"","_region":"hokuriku","_display_name":"姫川第七発電所","_fuel_color":"#0088ff","osm_id":633814159,"osm_type":"way","_category":"ipp","_enriched_by":"p03","_p03_distance_km":0.101}},{"type":"Feature","geometry":{"type":"Point","coordinates":[137.858021,36.93816]},"properties":{"name":"姫川第六発電所","name:ja":"","name:en":"","operator":"","fuel_type":"hydro","plant:source":"hydro","capacity_mw":null,"voltage":"","_region":"hokuriku","_display_name":"姫川第六発電所","_fuel_color":"#0088ff","osm_id":635168184,"osm_type":"way","_category":"ipp"}},{"type":"Feature","geometry":{"type":"Point","coordinates":[136.663537,36.680454]},"properties":{"name":"内灘一号発電所","name:ja":"","name:en":"","operator":"","fuel_type":"solar","plant:source":"solar","capacity_mw":null,"voltage":"","_region":"hokuriku","_display_name":"内灘一号発電所","_fuel_color":"#ffdd00","osm_id":641170849,"osm_type":"way","_category":"ipp"}},{"type":"Feature","geometry":{"type":"Point","coordinates":[136.13215,36.207845]},"properties":{"name":"Fukui Mikuni Thermal Power Plant","name:ja":"","name:en":"","operator":"北陸電力株式会社","fuel_type":"oil","plant:source":"oil","capacity_mw":250.0,"voltage":"","_region":"hokuriku","_display_name":"Fukui Mikuni Thermal Power Plant","_fuel_color":"#884400","osm_id":643561003,"osm_type":"way","_category":"utility","_enriched_by":"p03","_p03_distance_km":0.42}},{"type":"Feature","geometry":{"type":"Point","coordinates":[137.483713,36.870507]},"properties":{"name":"","name:ja":"","name:en":"","operator":"","fuel_type":"unknown","plant:source":"","capacity_mw":null,"voltage":"","_region":"hokuriku","_display_name":"plant_651067897","_fuel_color":"#999999","osm_id":651067897,"osm_type":"way","_category":"ipp"}},{"type":"Feature","geometry":{"type":"Point","coordinates":[137.50232,36.860935]},"properties":{"name":"","name:ja":"","name:en":"","operator":"","fuel_type":"unknown","plant:source":"","capacity_mw":null,"voltage":"","_region":"hokuriku","_display_name":"plant_651074960","_fuel_color":"#999999","osm_id":651074960,"osm_type":"way","_category":"ipp"}},{"type":"Feature","geometry":{"type":"Point","coordinates":[137.158403,36.700264]},"properties":{"name":"太陽光発電","name:ja":"","name:en":"","operator":"","fuel_type":"solar","plant:source":"solar","capacity_mw":null,"voltage":"","_region":"hokuriku","_display_name":"太陽光発電","_fuel_color":"#ffdd00","osm_id":664057048,"osm_type":"way","_category":"ipp"}},{"type":"Feature","geometry":{"type":"Point","coordinates":[137.157686,36.699857]},"properties":{"name":"太陽光発電","name:ja":"","name:en":"","operator":"","fuel_type":"solar","plant:source":"solar","capacity_mw":null,"voltage":"","_region":"hokuriku","_display_name":"太陽光発電","_fuel_color":"#ffdd00","osm_id":664057049,"osm_type":"way","_category":"ipp"}},{"type":"Feature","geometry":{"type":"Point","coordinates":[137.857587,36.497204]},"properties":{"name":"","name:ja":"","name:en":"","operator":"","fuel_type":"solar","plant:source":"solar","capacity_mw":null,"voltage":"","_region":"hokuriku","_display_name":"plant_684155029","_fuel_color":"#ffdd00","osm_id":684155029,"osm_type":"way","_category":"ipp"}},{"type":"Feature","geometry":{"type":"Point","coordinates":[136.429548,36.408521]},"properties":{"name":"","name:ja":"","name:en":"","operator":"","fuel_type":"unknown","plant:source":"","capacity_mw":null,"voltage":"","_region":"hokuriku","_display_name":"plant_693118792","_fuel_color":"#999999","osm_id":693118792,"osm_type":"way","_category":"ipp"}},{"type":"Feature","geometry":{"type":"Point","coordinates":[136.497545,36.488544]},"properties":{"name":"児童館　蝶屋にこにこハウス","name:ja":"","name:en":"","operator":"石川県白山市","fuel_type":"solar","plant:source":"","capacity_mw":-1.0,"voltage":"","_region":"hokuriku","_display_name":"児童館　蝶屋にこにこハウス","_fuel_color":"#999999","osm_id":697319362,"osm_type":"way","_category":"ipp","_enriched_by":"p03","_p03_distance_km":0.55}},{"type":"Feature","geometry":{"type":"Point","coordinates":[136.412855,36.347534]},"properties":{"name":"","name:ja":"","name:en":"","operator":"","fuel_type":"unknown","plant:source":"","capacity_mw":null,"voltage":"","_region":"hokuriku","_display_name":"plant_698138967","_fuel_color":"#999999","osm_id":698138967,"osm_type":"way","_category":"ipp"}},{"type":"Feature","geometry":{"type":"Point","coordinates":[136.386968,36.331837]},"properties":{"name":"","name:ja":"","name:en":"","operator":"","fuel_type":"unknown","plant:source":"","capacity_mw":null,"voltage":"","_region":"hokuriku","_display_name":"plant_698149306","_fuel_color":"#999999","osm_id":698149306,"osm_type":"way","_category":"ipp"}},{"type":"Feature","geometry":{"type":"Point","coordinates":[136.281501,36.257928]},"properties":{"name":"","name:ja":"","name:en":"","operator":"","fuel_type":"unknown","plant:source":"","capacity_mw":null,"voltage":"","_region":"hokuriku","_display_name":"plant_702984038","_fuel_color":"#999999","osm_id":702984038,"osm_type":"way","_category":"ipp"}},{"type":"Feature","geometry":{"type":"Point","coordinates":[136.422791,36.352519]},"properties":{"name":"","name:ja":"","name:en":"","operator":"","fuel_type":"unknown","plant:source":"","capacity_mw":null,"voltage":"","_region":"hokuriku","_display_name":"plant_704095451","_fuel_color":"#999999","osm_id":704095451,"osm_type":"way","_category":"ipp"}},{"type":"Feature","geometry":{"type":"Point","coordinates":[136.477428,36.479784]},"properties":{"name":"","name:ja":"","name:en":"","operator":"","fuel_type":"unknown","plant:source":"","capacity_mw":null,"voltage":"","_region":"hokuriku","_display_name":"plant_704266377","_fuel_color":"#999999","osm_id":704266377,"osm_type":"way","_category":"ipp"}},{"type":"Feature","geometry":{"type":"Point","coordinates":[137.719587,36.132828]},"properties":{"name":"安曇水力発電所","name:ja":"","name:en":"","operator":"東京電力株式会社","fuel_type":"hydro","plant:source":"hydro","capacity_mw":623.0,"voltage":"","_region":"hokuriku","_display_name":"安曇水力発電所","_fuel_color":"#0088ff","osm_id":727005862,"osm_type":"way","_category":"utility"}},{"type":"Feature","geometry":{"type":"Point","coordinates":[137.689602,36.644872]},"properties":{"name":"黒部川第四発電所","name:ja":"","name:en":"Kurobegawa Powerstation #4","operator":"関西電力株式会社","fuel_type":"hydro","plant:source":"hydro","capacity_mw":335.0,"voltage":"","_region":"hokuriku","_display_name":"黒部川第四発電所","_fuel_color":"#0088ff","osm_id":761185975,"osm_type":"way","_category":"utility"}},{"type":"Feature","geometry":{"type":"Point","coordinates":[137.426183,36.782656]},"properties":{"name":"","name:ja":"","name:en":"","operator":"","fuel_type":"solar","plant:source":"solar","capacity_mw":null,"voltage":"","_region":"hokuriku","_display_name":"plant_781480638","_fuel_color":"#ffdd00","osm_id":781480638,"osm_type":"way","_category":"ipp"}},{"type":"Feature","geometry":{"type":"Point","coordinates":[137.747821,36.154672]},"properties":{"name":"水殿水力発電所","name:ja":"水殿水力発電所","name:en":"","operator":"東京電力株式会社","fuel_type":"hydro","plant:source":"hydro","capacity_mw":245.0,"voltage":"","_region":"hokuriku","_display_name":"水殿水力発電所","_fuel_color":"#0088ff","osm_id":787208208,"osm_type":"way","_category":"utility"}},{"type":"Feature","geometry":{"type":"Point","coordinates":[137.771471,36.168664]},"properties":{"name":"稲核発電所","name:ja":"","name:en":"","operator":"東京電力","fuel_type":"hydro","plant:source":"hydro","capacity_mw":0.5,"voltage":"","_region":"hokuriku","_display_name":"稲核発電所","_fuel_color":"#0088ff","osm_id":787212462,"osm_type":"way","_category":"utility"}},{"type":"Feature","geometry":{"type":"Point","coordinates":[137.509316,36.765935]},"properties":{"name":"","name:ja":"","name:en":"","operator":"","fuel_type":"hydro","plant:source":"hydro","capacity_mw":null,"voltage":"","_region":"hokuriku","_display_name":"plant_788038985","_fuel_color":"#0088ff","osm_id":788038985,"osm_type":"way","_category":"ipp"}},{"type":"Feature","geometry":{"type":"Point","coordinates":[137.430241,36.808292]},"properties":{"name":"","name:ja":"","name:en":"","operator":"","fuel_type":"solar","plant:source":"solar","capacity_mw":null,"voltage":"","_region":"hokuriku","_display_name":"plant_798849023","_fuel_color":"#ffdd00","osm_id":798849023,"osm_type":"way","_category":"ipp"}},{"type":"Feature","geometry":{"type":"Point","coordinates":[137.3659,36.774959]},"properties":{"name":"","name:ja":"","name:en":"","operator":"","fuel_type":"solar","plant:source":"solar","capacity_mw":null,"voltage":"","_region":"hokuriku","_display_name":"plant_809609656","_fuel_color":"#ffdd00","osm_id":809609656,"osm_type":"way","_category":"ipp"}},{"type":"Feature","geometry":{"type":"Point","coordinates":[136.660963,35.735681]},"properties":{"name":"奥美濃所内水力発電所","name:ja":"","name:en":"","operator":"中部電力株式会社","fuel_type":"hydro","plant:source":"hydro","capacity_mw":-1.0,"voltage":"","_region":"hokuriku","_display_name":"奥美濃所内水力発電所","_fuel_color":"#0088ff","osm_id":832823488,"osm_type":"way","_category":"utility","_enriched_by":"p03","_p03_distance_km":0.351}},{"type":"Feature","geometry":{"type":"Point","coordinates":[137.462869,36.871547]},"properties":{"name":"","name:ja":"","name:en":"","operator":"","fuel_type":"solar","plant:source":"solar","capacity_mw":null,"voltage":"","_region":"hokuriku","_display_name":"plant_839669032","_fuel_color":"#ffdd00","osm_id":839669032,"osm_type":"way","_category":"ipp"}},{"type":"Feature","geometry":{"type":"Point","coordinates":[137.446445,36.864236]},"properties":{"name":"","name:ja":"","name:en":"","operator":"","fuel_type":"solar","plant:source":"solar","capacity_mw":null,"voltage":"","_region":"hokuriku","_display_name":"plant_839672442","_fuel_color":"#ffdd00","osm_id":839672442,"osm_type":"way","_category":"ipp"}},{"type":"Feature","geometry":{"type":"Point","coordinates":[137.410897,36.746792]},"properties":{"name":"","name:ja":"","name:en":"","operator":"","fuel_type":"solar","plant:source":"solar","capacity_mw":null,"voltage":"","_region":"hokuriku","_display_name":"plant_855004279","_fuel_color":"#ffdd00","osm_id":855004279,"osm_type":"way","_category":"ipp"}},{"type":"Feature","geometry":{"type":"Point","coordinates":[137.261555,36.757083]},"properties":{"name":"富山市立大広田小学校","name:ja":"","name:en":"","operator":"富山県富山市","fuel_type":"solar","plant:source":"solar","capacity_mw":-1.0,"voltage":"","_region":"hokuriku","_display_name":"富山市立大広田小学校","_fuel_color":"#ffdd00","osm_id":872763694,"osm_type":"way","_category":"ipp","_enriched_by":"p03","_p03_distance_km":0.841}},{"type":"Feature","geometry":{"type":"Point","coordinates":[136.47802,36.484002]},"properties":{"name":"","name:ja":"","name:en":"","operator":"","fuel_type":"solar","plant:source":"solar","capacity_mw":null,"voltage":"","_region":"hokuriku","_display_name":"plant_878828000","_fuel_color":"#ffdd00","osm_id":878828000,"osm_type":"way","_category":"ipp"}},{"type":"Feature","geometry":{"type":"Point","coordinates":[137.878633,35.747861]},"properties":{"name":"","name:ja":"","name:en":"","operator":"","fuel_type":"hydro","plant:source":"hydro","capacity_mw":null,"voltage":"","_region":"hokuriku","_display_name":"plant_883059789","_fuel_color":"#0088ff","osm_id":883059789,"osm_type":"way","_category":"ipp"}},{"type":"Feature","geometry":{"type":"Point","coordinates":[137.28932,36.62688]},"properties":{"name":"","name:ja":"","name:en":"","operator":"","fuel_type":"solar","plant:source":"solar","capacity_mw":null,"voltage":"","_region":"hokuriku","_display_name":"plant_891041673","_fuel_color":"#ffdd00","osm_id":891041673,"osm_type":"way","_category":"ipp"}},{"type":"Feature","geometry":{"type":"Point","coordinates":[137.322959,36.663594]},"properties":{"name":"","name:ja":"","name:en":"","operator":"","fuel_type":"solar","plant:source":"solar","capacity_mw":null,"voltage":"","_region":"hokuriku","_display_name":"plant_893625240","_fuel_color":"#ffdd00","osm_id":893625240,"osm_type":"way","_category":"ipp"}},{"type":"Feature","geometry":{"type":"Point","coordinates":[137.306427,36.619745]},"properties":{"name":"立山火力発電所　（富山地区広域圏事務組合）クリーンセンター","name:ja":"","name:en":"","operator":"富山地区広域圏事務組合","fuel_type":"solar","plant:source":"solar","capacity_mw":-1.0,"voltage":"","_region":"hokuriku","_display_name":"立山火力発電所　（富山地区広域圏事務組合）クリーンセンター","_fuel_color":"#ffdd00","osm_id":895849703,"osm_type":"way","_category":"ipp","_enriched_by":"p03","_p03_distance_km":0.23}},{"type":"Feature","geometry":{"type":"Point","coordinates":[137.307766,36.617948]},"properties":{"name":"立山火力発電所　（富山地区広域圏事務組合）クリーンセンター","name:ja":"","name:en":"","operator":"富山地区広域圏事務組合","fuel_type":"solar","plant:source":"solar","capacity_mw":-1.0,"voltage":"","_region":"hokuriku","_display_name":"立山火力発電所　（富山地区広域圏事務組合）クリーンセンター","_fuel_color":"#ffdd00","osm_id":895849704,"osm_type":"way","_category":"ipp","_enriched_by":"p03","_p03_distance_km":0.463}},{"type":"Feature","geometry":{"type":"Point","coordinates":[137.308338,36.616399]},"properties":{"name":"立山火力発電所　（富山地区広域圏事務組合）クリーンセンター","name:ja":"","name:en":"","operator":"富山地区広域圏事務組合","fuel_type":"solar","plant:source":"solar","capacity_mw":-1.0,"voltage":"","_region":"hokuriku","_display_name":"立山火力発電所　（富山地区広域圏事務組合）クリーンセンター","_fuel_color":"#ffdd00","osm_id":895849705,"osm_type":"way","_category":"ipp","_enriched_by":"p03","_p03_distance_km":0.637}},{"type":"Feature","geometry":{"type":"Point","coordinates":[137.689881,35.78067]},"properties":{"name":"寝覚水力発電所","name:ja":"","name:en":"","operator":"関西電力株式会社","fuel_type":"hydro","plant:source":"hydro","capacity_mw":35.0,"voltage":"","_region":"hokuriku","_display_name":"寝覚水力発電所","_fuel_color":"#0088ff","osm_id":901916982,"osm_type":"way","_category":"utility","_enriched_by":"p03","_p03_distance_km":0.008}},{"type":"Feature","geometry":{"type":"Point","coordinates":[137.322835,36.641927]},"properties":{"name":"","name:ja":"","name:en":"","operator":"","fuel_type":"solar","plant:source":"solar","capacity_mw":null,"voltage":"","_region":"hokuriku","_display_name":"plant_906310914","_fuel_color":"#ffdd00","osm_id":906310914,"osm_type":"way","_category":"ipp"}},{"type":"Feature","geometry":{"type":"Point","coordinates":[137.323068,36.64068]},"properties":{"name":"","name:ja":"","name:en":"","operator":"","fuel_type":"solar","plant:source":"solar","capacity_mw":null,"voltage":"","_region":"hokuriku","_display_name":"plant_906310916","_fuel_color":"#ffdd00","osm_id":906310916,"osm_type":"way","_category":"ipp"}},{"type":"Feature","geometry":{"type":"Point","coordinates":[136.719281,36.458772]},"properties":{"name":"上寺津発電所","name:ja":"上寺津発電所","name:en":"Kami-terazu Power Plant","operator":"金沢市企業局","fuel_type":"hydro","plant:source":"hydro","capacity_mw":16.2,"voltage":"","_region":"hokuriku","_display_name":"上寺津発電所","_fuel_color":"#0088ff","osm_id":909940875,"osm_type":"way","_category":"ipp"}},{"type":"Feature","geometry":{"type":"Point","coordinates":[137.204561,37.469211]},"properties":{"name":"","name:ja":"","name:en":"","operator":"","fuel_type":"solar","plant:source":"solar","capacity_mw":null,"voltage":"","_region":"hokuriku","_display_name":"plant_937734715","_fuel_color":"#ffdd00","osm_id":937734715,"osm_type":"way","_category":"ipp"}},{"type":"Feature","geometry":{"type":"Point","coordinates":[137.335009,37.444579]},"properties":{"name":"","name:ja":"","name:en":"","operator":"","fuel_type":"solar","plant:source":"solar","capacity_mw":null,"voltage":"","_region":"hokuriku","_display_name":"plant_938699768","_fuel_color":"#ffdd00","osm_id":938699768,"osm_type":"way","_category":"ipp"}},{"type":"Feature","geometry":{"type":"Point","coordinates":[136.755911,37.074793]},"properties":{"name":"志賀太陽光発電所","name:ja":"","name:en":"","operator":"北陸電力株式会社","fuel_type":"solar","plant:source":"solar","capacity_mw":1.0,"voltage":"","_region":"hokuriku","_display_name":"志賀太陽光発電所","_fuel_color":"#ffdd00","osm_id":938828384,"osm_type":"way","_category":"utility","_enriched_by":"p03","_p03_distance_km":0.584}},{"type":"Feature","geometry":{"type":"Point","coordinates":[136.755702,37.069635]},"properties":{"name":"志賀太陽光発電所","name:ja":"","name:en":"","operator":"北陸電力株式会社","fuel_type":"solar","plant:source":"solar","capacity_mw":1.0,"voltage":"","_region":"hokuriku","_display_name":"志賀太陽光発電所","_fuel_color":"#ffdd00","osm_id":938828385,"osm_type":"way","_category":"utility","_enriched_by":"p03","_p03_distance_km":0.077}},{"type":"Feature","geometry":{"type":"Point","coordinates":[137.219552,36.560451]},"properties":{"name":"神通川第二水力発電所","name:ja":"","name:en":"","operator":"北陸電力株式会社","fuel_type":"solar","plant:source":"solar","capacity_mw":41.0,"voltage":"","_region":"hokuriku","_display_name":"神通川第二水力発電所","_fuel_color":"#ffdd00","osm_id":940785826,"osm_type":"way","_category":"utility","_enriched_by":"p03","_p03_distance_km":0.798}},{"type":"Feature","geometry":{"type":"Point","coordinates":[137.234395,36.568536]},"properties":{"name":"","name:ja":"","name:en":"","operator":"","fuel_type":"solar","plant:source":"solar","capacity_mw":null,"voltage":"","_region":"hokuriku","_display_name":"plant_940785854","_fuel_color":"#ffdd00","osm_id":940785854,"osm_type":"way","_category":"ipp"}},{"type":"Feature","geometry":{"type":"Point","coordinates":[137.252339,36.7631]},"properties":{"name":"富山グリーンフードリサイクルバイオマス発電所","name:ja":"","name:en":"","operator":"富山グリーンフードリサイクルバイオマス発電所","fuel_type":"solar","plant:source":"solar","capacity_mw":-1.0,"voltage":"","_region":"hokuriku","_display_name":"富山グリーンフードリサイクルバイオマス発電所","_fuel_color":"#ffdd00","osm_id":965575572,"osm_type":"way","_category":"ipp","_enriched_by":"p03","_p03_distance_km":0.929}},{"type":"Feature","geometry":{"type":"Point","coordinates":[137.254721,36.762487]},"properties":{"name":"富山市立大広田小学校","name:ja":"","name:en":"","operator":"富山県富山市","fuel_type":"solar","plant:source":"solar","capacity_mw":-1.0,"voltage":"","_region":"hokuriku","_display_name":"富山市立大広田小学校","_fuel_color":"#ffdd00","osm_id":965575574,"osm_type":"way","_category":"ipp","_enriched_by":"p03","_p03_distance_km":0.923}},{"type":"Feature","geometry":{"type":"Point","coordinates":[137.25642,36.762024]},"properties":{"name":"富山市立大広田小学校","name:ja":"","name:en":"","operator":"富山県富山市","fuel_type":"solar","plant:source":"solar","capacity_mw":-1.0,"voltage":"","_region":"hokuriku","_display_name":"富山市立大広田小学校","_fuel_color":"#ffdd00","osm_id":965575575,"osm_type":"way","_category":"ipp","_enriched_by":"p03","_p03_distance_km":0.915}},{"type":"Feature","geometry":{"type":"Point","coordinates":[137.398036,36.824895]},"properties":{"name":"","name:ja":"","name:en":"","operator":"","fuel_type":"solar","plant:source":"solar","capacity_mw":null,"voltage":"","_region":"hokuriku","_display_name":"plant_965598624","_fuel_color":"#ffdd00","osm_id":965598624,"osm_type":"way","_category":"ipp"}},{"type":"Feature","geometry":{"type":"Point","coordinates":[137.399401,36.824954]},"properties":{"name":"","name:ja":"","name:en":"","operator":"","fuel_type":"solar","plant:source":"solar","capacity_mw":null,"voltage":"","_region":"hokuriku","_display_name":"plant_965598625","_fuel_color":"#ffdd00","osm_id":965598625,"osm_type":"way","_category":"ipp"}},{"type":"Feature","geometry":{"type":"Point","coordinates":[137.292356,36.606939]},"properties":{"name":"熊野川第二発電所","name:ja":"","name:en":"","operator":"北陸電力株式会社","fuel_type":"hydro","plant:source":"hydro","capacity_mw":-1.0,"voltage":"","_region":"hokuriku","_display_name":"熊野川第二発電所","_fuel_color":"#0088ff","osm_id":967026870,"osm_type":"way","_category":"utility","_enriched_by":"p03","_p03_distance_km":0.702}},{"type":"Feature","geometry":{"type":"Point","coordinates":[137.334281,36.590452]},"properties":{"name":"","name:ja":"","name:en":"","operator":"","fuel_type":"solar","plant:source":"solar","capacity_mw":null,"voltage":"","_region":"hokuriku","_display_name":"plant_967026873","_fuel_color":"#ffdd00","osm_id":967026873,"osm_type":"way","_category":"ipp"}},{"type":"Feature","geometry":{"type":"Point","coordinates":[137.076848,36.682207]},"properties":{"name":"","name:ja":"","name:en":"","operator":"","fuel_type":"solar","plant:source":"solar","capacity_mw":null,"voltage":"","_region":"hokuriku","_display_name":"plant_968011906","_fuel_color":"#ffdd00","osm_id":968011906,"osm_type":"way","_category":"ipp"}},{"type":"Feature","geometry":{"type":"Point","coordinates":[137.002799,36.74615]},"properties":{"name":"","name:ja":"","name:en":"","operator":"","fuel_type":"solar","plant:source":"solar","capacity_mw":null,"voltage":"","_region":"hokuriku","_display_name":"plant_974203024","_fuel_color":"#ffdd00","osm_id":974203024,"osm_type":"way","_category":"ipp"}},{"type":"Feature","geometry":{"type":"Point","coordinates":[136.935557,36.68479]},"properties":{"name":"","name:ja":"","name:en":"","operator":"","fuel_type":"solar","plant:source":"solar","capacity_mw":null,"voltage":"","_region":"hokuriku","_display_name":"plant_975972415","_fuel_color":"#ffdd00","osm_id":975972415,"osm_type":"way","_category":"ipp"}},{"type":"Feature","geometry":{"type":"Point","coordinates":[136.934826,36.686487]},"properties":{"name":"","name:ja":"","name:en":"","operator":"","fuel_type":"solar","plant:source":"solar","capacity_mw":null,"voltage":"","_region":"hokuriku","_display_name":"plant_975972416","_fuel_color":"#ffdd00","osm_id":975972416,"osm_type":"way","_category":"ipp"}},{"type":"Feature","geometry":{"type":"Point","coordinates":[137.050504,36.764787]},"properties":{"name":"","name:ja":"","name:en":"","operator":"","fuel_type":"solar","plant:source":"solar","capacity_mw":null,"voltage":"","_region":"hokuriku","_display_name":"plant_980543461","_fuel_color":"#ffdd00","osm_id":980543461,"osm_type":"way","_category":"ipp"}},{"type":"Feature","geometry":{"type":"Point","coordinates":[137.053697,36.737385]},"properties":{"name":"","name:ja":"","name:en":"","operator":"","fuel_type":"solar","plant:source":"solar","capacity_mw":null,"voltage":"","_region":"hokuriku","_display_name":"plant_980566901","_fuel_color":"#ffdd00","osm_id":980566901,"osm_type":"way","_category":"ipp"}},{"type":"Feature","geometry":{"type":"Point","coordinates":[137.205367,36.751075]},"properties":{"name":"","name:ja":"","name:en":"","operator":"","fuel_type":"solar","plant:source":"solar","capacity_mw":null,"voltage":"","_region":"hokuriku","_display_name":"plant_980574031","_fuel_color":"#ffdd00","osm_id":980574031,"osm_type":"way","_category":"ipp"}},{"type":"Feature","geometry":{"type":"Point","coordinates":[136.992698,36.610091]},"properties":{"name":"","name:ja":"","name:en":"","operator":"","fuel_type":"solar","plant:source":"solar","capacity_mw":null,"voltage":"","_region":"hokuriku","_display_name":"plant_980918084","_fuel_color":"#ffdd00","osm_id":980918084,"osm_type":"way","_category":"ipp"}},{"type":"Feature","geometry":{"type":"Point","coordinates":[137.318636,36.668695]},"properties":{"name":"","name:ja":"","name:en":"","operator":"","fuel_type":"solar","plant:source":"solar","capacity_mw":null,"voltage":"","_region":"hokuriku","_display_name":"plant_983248752","_fuel_color":"#ffdd00","osm_id":983248752,"osm_type":"way","_category":"ipp"}},{"type":"Feature","geometry":{"type":"Point","coordinates":[136.8404,36.778327]},"properties":{"name":"","name:ja":"","name:en":"","operator":"","fuel_type":"solar","plant:source":"solar","capacity_mw":null,"voltage":"","_region":"hokuriku","_display_name":"plant_986519102","_fuel_color":"#ffdd00","osm_id":986519102,"osm_type":"way","_category":"ipp"}},{"type":"Feature","geometry":{"type":"Point","coordinates":[137.234863,37.351073]},"properties":{"name":"","name:ja":"","name:en":"","operator":"","fuel_type":"solar","plant:source":"solar","capacity_mw":null,"voltage":"","_region":"hokuriku","_display_name":"plant_988627486","_fuel_color":"#ffdd00","osm_id":988627486,"osm_type":"way","_category":"ipp"}},{"type":"Feature","geometry":{"type":"Point","coordinates":[137.248344,37.346192]},"properties":{"name":"","name:ja":"","name:en":"","operator":"","fuel_type":"solar","plant:source":"solar","capacity_mw":null,"voltage":"","_region":"hokuriku","_display_name":"plant_997057931","_fuel_color":"#ffdd00","osm_id":997057931,"osm_type":"way","_category":"ipp"}},{"type":"Feature","geometry":{"type":"Point","coordinates":[137.491583,36.035138]},"properties":{"name":"高根第一水力発電所","name:ja":"高根第一水力発電所","name:en":"","operator":"中部電力株式会社","fuel_type":"hydro","plant:source":"hydro","capacity_mw":null,"voltage":"","_region":"hokuriku","_display_name":"高根第一水力発電所","_fuel_color":"#0088ff","osm_id":1002444623,"osm_type":"way","_category":"utility"}},{"type":"Feature","geometry":{"type":"Point","coordinates":[137.420389,36.747943]},"properties":{"name":"","name:ja":"","name:en":"","operator":"","fuel_type":"hydro","plant:source":"hydro","capacity_mw":null,"voltage":"","_region":"hokuriku","_display_name":"plant_1016690504","_fuel_color":"#0088ff","osm_id":1016690504,"osm_type":"way","_category":"ipp"}},{"type":"Feature","geometry":{"type":"Point","coordinates":[136.586723,35.966984]},"properties":{"name":"","name:ja":"","name:en":"","operator":"","fuel_type":"hydro","plant:source":"hydro","capacity_mw":null,"voltage":"","_region":"hokuriku","_display_name":"plant_1017748060","_fuel_color":"#0088ff","osm_id":1017748060,"osm_type":"way","_category":"ipp"}},{"type":"Feature","geometry":{"type":"Point","coordinates":[136.59128,35.966287]},"properties":{"name":"西勝原第三発電所","name:ja":"","name:en":"","operator":"","fuel_type":"hydro","plant:source":"hydro","capacity_mw":null,"voltage":"","_region":"hokuriku","_display_name":"西勝原第三発電所","_fuel_color":"#0088ff","osm_id":1017748064,"osm_type":"way","_category":"ipp"}},{"type":"Feature","geometry":{"type":"Point","coordinates":[136.640962,35.944184]},"properties":{"name":"湯上水力発電所","name:ja":"","name:en":"","operator":"電源開発株式会社","fuel_type":"hydro","plant:source":"hydro","capacity_mw":54.0,"voltage":"","_region":"hokuriku","_display_name":"湯上水力発電所","_fuel_color":"#0088ff","osm_id":1017748071,"osm_type":"way","_category":"utility","_enriched_by":"p03","_p03_distance_km":0.133}},{"type":"Feature","geometry":{"type":"Point","coordinates":[136.613469,35.959618]},"properties":{"name":"西勝原第一発電所","name:ja":"","name:en":"","operator":"北陸電力株式会社","fuel_type":"hydro","plant:source":"hydro","capacity_mw":48.0,"voltage":"","_region":"hokuriku","_display_name":"西勝原第一発電所","_fuel_color":"#0088ff","osm_id":1017748075,"osm_type":"way","_category":"utility","_enriched_by":"p03","_p03_distance_km":0.102}},{"type":"Feature","geometry":{"type":"Point","coordinates":[137.322617,36.611628]},"properties":{"name":"","name:ja":"","name:en":"","operator":"","fuel_type":"solar","plant:source":"solar","capacity_mw":null,"voltage":"","_region":"hokuriku","_display_name":"plant_1027453708","_fuel_color":"#ffdd00","osm_id":1027453708,"osm_type":"way","_category":"ipp"}},{"type":"Feature","geometry":{"type":"Point","coordinates":[136.899363,36.177944]},"properties":{"name":"白川村小水力発電所","name:ja":"","name:en":"","operator":"大白川温泉観光株式会社","fuel_type":"hydro","plant:source":"hydro","capacity_mw":-1.0,"voltage":"","_region":"hokuriku","_display_name":"白川村小水力発電所","_fuel_color":"#0088ff","osm_id":1028287060,"osm_type":"way","_category":"ipp","_enriched_by":"p03","_p03_distance_km":0.013}},{"type":"Feature","geometry":{"type":"Point","coordinates":[137.21688,36.567195]},"properties":{"name":"","name:ja":"","name:en":"","operator":"","fuel_type":"solar","plant:source":"solar","capacity_mw":null,"voltage":"","_region":"hokuriku","_display_name":"plant_1035420510","_fuel_color":"#ffdd00","osm_id":1035420510,"osm_type":"way","_category":"ipp"}},{"type":"Feature","geometry":{"type":"Point","coordinates":[137.225163,36.576451]},"properties":{"name":"","name:ja":"","name:en":"","operator":"","fuel_type":"solar","plant:source":"solar","capacity_mw":null,"voltage":"","_region":"hokuriku","_display_name":"plant_1035420560","_fuel_color":"#ffdd00","osm_id":1035420560,"osm_type":"way","_category":"ipp"}},{"type":"Feature","geometry":{"type":"Point","coordinates":[137.220349,36.582821]},"properties":{"name":"","name:ja":"","name:en":"","operator":"","fuel_type":"solar","plant:source":"solar","capacity_mw":null,"voltage":"","_region":"hokuriku","_display_name":"plant_1035449699","_fuel_color":"#ffdd00","osm_id":1035449699,"osm_type":"way","_category":"ipp"}},{"type":"Feature","geometry":{"type":"Point","coordinates":[137.333334,36.747478]},"properties":{"name":"","name:ja":"","name:en":"","operator":"","fuel_type":"solar","plant:source":"solar","capacity_mw":null,"voltage":"","_region":"hokuriku","_display_name":"plant_1037316132","_fuel_color":"#ffdd00","osm_id":1037316132,"osm_type":"way","_category":"ipp"}},{"type":"Feature","geometry":{"type":"Point","coordinates":[137.567112,36.953381]},"properties":{"name":"","name:ja":"","name:en":"","operator":"","fuel_type":"solar","plant:source":"solar","capacity_mw":null,"voltage":"","_region":"hokuriku","_display_name":"plant_1037513075","_fuel_color":"#ffdd00","osm_id":1037513075,"osm_type":"way","_category":"ipp"}},{"type":"Feature","geometry":{"type":"Point","coordinates":[137.325201,36.742374]},"properties":{"name":"","name:ja":"","name:en":"","operator":"","fuel_type":"solar","plant:source":"solar","capacity_mw":null,"voltage":"","_region":"hokuriku","_display_name":"plant_1038371112","_fuel_color":"#ffdd00","osm_id":1038371112,"osm_type":"way","_category":"ipp"}},{"type":"Feature","geometry":{"type":"Point","coordinates":[137.339297,36.621043]},"properties":{"name":"","name:ja":"","name:en":"","operator":"","fuel_type":"solar","plant:source":"solar","capacity_mw":null,"voltage":"","_region":"hokuriku","_display_name":"plant_1044154337","_fuel_color":"#ffdd00","osm_id":1044154337,"osm_type":"way","_category":"ipp"}},{"type":"Feature","geometry":{"type":"Point","coordinates":[137.31386,36.640747]},"properties":{"name":"","name:ja":"","name:en":"","operator":"","fuel_type":"solar","plant:source":"solar","capacity_mw":null,"voltage":"","_region":"hokuriku","_display_name":"plant_1045102839","_fuel_color":"#ffdd00","osm_id":1045102839,"osm_type":"way","_category":"ipp"}},{"type":"Feature","geometry":{"type":"Point","coordinates":[137.537949,36.64798]},"properties":{"name":"","name:ja":"","name:en":"","operator":"","fuel_type":"hydro","plant:source":"hydro","capacity_mw":null,"voltage":"","_region":"hokuriku","_display_name":"plant_1062164336","_fuel_color":"#0088ff","osm_id":1062164336,"osm_type":"way","_category":"ipp"}},{"type":"Feature","geometry":{"type":"Point","coordinates":[137.853503,36.183656]},"properties":{"name":"","name:ja":"","name:en":"","operator":"","fuel_type":"solar","plant:source":"solar","capacity_mw":null,"voltage":"","_region":"hokuriku","_display_name":"plant_1068262002","_fuel_color":"#ffdd00","osm_id":1068262002,"osm_type":"way","_category":"ipp"}},{"type":"Feature","geometry":{"type":"Point","coordinates":[136.909552,37.227532]},"properties":{"name":"","name:ja":"","name:en":"","operator":"","fuel_type":"solar","plant:source":"solar","capacity_mw":null,"voltage":"","_region":"hokuriku","_display_name":"plant_1077541306","_fuel_color":"#ffdd00","osm_id":1077541306,"osm_type":"way","_category":"ipp"}},{"type":"Feature","geometry":{"type":"Point","coordinates":[137.847939,36.199431]},"properties":{"name":"波田水車発電所","name:ja":"","name:en":"","operator":"松本市","fuel_type":"solar","plant:source":"solar","capacity_mw":-1.0,"voltage":"","_region":"hokuriku","_display_name":"波田水車発電所","_fuel_color":"#ffdd00","osm_id":1085071921,"osm_type":"way","_category":"ipp","_enriched_by":"p03","_p03_distance_km":0.512}},{"type":"Feature","geometry":{"type":"Point","coordinates":[137.849273,37.028514]},"properties":{"name":"糸魚川発電所","name:ja":"","name:en":"Itoigawa Power Station","operator":"サミット明星パワー株式会社","fuel_type":"coal","plant:source":"coal","capacity_mw":-1.0,"voltage":"","_region":"hokuriku","_display_name":"糸魚川発電所","_fuel_color":"#444444","osm_id":1087093559,"osm_type":"way","_category":"ipp","_enriched_by":"p03","_p03_distance_km":0.122}},{"type":"Feature","geometry":{"type":"Point","coordinates":[136.941354,36.727707]},"properties":{"name":"","name:ja":"","name:en":"","operator":"","fuel_type":"solar","plant:source":"solar","capacity_mw":null,"voltage":"","_region":"hokuriku","_display_name":"plant_1096310172","_fuel_color":"#ffdd00","osm_id":1096310172,"osm_type":"way","_category":"ipp"}},{"type":"Feature","geometry":{"type":"Point","coordinates":[137.499028,36.581582]},"properties":{"name":"","name:ja":"","name:en":"","operator":"","fuel_type":"hydro","plant:source":"hydro","capacity_mw":null,"voltage":"","_region":"hokuriku","_display_name":"plant_1108532389","_fuel_color":"#0088ff","osm_id":1108532389,"osm_type":"way","_category":"ipp"}},{"type":"Feature","geometry":{"type":"Point","coordinates":[137.253311,36.657376]},"properties":{"name":"","name:ja":"","name:en":"","operator":"","fuel_type":"solar","plant:source":"solar","capacity_mw":null,"voltage":"","_region":"hokuriku","_display_name":"plant_1121563020","_fuel_color":"#ffdd00","osm_id":1121563020,"osm_type":"way","_category":"ipp"}},{"type":"Feature","geometry":{"type":"Point","coordinates":[137.811771,36.53324]},"properties":{"name":"","name:ja":"","name:en":"","operator":"","fuel_type":"solar","plant:source":"solar","capacity_mw":null,"voltage":"","_region":"hokuriku","_display_name":"plant_1123877409","_fuel_color":"#ffdd00","osm_id":1123877409,"osm_type":"way","_category":"ipp"}},{"type":"Feature","geometry":{"type":"Point","coordinates":[137.813195,36.530463]},"properties":{"name":"","name:ja":"","name:en":"","operator":"","fuel_type":"solar","plant:source":"solar","capacity_mw":null,"voltage":"","_region":"hokuriku","_display_name":"plant_1123877410","_fuel_color":"#ffdd00","osm_id":1123877410,"osm_type":"way","_category":"ipp"}},{"type":"Feature","geometry":{"type":"Point","coordinates":[137.814985,36.53027]},"properties":{"name":"","name:ja":"","name:en":"","operator":"","fuel_type":"solar","plant:source":"solar","capacity_mw":null,"voltage":"","_region":"hokuriku","_display_name":"plant_1123877413","_fuel_color":"#ffdd00","osm_id":1123877413,"osm_type":"way","_category":"ipp"}},{"type":"Feature","geometry":{"type":"Point","coordinates":[137.819445,36.516801]},"properties":{"name":"","name:ja":"","name:en":"","operator":"","fuel_type":"solar","plant:source":"solar","capacity_mw":null,"voltage":"","_region":"hokuriku","_display_name":"plant_1123877414","_fuel_color":"#ffdd00","osm_id":1123877414,"osm_type":"way","_category":"ipp"}},{"type":"Feature","geometry":{"type":"Point","coordinates":[137.807995,36.532148]},"properties":{"name":"","name:ja":"","name:en":"","operator":"","fuel_type":"solar","plant:source":"solar","capacity_mw":null,"voltage":"","_region":"hokuriku","_display_name":"plant_1123877417","_fuel_color":"#ffdd00","osm_id":1123877417,"osm_type":"way","_category":"ipp"}},{"type":"Feature","geometry":{"type":"Point","coordinates":[136.687447,35.892657]},"properties":{"name":"長野水力発電所","name:ja":"長野水力発電所","name:en":"Nagano hydro power station","operator":"電源開発株式会社","fuel_type":"hydro","plant:source":"hydro","capacity_mw":220.0,"voltage":"","_region":"hokuriku","_display_name":"長野水力発電所","_fuel_color":"#0088ff","osm_id":1136534571,"osm_type":"way","_category":"utility"}},{"type":"Feature","geometry":{"type":"Point","coordinates":[137.116517,36.703414]},"properties":{"name":"","name:ja":"","name:en":"","operator":"","fuel_type":"solar","plant:source":"solar","capacity_mw":null,"voltage":"","_region":"hokuriku","_display_name":"plant_1144754263","_fuel_color":"#ffdd00","osm_id":1144754263,"osm_type":"way","_category":"ipp"}},{"type":"Feature","geometry":{"type":"Point","coordinates":[137.1169,36.702671]},"properties":{"name":"","name:ja":"","name:en":"","operator":"","fuel_type":"solar","plant:source":"solar","capacity_mw":null,"voltage":"","_region":"hokuriku","_display_name":"plant_1144754264","_fuel_color":"#ffdd00","osm_id":1144754264,"osm_type":"way","_category":"ipp"}},{"type":"Feature","geometry":{"type":"Point","coordinates":[137.856756,36.515519]},"properties":{"name":"","name:ja":"","name:en":"","operator":"","fuel_type":"solar","plant:source":"solar","capacity_mw":null,"voltage":"","_region":"hokuriku","_display_name":"plant_1145621805","_fuel_color":"#ffdd00","osm_id":1145621805,"osm_type":"way","_category":"ipp"}},{"type":"Feature","geometry":{"type":"Point","coordinates":[137.853169,36.518225]},"properties":{"name":"","name:ja":"","name:en":"","operator":"","fuel_type":"solar","plant:source":"solar","capacity_mw":null,"voltage":"","_region":"hokuriku","_display_name":"plant_1145621806","_fuel_color":"#ffdd00","osm_id":1145621806,"osm_type":"way","_category":"ipp"}},{"type":"Feature","geometry":{"type":"Point","coordinates":[136.900269,36.693492]},"properties":{"name":"","name:ja":"","name:en":"","operator":"","fuel_type":"solar","plant:source":"solar","capacity_mw":null,"voltage":"","_region":"hokuriku","_display_name":"plant_1169235344","_fuel_color":"#ffdd00","osm_id":1169235344,"osm_type":"way","_category":"ipp"}},{"type":"Feature","geometry":{"type":"Point","coordinates":[136.920421,36.712865]},"properties":{"name":"国土交通省福岡防災センター","name:ja":"","name:en":"","operator":"国土交通省福岡防災センター","fuel_type":"solar","plant:source":"solar","capacity_mw":-1.0,"voltage":"","_region":"hokuriku","_display_name":"国土交通省福岡防災センター","_fuel_color":"#ffdd00","osm_id":1169254794,"osm_type":"way","_category":"ipp","_enriched_by":"p03","_p03_distance_km":0.139}},{"type":"Feature","geometry":{"type":"Point","coordinates":[137.128271,36.697642]},"properties":{"name":"","name:ja":"","name:en":"","operator":"","fuel_type":"solar","plant:source":"solar","capacity_mw":null,"voltage":"","_region":"hokuriku","_display_name":"plant_1169524300","_fuel_color":"#ffdd00","osm_id":1169524300,"osm_type":"way","_category":"ipp"}},{"type":"Feature","geometry":{"type":"Point","coordinates":[136.604681,36.304192]},"properties":{"name":"","name:ja":"","name:en":"","operator":"","fuel_type":"hydro","plant:source":"hydro","capacity_mw":null,"voltage":"","_region":"hokuriku","_display_name":"plant_1169605223","_fuel_color":"#0088ff","osm_id":1169605223,"osm_type":"way","_category":"ipp"}},{"type":"Feature","geometry":{"type":"Point","coordinates":[136.605081,36.303751]},"properties":{"name":"","name:ja":"","name:en":"","operator":"","fuel_type":"hydro","plant:source":"hydro","capacity_mw":null,"voltage":"","_region":"hokuriku","_display_name":"plant_1169605224","_fuel_color":"#0088ff","osm_id":1169605224,"osm_type":"way","_category":"ipp"}},{"type":"Feature","geometry":{"type":"Point","coordinates":[136.639258,36.301379]},"properties":{"name":"","name:ja":"","name:en":"","operator":"","fuel_type":"hydro","plant:source":"hydro","capacity_mw":null,"voltage":"","_region":"hokuriku","_display_name":"plant_1169605225","_fuel_color":"#0088ff","osm_id":1169605225,"osm_type":"way","_category":"ipp"}},{"type":"Feature","geometry":{"type":"Point","coordinates":[136.940566,36.67959]},"properties":{"name":"","name:ja":"","name:en":"","operator":"","fuel_type":"solar","plant:source":"solar","capacity_mw":null,"voltage":"","_region":"hokuriku","_display_name":"plant_1171043161","_fuel_color":"#ffdd00","osm_id":1171043161,"osm_type":"way","_category":"ipp"}},{"type":"Feature","geometry":{"type":"Point","coordinates":[136.938272,36.699747]},"properties":{"name":"","name:ja":"","name:en":"","operator":"","fuel_type":"solar","plant:source":"solar","capacity_mw":null,"voltage":"","_region":"hokuriku","_display_name":"plant_1171048124","_fuel_color":"#ffdd00","osm_id":1171048124,"osm_type":"way","_category":"ipp"}},{"type":"Feature","geometry":{"type":"Point","coordinates":[137.383102,36.570318]},"properties":{"name":"小見発電所","name:ja":"","name:en":"","operator":"北陸電力","fuel_type":"hydro","plant:source":"hydro","capacity_mw":null,"voltage":"","_region":"hokuriku","_display_name":"小見発電所","_fuel_color":"#0088ff","osm_id":1181252731,"osm_type":"way","_category":"utility"}},{"type":"Feature","geometry":{"type":"Point","coordinates":[137.844007,36.507954]},"properties":{"name":"","name:ja":"","name:en":"","operator":"","fuel_type":"solar","plant:source":"solar","capacity_mw":null,"voltage":"","_region":"hokuriku","_display_name":"plant_1185076564","_fuel_color":"#ffdd00","osm_id":1185076564,"osm_type":"way","_category":"ipp"}},{"type":"Feature","geometry":{"type":"Point","coordinates":[137.846557,36.507756]},"properties":{"name":"","name:ja":"","name:en":"","operator":"","fuel_type":"solar","plant:source":"solar","capacity_mw":null,"voltage":"","_region":"hokuriku","_display_name":"plant_1185076565","_fuel_color":"#ffdd00","osm_id":1185076565,"osm_type":"way","_category":"ipp"}},{"type":"Feature","geometry":{"type":"Point","coordinates":[137.84572,36.509191]},"properties":{"name":"","name:ja":"","name:en":"","operator":"","fuel_type":"solar","plant:source":"solar","capacity_mw":null,"voltage":"","_region":"hokuriku","_display_name":"plant_1185076566","_fuel_color":"#ffdd00","osm_id":1185076566,"osm_type":"way","_category":"ipp"}},{"type":"Feature","geometry":{"type":"Point","coordinates":[137.842546,36.510859]},"properties":{"name":"","name:ja":"","name:en":"","operator":"","fuel_type":"solar","plant:source":"solar","capacity_mw":null,"voltage":"","_region":"hokuriku","_display_name":"plant_1185076567","_fuel_color":"#ffdd00","osm_id":1185076567,"osm_type":"way","_category":"ipp"}},{"type":"Feature","geometry":{"type":"Point","coordinates":[137.842053,36.511369]},"properties":{"name":"","name:ja":"","name:en":"","operator":"","fuel_type":"solar","plant:source":"solar","capacity_mw":null,"voltage":"","_region":"hokuriku","_display_name":"plant_1185076568","_fuel_color":"#ffdd00","osm_id":1185076568,"osm_type":"way","_category":"ipp"}},{"type":"Feature","geometry":{"type":"Point","coordinates":[137.844253,36.512291]},"properties":{"name":"","name:ja":"","name:en":"","operator":"","fuel_type":"solar","plant:source":"solar","capacity_mw":null,"voltage":"","_region":"hokuriku","_display_name":"plant_1185076570","_fuel_color":"#ffdd00","osm_id":1185076570,"osm_type":"way","_category":"ipp"}},{"type":"Feature","geometry":{"type":"Point","coordinates":[137.845062,36.512727]},"properties":{"name":"","name:ja":"","name:en":"","operator":"","fuel_type":"solar","plant:source":"solar","capacity_mw":null,"voltage":"","_region":"hokuriku","_display_name":"plant_1185076571","_fuel_color":"#ffdd00","osm_id":1185076571,"osm_type":"way","_category":"ipp"}},{"type":"Feature","geometry":{"type":"Point","coordinates":[137.844537,36.512859]},"properties":{"name":"","name:ja":"","name:en":"","operator":"","fuel_type":"solar","plant:source":"solar","capacity_mw":null,"voltage":"","_region":"hokuriku","_display_name":"plant_1185076572","_fuel_color":"#ffdd00","osm_id":1185076572,"osm_type":"way","_category":"ipp"}},{"type":"Feature","geometry":{"type":"Point","coordinates":[137.841653,36.513445]},"properties":{"name":"","name:ja":"","name:en":"","operator":"","fuel_type":"solar","plant:source":"solar","capacity_mw":null,"voltage":"","_region":"hokuriku","_display_name":"plant_1185076573","_fuel_color":"#ffdd00","osm_id":1185076573,"osm_type":"way","_category":"ipp"}},{"type":"Feature","geometry":{"type":"Point","coordinates":[137.840574,36.513786]},"properties":{"name":"","name:ja":"","name:en":"","operator":"","fuel_type":"solar","plant:source":"solar","capacity_mw":null,"voltage":"","_region":"hokuriku","_display_name":"plant_1185076574","_fuel_color":"#ffdd00","osm_id":1185076574,"osm_type":"way","_category":"ipp"}},{"type":"Feature","geometry":{"type":"Point","coordinates":[137.835534,36.505228]},"properties":{"name":"","name:ja":"","name:en":"","operator":"","fuel_type":"solar","plant:source":"solar","capacity_mw":null,"voltage":"","_region":"hokuriku","_display_name":"plant_1185076575","_fuel_color":"#ffdd00","osm_id":1185076575,"osm_type":"way","_category":"ipp"}},{"type":"Feature","geometry":{"type":"Point","coordinates":[137.835887,36.505734]},"properties":{"name":"","name:ja":"","name:en":"","operator":"","fuel_type":"solar","plant:source":"solar","capacity_mw":null,"voltage":"","_region":"hokuriku","_display_name":"plant_1185076576","_fuel_color":"#ffdd00","osm_id":1185076576,"osm_type":"way","_category":"ipp"}},{"type":"Feature","geometry":{"type":"Point","coordinates":[137.83484,36.51271]},"properties":{"name":"","name:ja":"","name:en":"","operator":"","fuel_type":"solar","plant:source":"solar","capacity_mw":null,"voltage":"","_region":"hokuriku","_display_name":"plant_1185076577","_fuel_color":"#ffdd00","osm_id":1185076577,"osm_type":"way","_category":"ipp"}},{"type":"Feature","geometry":{"type":"Point","coordinates":[137.801613,36.514034]},"properties":{"name":"","name:ja":"","name:en":"","operator":"","fuel_type":"solar","plant:source":"solar","capacity_mw":null,"voltage":"","_region":"hokuriku","_display_name":"plant_1187312065","_fuel_color":"#ffdd00","osm_id":1187312065,"osm_type":"way","_category":"ipp"}},{"type":"Feature","geometry":{"type":"Point","coordinates":[137.799489,36.516238]},"properties":{"name":"","name:ja":"","name:en":"","operator":"","fuel_type":"solar","plant:source":"solar","capacity_mw":null,"voltage":"","_region":"hokuriku","_display_name":"plant_1187312066","_fuel_color":"#ffdd00","osm_id":1187312066,"osm_type":"way","_category":"ipp"}},{"type":"Feature","geometry":{"type":"Point","coordinates":[137.799245,36.515595]},"properties":{"name":"","name:ja":"","name:en":"","operator":"","fuel_type":"solar","plant:source":"solar","capacity_mw":null,"voltage":"","_region":"hokuriku","_display_name":"plant_1187312067","_fuel_color":"#ffdd00","osm_id":1187312067,"osm_type":"way","_category":"ipp"}},{"type":"Feature","geometry":{"type":"Point","coordinates":[137.806425,36.516875]},"properties":{"name":"","name:ja":"","name:en":"","operator":"","fuel_type":"solar","plant:source":"solar","capacity_mw":null,"voltage":"","_region":"hokuriku","_display_name":"plant_1187312068","_fuel_color":"#ffdd00","osm_id":1187312068,"osm_type":"way","_category":"ipp"}},{"type":"Feature","geometry":{"type":"Point","coordinates":[137.810055,36.514487]},"properties":{"name":"","name:ja":"","name:en":"","operator":"","fuel_type":"solar","plant:source":"solar","capacity_mw":null,"voltage":"","_region":"hokuriku","_display_name":"plant_1187312069","_fuel_color":"#ffdd00","osm_id":1187312069,"osm_type":"way","_category":"ipp"}},{"type":"Feature","geometry":{"type":"Point","coordinates":[137.846118,36.534608]},"properties":{"name":"","name:ja":"","name:en":"","operator":"","fuel_type":"solar","plant:source":"solar","capacity_mw":null,"voltage":"","_region":"hokuriku","_display_name":"plant_1188092088","_fuel_color":"#ffdd00","osm_id":1188092088,"osm_type":"way","_category":"ipp"}},{"type":"Feature","geometry":{"type":"Point","coordinates":[137.850049,36.522447]},"properties":{"name":"","name:ja":"","name:en":"","operator":"","fuel_type":"solar","plant:source":"solar","capacity_mw":null,"voltage":"","_region":"hokuriku","_display_name":"plant_1188092089","_fuel_color":"#ffdd00","osm_id":1188092089,"osm_type":"way","_category":"ipp"}},{"type":"Feature","geometry":{"type":"Point","coordinates":[137.84924,36.522249]},"properties":{"name":"","name:ja":"","name:en":"","operator":"","fuel_type":"solar","plant:source":"solar","capacity_mw":null,"voltage":"","_region":"hokuriku","_display_name":"plant_1188092090","_fuel_color":"#ffdd00","osm_id":1188092090,"osm_type":"way","_category":"ipp"}},{"type":"Feature","geometry":{"type":"Point","coordinates":[137.846725,36.520923]},"properties":{"name":"","name:ja":"","name:en":"","operator":"","fuel_type":"solar","plant:source":"solar","capacity_mw":null,"voltage":"","_region":"hokuriku","_display_name":"plant_1188092091","_fuel_color":"#ffdd00","osm_id":1188092091,"osm_type":"way","_category":"ipp"}},{"type":"Feature","geometry":{"type":"Point","coordinates":[137.842114,36.523725]},"properties":{"name":"","name:ja":"","name:en":"","operator":"","fuel_type":"solar","plant:source":"solar","capacity_mw":null,"voltage":"","_region":"hokuriku","_display_name":"plant_1188092092","_fuel_color":"#ffdd00","osm_id":1188092092,"osm_type":"way","_category":"ipp"}},{"type":"Feature","geometry":{"type":"Point","coordinates":[137.842537,36.522349]},"properties":{"name":"","name:ja":"","name:en":"","operator":"","fuel_type":"solar","plant:source":"solar","capacity_mw":null,"voltage":"","_region":"hokuriku","_display_name":"plant_1188092093","_fuel_color":"#ffdd00","osm_id":1188092093,"osm_type":"way","_category":"ipp"}},{"type":"Feature","geometry":{"type":"Point","coordinates":[137.83161,36.528734]},"properties":{"name":"","name:ja":"","name:en":"","operator":"","fuel_type":"solar","plant:source":"solar","capacity_mw":null,"voltage":"","_region":"hokuriku","_display_name":"plant_1188092094","_fuel_color":"#ffdd00","osm_id":1188092094,"osm_type":"way","_category":"ipp"}},{"type":"Feature","geometry":{"type":"Point","coordinates":[137.825903,36.526592]},"properties":{"name":"","name:ja":"","name:en":"","operator":"","fuel_type":"solar","plant:source":"solar","capacity_mw":null,"voltage":"","_region":"hokuriku","_display_name":"plant_1188092095","_fuel_color":"#ffdd00","osm_id":1188092095,"osm_type":"way","_category":"ipp"}},{"type":"Feature","geometry":{"type":"Point","coordinates":[137.823676,36.523502]},"properties":{"name":"","name:ja":"","name:en":"","operator":"","fuel_type":"solar","plant:source":"solar","capacity_mw":null,"voltage":"","_region":"hokuriku","_display_name":"plant_1188092096","_fuel_color":"#ffdd00","osm_id":1188092096,"osm_type":"way","_category":"ipp"}},{"type":"Feature","geometry":{"type":"Point","coordinates":[137.817044,36.522473]},"properties":{"name":"","name:ja":"","name:en":"","operator":"","fuel_type":"solar","plant:source":"solar","capacity_mw":null,"voltage":"","_region":"hokuriku","_display_name":"plant_1188092097","_fuel_color":"#ffdd00","osm_id":1188092097,"osm_type":"way","_category":"ipp"}},{"type":"Feature","geometry":{"type":"Point","coordinates":[137.814835,36.52019]},"properties":{"name":"","name:ja":"","name:en":"","operator":"","fuel_type":"solar","plant:source":"solar","capacity_mw":null,"voltage":"","_region":"hokuriku","_display_name":"plant_1188092098","_fuel_color":"#ffdd00","osm_id":1188092098,"osm_type":"way","_category":"ipp"}},{"type":"Feature","geometry":{"type":"Point","coordinates":[137.813045,36.520166]},"properties":{"name":"","name:ja":"","name:en":"","operator":"","fuel_type":"solar","plant:source":"solar","capacity_mw":null,"voltage":"","_region":"hokuriku","_display_name":"plant_1188092099","_fuel_color":"#ffdd00","osm_id":1188092099,"osm_type":"way","_category":"ipp"}},{"type":"Feature","geometry":{"type":"Point","coordinates":[137.810762,36.522757]},"properties":{"name":"","name:ja":"","name:en":"","operator":"","fuel_type":"solar","plant:source":"solar","capacity_mw":null,"voltage":"","_region":"hokuriku","_display_name":"plant_1188092100","_fuel_color":"#ffdd00","osm_id":1188092100,"osm_type":"way","_category":"ipp"}},{"type":"Feature","geometry":{"type":"Point","coordinates":[137.872978,36.451247]},"properties":{"name":"","name:ja":"","name:en":"","operator":"","fuel_type":"solar","plant:source":"solar","capacity_mw":null,"voltage":"","_region":"hokuriku","_display_name":"plant_1188092101","_fuel_color":"#ffdd00","osm_id":1188092101,"osm_type":"way","_category":"ipp"}},{"type":"Feature","geometry":{"type":"Point","coordinates":[137.87144,36.452085]},"properties":{"name":"","name:ja":"","name:en":"","operator":"","fuel_type":"solar","plant:source":"solar","capacity_mw":null,"voltage":"","_region":"hokuriku","_display_name":"plant_1188092102","_fuel_color":"#ffdd00","osm_id":1188092102,"osm_type":"way","_category":"ipp"}},{"type":"Feature","geometry":{"type":"Point","coordinates":[137.872164,36.460092]},"properties":{"name":"町川発電所","name:ja":"","name:en":"","operator":"大町市","fuel_type":"solar","plant:source":"solar","capacity_mw":-1.0,"voltage":"","_region":"hokuriku","_display_name":"町川発電所","_fuel_color":"#ffdd00","osm_id":1188092103,"osm_type":"way","_category":"ipp","_enriched_by":"p03","_p03_distance_km":0.893}},{"type":"Feature","geometry":{"type":"Point","coordinates":[137.870817,36.463718]},"properties":{"name":"町川発電所","name:ja":"","name:en":"","operator":"大町市","fuel_type":"solar","plant:source":"solar","capacity_mw":-1.0,"voltage":"","_region":"hokuriku","_display_name":"町川発電所","_fuel_color":"#ffdd00","osm_id":1188092104,"osm_type":"way","_category":"ipp","_enriched_by":"p03","_p03_distance_km":0.476}},{"type":"Feature","geometry":{"type":"Point","coordinates":[137.869153,36.465145]},"properties":{"name":"町川発電所","name:ja":"","name:en":"","operator":"大町市","fuel_type":"solar","plant:source":"solar","capacity_mw":-1.0,"voltage":"","_region":"hokuriku","_display_name":"町川発電所","_fuel_color":"#ffdd00","osm_id":1188092105,"osm_type":"way","_category":"ipp","_enriched_by":"p03","_p03_distance_km":0.272}},{"type":"Feature","geometry":{"type":"Point","coordinates":[137.868876,36.465902]},"properties":{"name":"町川発電所","name:ja":"","name:en":"","operator":"大町市","fuel_type":"solar","plant:source":"solar","capacity_mw":-1.0,"voltage":"","_region":"hokuriku","_display_name":"町川発電所","_fuel_color":"#ffdd00","osm_id":1188092106,"osm_type":"way","_category":"ipp","_enriched_by":"p03","_p03_distance_km":0.184}},{"type":"Feature","geometry":{"type":"Point","coordinates":[137.869216,36.466563]},"properties":{"name":"町川発電所","name:ja":"","name:en":"","operator":"大町市","fuel_type":"solar","plant:source":"solar","capacity_mw":-1.0,"voltage":"","_region":"hokuriku","_display_name":"町川発電所","_fuel_color":"#ffdd00","osm_id":1188092107,"osm_type":"way","_category":"ipp","_enriched_by":"p03","_p03_distance_km":0.132}},{"type":"Feature","geometry":{"type":"Point","coordinates":[137.866297,36.492603]},"properties":{"name":"","name:ja":"","name:en":"","operator":"","fuel_type":"solar","plant:source":"solar","capacity_mw":null,"voltage":"","_region":"hokuriku","_display_name":"plant_1188092108","_fuel_color":"#ffdd00","osm_id":1188092108,"osm_type":"way","_category":"ipp"}},{"type":"Feature","geometry":{"type":"Point","coordinates":[137.86419,36.493256]},"properties":{"name":"","name:ja":"","name:en":"","operator":"","fuel_type":"solar","plant:source":"solar","capacity_mw":null,"voltage":"","_region":"hokuriku","_display_name":"plant_1188092109","_fuel_color":"#ffdd00","osm_id":1188092109,"osm_type":"way","_category":"ipp"}},{"type":"Feature","geometry":{"type":"Point","coordinates":[137.866395,36.493234]},"properties":{"name":"","name:ja":"","name:en":"","operator":"","fuel_type":"solar","plant:source":"solar","capacity_mw":null,"voltage":"","_region":"hokuriku","_display_name":"plant_1188092110","_fuel_color":"#ffdd00","osm_id":1188092110,"osm_type":"way","_category":"ipp"}},{"type":"Feature","geometry":{"type":"Point","coordinates":[137.86569,36.493675]},"properties":{"name":"","name:ja":"","name:en":"","operator":"","fuel_type":"solar","plant:source":"solar","capacity_mw":null,"voltage":"","_region":"hokuriku","_display_name":"plant_1188092111","_fuel_color":"#ffdd00","osm_id":1188092111,"osm_type":"way","_category":"ipp"}},{"type":"Feature","geometry":{"type":"Point","coordinates":[137.866002,36.494906]},"properties":{"name":"","name:ja":"","name:en":"","operator":"","fuel_type":"solar","plant:source":"solar","capacity_mw":null,"voltage":"","_region":"hokuriku","_display_name":"plant_1188092112","_fuel_color":"#ffdd00","osm_id":1188092112,"osm_type":"way","_category":"ipp"}},{"type":"Feature","geometry":{"type":"Point","coordinates":[137.866242,36.495659]},"properties":{"name":"","name:ja":"","name:en":"","operator":"","fuel_type":"solar","plant:source":"solar","capacity_mw":null,"voltage":"","_region":"hokuriku","_display_name":"plant_1188092113","_fuel_color":"#ffdd00","osm_id":1188092113,"osm_type":"way","_category":"ipp"}},{"type":"Feature","geometry":{"type":"Point","coordinates":[137.870532,36.494874]},"properties":{"name":"","name:ja":"","name:en":"","operator":"","fuel_type":"solar","plant:source":"solar","capacity_mw":null,"voltage":"","_region":"hokuriku","_display_name":"plant_1188092114","_fuel_color":"#ffdd00","osm_id":1188092114,"osm_type":"way","_category":"ipp"}},{"type":"Feature","geometry":{"type":"Point","coordinates":[137.868799,36.497139]},"properties":{"name":"","name:ja":"","name:en":"","operator":"","fuel_type":"solar","plant:source":"solar","capacity_mw":null,"voltage":"","_region":"hokuriku","_display_name":"plant_1188092115","_fuel_color":"#ffdd00","osm_id":1188092115,"osm_type":"way","_category":"ipp"}},{"type":"Feature","geometry":{"type":"Point","coordinates":[137.86381,36.499106]},"properties":{"name":"","name:ja":"","name:en":"","operator":"","fuel_type":"solar","plant:source":"solar","capacity_mw":null,"voltage":"","_region":"hokuriku","_display_name":"plant_1188092117","_fuel_color":"#ffdd00","osm_id":1188092117,"osm_type":"way","_category":"ipp"}},{"type":"Feature","geometry":{"type":"Point","coordinates":[137.858857,36.494854]},"properties":{"name":"","name:ja":"","name:en":"","operator":"","fuel_type":"solar","plant:source":"solar","capacity_mw":null,"voltage":"","_region":"hokuriku","_display_name":"plant_1188092118","_fuel_color":"#ffdd00","osm_id":1188092118,"osm_type":"way","_category":"ipp"}},{"type":"Feature","geometry":{"type":"Point","coordinates":[137.847466,36.496937]},"properties":{"name":"","name:ja":"","name:en":"","operator":"","fuel_type":"solar","plant:source":"solar","capacity_mw":null,"voltage":"","_region":"hokuriku","_display_name":"plant_1188092119","_fuel_color":"#ffdd00","osm_id":1188092119,"osm_type":"way","_category":"ipp"}},{"type":"Feature","geometry":{"type":"Point","coordinates":[137.846844,36.499842]},"properties":{"name":"","name:ja":"","name:en":"","operator":"","fuel_type":"solar","plant:source":"solar","capacity_mw":null,"voltage":"","_region":"hokuriku","_display_name":"plant_1188092120","_fuel_color":"#ffdd00","osm_id":1188092120,"osm_type":"way","_category":"ipp"}},{"type":"Feature","geometry":{"type":"Point","coordinates":[137.844868,36.501568]},"properties":{"name":"","name:ja":"","name:en":"","operator":"","fuel_type":"solar","plant:source":"solar","capacity_mw":null,"voltage":"","_region":"hokuriku","_display_name":"plant_1188092121","_fuel_color":"#ffdd00","osm_id":1188092121,"osm_type":"way","_category":"ipp"}},{"type":"Feature","geometry":{"type":"Point","coordinates":[137.859365,36.497565]},"properties":{"name":"","name:ja":"","name:en":"","operator":"","fuel_type":"solar","plant:source":"solar","capacity_mw":null,"voltage":"","_region":"hokuriku","_display_name":"plant_1188092122","_fuel_color":"#ffdd00","osm_id":1188092122,"osm_type":"way","_category":"ipp"}},{"type":"Feature","geometry":{"type":"Point","coordinates":[137.869255,36.50184]},"properties":{"name":"","name:ja":"","name:en":"","operator":"","fuel_type":"solar","plant:source":"solar","capacity_mw":null,"voltage":"","_region":"hokuriku","_display_name":"plant_1188092125","_fuel_color":"#ffdd00","osm_id":1188092125,"osm_type":"way","_category":"ipp"}},{"type":"Feature","geometry":{"type":"Point","coordinates":[137.866827,36.500657]},"properties":{"name":"","name:ja":"","name:en":"","operator":"","fuel_type":"solar","plant:source":"solar","capacity_mw":null,"voltage":"","_region":"hokuriku","_display_name":"plant_1188092126","_fuel_color":"#ffdd00","osm_id":1188092126,"osm_type":"way","_category":"ipp"}},{"type":"Feature","geometry":{"type":"Point","coordinates":[137.86723,36.503689]},"properties":{"name":"","name:ja":"","name:en":"","operator":"","fuel_type":"solar","plant:source":"solar","capacity_mw":null,"voltage":"","_region":"hokuriku","_display_name":"plant_1188092127","_fuel_color":"#ffdd00","osm_id":1188092127,"osm_type":"way","_category":"ipp"}},{"type":"Feature","geometry":{"type":"Point","coordinates":[137.867313,36.504497]},"properties":{"name":"","name:ja":"","name:en":"","operator":"","fuel_type":"solar","plant:source":"solar","capacity_mw":null,"voltage":"","_region":"hokuriku","_display_name":"plant_1188092128","_fuel_color":"#ffdd00","osm_id":1188092128,"osm_type":"way","_category":"ipp"}},{"type":"Feature","geometry":{"type":"Point","coordinates":[137.866397,36.50771]},"properties":{"name":"","name:ja":"","name:en":"","operator":"","fuel_type":"solar","plant:source":"solar","capacity_mw":null,"voltage":"","_region":"hokuriku","_display_name":"plant_1188092129","_fuel_color":"#ffdd00","osm_id":1188092129,"osm_type":"way","_category":"ipp"}},{"type":"Feature","geometry":{"type":"Point","coordinates":[137.862296,36.509048]},"properties":{"name":"","name:ja":"","name:en":"","operator":"","fuel_type":"solar","plant:source":"solar","capacity_mw":null,"voltage":"","_region":"hokuriku","_display_name":"plant_1188092130","_fuel_color":"#ffdd00","osm_id":1188092130,"osm_type":"way","_category":"ipp"}},{"type":"Feature","geometry":{"type":"Point","coordinates":[137.860026,36.513706]},"properties":{"name":"","name:ja":"","name:en":"","operator":"","fuel_type":"solar","plant:source":"solar","capacity_mw":null,"voltage":"","_region":"hokuriku","_display_name":"plant_1188092131","_fuel_color":"#ffdd00","osm_id":1188092131,"osm_type":"way","_category":"ipp"}},{"type":"Feature","geometry":{"type":"Point","coordinates":[137.85833,36.514289]},"properties":{"name":"","name:ja":"","name:en":"","operator":"","fuel_type":"solar","plant:source":"solar","capacity_mw":null,"voltage":"","_region":"hokuriku","_display_name":"plant_1188092132","_fuel_color":"#ffdd00","osm_id":1188092132,"osm_type":"way","_category":"ipp"}},{"type":"Feature","geometry":{"type":"Point","coordinates":[137.85486,36.512515]},"properties":{"name":"","name:ja":"","name:en":"","operator":"","fuel_type":"solar","plant:source":"solar","capacity_mw":null,"voltage":"","_region":"hokuriku","_display_name":"plant_1188092133","_fuel_color":"#ffdd00","osm_id":1188092133,"osm_type":"way","_category":"ipp"}},{"type":"Feature","geometry":{"type":"Point","coordinates":[137.855094,36.513055]},"properties":{"name":"","name:ja":"","name:en":"","operator":"","fuel_type":"solar","plant:source":"solar","capacity_mw":null,"voltage":"","_region":"hokuriku","_display_name":"plant_1188092134","_fuel_color":"#ffdd00","osm_id":1188092134,"osm_type":"way","_category":"ipp"}},{"type":"Feature","geometry":{"type":"Point","coordinates":[137.854277,36.513711]},"properties":{"name":"","name:ja":"","name:en":"","operator":"","fuel_type":"solar","plant:source":"solar","capacity_mw":null,"voltage":"","_region":"hokuriku","_display_name":"plant_1188092135","_fuel_color":"#ffdd00","osm_id":1188092135,"osm_type":"way","_category":"ipp"}},{"type":"Feature","geometry":{"type":"Point","coordinates":[137.855157,36.514349]},"properties":{"name":"","name:ja":"","name:en":"","operator":"","fuel_type":"solar","plant:source":"solar","capacity_mw":null,"voltage":"","_region":"hokuriku","_display_name":"plant_1188092136","_fuel_color":"#ffdd00","osm_id":1188092136,"osm_type":"way","_category":"ipp"}},{"type":"Feature","geometry":{"type":"Point","coordinates":[137.850787,36.516506]},"properties":{"name":"","name:ja":"","name:en":"","operator":"","fuel_type":"solar","plant:source":"solar","capacity_mw":null,"voltage":"","_region":"hokuriku","_display_name":"plant_1188092137","_fuel_color":"#ffdd00","osm_id":1188092137,"osm_type":"way","_category":"ipp"}},{"type":"Feature","geometry":{"type":"Point","coordinates":[137.850121,36.516644]},"properties":{"name":"","name:ja":"","name:en":"","operator":"","fuel_type":"solar","plant:source":"solar","capacity_mw":null,"voltage":"","_region":"hokuriku","_display_name":"plant_1188092138","_fuel_color":"#ffdd00","osm_id":1188092138,"osm_type":"way","_category":"ipp"}},{"type":"Feature","geometry":{"type":"Point","coordinates":[137.848382,36.517874]},"properties":{"name":"","name:ja":"","name:en":"","operator":"","fuel_type":"solar","plant:source":"solar","capacity_mw":null,"voltage":"","_region":"hokuriku","_display_name":"plant_1188092139","_fuel_color":"#ffdd00","osm_id":1188092139,"osm_type":"way","_category":"ipp"}},{"type":"Feature","geometry":{"type":"Point","coordinates":[137.84294,36.517322]},"properties":{"name":"","name:ja":"","name:en":"","operator":"","fuel_type":"solar","plant:source":"solar","capacity_mw":null,"voltage":"","_region":"hokuriku","_display_name":"plant_1188092140","_fuel_color":"#ffdd00","osm_id":1188092140,"osm_type":"way","_category":"ipp"}},{"type":"Feature","geometry":{"type":"Point","coordinates":[137.843937,36.517593]},"properties":{"name":"","name:ja":"","name:en":"","operator":"","fuel_type":"solar","plant:source":"solar","capacity_mw":null,"voltage":"","_region":"hokuriku","_display_name":"plant_1188092141","_fuel_color":"#ffdd00","osm_id":1188092141,"osm_type":"way","_category":"ipp"}},{"type":"Feature","geometry":{"type":"Point","coordinates":[137.84024,36.514824]},"properties":{"name":"","name:ja":"","name:en":"","operator":"","fuel_type":"solar","plant:source":"solar","capacity_mw":null,"voltage":"","_region":"hokuriku","_display_name":"plant_1188092142","_fuel_color":"#ffdd00","osm_id":1188092142,"osm_type":"way","_category":"ipp"}},{"type":"Feature","geometry":{"type":"Point","coordinates":[137.840721,36.51569]},"properties":{"name":"","name:ja":"","name:en":"","operator":"","fuel_type":"solar","plant:source":"solar","capacity_mw":null,"voltage":"","_region":"hokuriku","_display_name":"plant_1188092143","_fuel_color":"#ffdd00","osm_id":1188092143,"osm_type":"way","_category":"ipp"}},{"type":"Feature","geometry":{"type":"Point","coordinates":[137.840102,36.51765]},"properties":{"name":"","name:ja":"","name:en":"","operator":"","fuel_type":"solar","plant:source":"solar","capacity_mw":null,"voltage":"","_region":"hokuriku","_display_name":"plant_1188092144","_fuel_color":"#ffdd00","osm_id":1188092144,"osm_type":"way","_category":"ipp"}},{"type":"Feature","geometry":{"type":"Point","coordinates":[137.820593,36.525659]},"properties":{"name":"","name:ja":"","name:en":"","operator":"","fuel_type":"solar","plant:source":"solar","capacity_mw":null,"voltage":"","_region":"hokuriku","_display_name":"plant_1188092145","_fuel_color":"#ffdd00","osm_id":1188092145,"osm_type":"way","_category":"ipp"}},{"type":"Feature","geometry":{"type":"Point","coordinates":[137.814293,36.528646]},"properties":{"name":"","name:ja":"","name:en":"","operator":"","fuel_type":"solar","plant:source":"solar","capacity_mw":null,"voltage":"","_region":"hokuriku","_display_name":"plant_1188092146","_fuel_color":"#ffdd00","osm_id":1188092146,"osm_type":"way","_category":"ipp"}},{"type":"Feature","geometry":{"type":"Point","coordinates":[137.862897,36.529186]},"properties":{"name":"","name:ja":"","name:en":"","operator":"","fuel_type":"solar","plant:source":"solar","capacity_mw":null,"voltage":"","_region":"hokuriku","_display_name":"plant_1188092147","_fuel_color":"#ffdd00","osm_id":1188092147,"osm_type":"way","_category":"ipp"}},{"type":"Feature","geometry":{"type":"Point","coordinates":[137.86304,36.527294]},"properties":{"name":"","name:ja":"","name:en":"","operator":"","fuel_type":"solar","plant:source":"solar","capacity_mw":null,"voltage":"","_region":"hokuriku","_display_name":"plant_1188092148","_fuel_color":"#ffdd00","osm_id":1188092148,"osm_type":"way","_category":"ipp"}},{"type":"Feature","geometry":{"type":"Point","coordinates":[137.890766,36.555737]},"properties":{"name":"","name:ja":"","name:en":"","operator":"","fuel_type":"solar","plant:source":"solar","capacity_mw":null,"voltage":"","_region":"hokuriku","_display_name":"plant_1188092149","_fuel_color":"#ffdd00","osm_id":1188092149,"osm_type":"way","_category":"ipp"}},{"type":"Feature","geometry":{"type":"Point","coordinates":[137.895464,36.479315]},"properties":{"name":"","name:ja":"","name:en":"","operator":"","fuel_type":"solar","plant:source":"solar","capacity_mw":null,"voltage":"","_region":"hokuriku","_display_name":"plant_1188092151","_fuel_color":"#ffdd00","osm_id":1188092151,"osm_type":"way","_category":"ipp"}},{"type":"Feature","geometry":{"type":"Point","coordinates":[137.897872,36.48176]},"properties":{"name":"","name:ja":"","name:en":"","operator":"","fuel_type":"solar","plant:source":"solar","capacity_mw":null,"voltage":"","_region":"hokuriku","_display_name":"plant_1188092152","_fuel_color":"#ffdd00","osm_id":1188092152,"osm_type":"way","_category":"ipp"}},{"type":"Feature","geometry":{"type":"Point","coordinates":[137.89742,36.482156]},"properties":{"name":"","name:ja":"","name:en":"","operator":"","fuel_type":"solar","plant:source":"solar","capacity_mw":null,"voltage":"","_region":"hokuriku","_display_name":"plant_1188092153","_fuel_color":"#ffdd00","osm_id":1188092153,"osm_type":"way","_category":"ipp"}},{"type":"Feature","geometry":{"type":"Point","coordinates":[137.896059,36.484124]},"properties":{"name":"","name:ja":"","name:en":"","operator":"","fuel_type":"solar","plant:source":"solar","capacity_mw":null,"voltage":"","_region":"hokuriku","_display_name":"plant_1188092154","_fuel_color":"#ffdd00","osm_id":1188092154,"osm_type":"way","_category":"ipp"}},{"type":"Feature","geometry":{"type":"Point","coordinates":[137.883757,36.38989]},"properties":{"name":"","name:ja":"","name:en":"","operator":"","fuel_type":"solar","plant:source":"solar","capacity_mw":null,"voltage":"","_region":"hokuriku","_display_name":"plant_1188092155","_fuel_color":"#ffdd00","osm_id":1188092155,"osm_type":"way","_category":"ipp"}},{"type":"Feature","geometry":{"type":"Point","coordinates":[137.881335,36.383009]},"properties":{"name":"","name:ja":"","name:en":"","operator":"","fuel_type":"solar","plant:source":"solar","capacity_mw":null,"voltage":"","_region":"hokuriku","_display_name":"plant_1188092156","_fuel_color":"#ffdd00","osm_id":1188092156,"osm_type":"way","_category":"ipp"}},{"type":"Feature","geometry":{"type":"Point","coordinates":[137.885502,36.363984]},"properties":{"name":"","name:ja":"","name:en":"","operator":"","fuel_type":"solar","plant:source":"solar","capacity_mw":null,"voltage":"","_region":"hokuriku","_display_name":"plant_1188092157","_fuel_color":"#ffdd00","osm_id":1188092157,"osm_type":"way","_category":"ipp"}},{"type":"Feature","geometry":{"type":"Point","coordinates":[137.89033,36.359077]},"properties":{"name":"","name:ja":"","name:en":"","operator":"","fuel_type":"solar","plant:source":"solar","capacity_mw":null,"voltage":"","_region":"hokuriku","_display_name":"plant_1188092158","_fuel_color":"#ffdd00","osm_id":1188092158,"osm_type":"way","_category":"ipp"}},{"type":"Feature","geometry":{"type":"Point","coordinates":[137.869214,36.383439]},"properties":{"name":"","name:ja":"","name:en":"","operator":"","fuel_type":"solar","plant:source":"solar","capacity_mw":null,"voltage":"","_region":"hokuriku","_display_name":"plant_1188092159","_fuel_color":"#ffdd00","osm_id":1188092159,"osm_type":"way","_category":"ipp"}},{"type":"Feature","geometry":{"type":"Point","coordinates":[137.865405,36.384447]},"properties":{"name":"","name:ja":"","name:en":"","operator":"","fuel_type":"solar","plant:source":"solar","capacity_mw":null,"voltage":"","_region":"hokuriku","_display_name":"plant_1188092160","_fuel_color":"#ffdd00","osm_id":1188092160,"osm_type":"way","_category":"ipp"}},{"type":"Feature","geometry":{"type":"Point","coordinates":[137.859423,36.384523]},"properties":{"name":"","name:ja":"","name:en":"","operator":"","fuel_type":"solar","plant:source":"solar","capacity_mw":null,"voltage":"","_region":"hokuriku","_display_name":"plant_1188092161","_fuel_color":"#ffdd00","osm_id":1188092161,"osm_type":"way","_category":"ipp"}},{"type":"Feature","geometry":{"type":"Point","coordinates":[137.858162,36.384097]},"properties":{"name":"","name:ja":"","name:en":"","operator":"","fuel_type":"solar","plant:source":"solar","capacity_mw":null,"voltage":"","_region":"hokuriku","_display_name":"plant_1188092162","_fuel_color":"#ffdd00","osm_id":1188092162,"osm_type":"way","_category":"ipp"}},{"type":"Feature","geometry":{"type":"Point","coordinates":[137.859379,36.38794]},"properties":{"name":"","name:ja":"","name:en":"","operator":"","fuel_type":"solar","plant:source":"solar","capacity_mw":null,"voltage":"","_region":"hokuriku","_display_name":"plant_1188092163","_fuel_color":"#ffdd00","osm_id":1188092163,"osm_type":"way","_category":"ipp"}},{"type":"Feature","geometry":{"type":"Point","coordinates":[137.858868,36.938009]},"properties":{"name":"新姫川第六発電所","name:ja":"","name:en":"","operator":"","fuel_type":"hydro","plant:source":"hydro","capacity_mw":null,"voltage":"","_region":"hokuriku","_display_name":"新姫川第六発電所","_fuel_color":"#0088ff","osm_id":1202203983,"osm_type":"way","_category":"ipp"}},{"type":"Feature","geometry":{"type":"Point","coordinates":[136.980928,36.709675]},"properties":{"name":"","name:ja":"","name:en":"","operator":"","fuel_type":"solar","plant:source":"solar","capacity_mw":null,"voltage":"","_region":"hokuriku","_display_name":"plant_1208693944","_fuel_color":"#ffdd00","osm_id":1208693944,"osm_type":"way","_category":"ipp"}},{"type":"Feature","geometry":{"type":"Point","coordinates":[136.931079,36.698645]},"properties":{"name":"","name:ja":"","name:en":"","operator":"","fuel_type":"solar","plant:source":"solar","capacity_mw":null,"voltage":"","_region":"hokuriku","_display_name":"plant_1209106987","_fuel_color":"#ffdd00","osm_id":1209106987,"osm_type":"way","_category":"ipp"}},{"type":"Feature","geometry":{"type":"Point","coordinates":[136.967136,36.76623]},"properties":{"name":"","name:ja":"","name:en":"","operator":"","fuel_type":"solar","plant:source":"solar","capacity_mw":null,"voltage":"","_region":"hokuriku","_display_name":"plant_1209255360","_fuel_color":"#ffdd00","osm_id":1209255360,"osm_type":"way","_category":"ipp"}},{"type":"Feature","geometry":{"type":"Point","coordinates":[136.961055,36.761769]},"properties":{"name":"","name:ja":"","name:en":"","operator":"","fuel_type":"solar","plant:source":"solar","capacity_mw":null,"voltage":"","_region":"hokuriku","_display_name":"plant_1209255363","_fuel_color":"#ffdd00","osm_id":1209255363,"osm_type":"way","_category":"ipp"}},{"type":"Feature","geometry":{"type":"Point","coordinates":[136.976322,36.76099]},"properties":{"name":"","name:ja":"","name:en":"","operator":"","fuel_type":"solar","plant:source":"solar","capacity_mw":null,"voltage":"","_region":"hokuriku","_display_name":"plant_1209255879","_fuel_color":"#ffdd00","osm_id":1209255879,"osm_type":"way","_category":"ipp"}},{"type":"Feature","geometry":{"type":"Point","coordinates":[136.927526,36.667868]},"properties":{"name":"","name:ja":"","name:en":"","operator":"","fuel_type":"solar","plant:source":"solar","capacity_mw":null,"voltage":"","_region":"hokuriku","_display_name":"plant_1210169588","_fuel_color":"#ffdd00","osm_id":1210169588,"osm_type":"way","_category":"ipp"}},{"type":"Feature","geometry":{"type":"Point","coordinates":[136.942563,36.651313]},"properties":{"name":"","name:ja":"","name:en":"","operator":"","fuel_type":"solar","plant:source":"solar","capacity_mw":null,"voltage":"","_region":"hokuriku","_display_name":"plant_1210169590","_fuel_color":"#ffdd00","osm_id":1210169590,"osm_type":"way","_category":"ipp"}},{"type":"Feature","geometry":{"type":"Point","coordinates":[136.928152,36.719804]},"properties":{"name":"国土交通省福岡防災センター","name:ja":"","name:en":"","operator":"国土交通省福岡防災センター","fuel_type":"solar","plant:source":"solar","capacity_mw":-1.0,"voltage":"","_region":"hokuriku","_display_name":"国土交通省福岡防災センター","_fuel_color":"#ffdd00","osm_id":1210174482,"osm_type":"way","_category":"ipp","_enriched_by":"p03","_p03_distance_km":0.964}},{"type":"Feature","geometry":{"type":"Point","coordinates":[136.97145,36.700775]},