{"type":"FeatureCollection","features":[{"type":"Feature","properties":{"_region":"hokkaido","_region_ja":"北海道","_display_name":"紋別バイオマス発電所","fuel_type":"biomass","capacity_mw":50.0,"_fuel_color":"#668833","_category":"ipp"},"geometry":{"type":"Point","coordinates":[143.367447,44.335859]}},{"type":"Feature","properties":{"_region":"hokkaido","_region_ja":"北海道","_display_name":"白糠太陽光発電所","fuel_type":"solar","capacity_mw":30.0,"_fuel_color":"#ffdd00","_category":"ipp"},"geometry":{"type":"Point","coordinates":[144.18456,42.993523]}},{"type":"Feature","properties":{"_region":"hokkaido","_region_ja":"北海道","_display_name":"三井不動産 苫小牧太陽光発電所","fuel_type":"solar","capacity_mw":23.0,"_fuel_color":"#ffdd00","_category":"ipp"},"geometry":{"type":"Point","coordinates":[141.674412,42.655442]}},{"type":"Feature","properties":{"_region":"hokkaido","_region_ja":"北海道","_display_name":"ソーラーパワー苫小牧 勇払太陽光発電所","fuel_type":"solar","capacity_mw":13.0,"_fuel_color":"#ffdd00","_category":"ipp"},"geometry":{"type":"Point","coordinates":[141.695094,42.635783]}},{"type":"Feature","properties":{"_region":"hokkaido","_region_ja":"北海道","_display_name":"オリックス白老町メガソーラー発電所","fuel_type":"solar","capacity_mw":18.9,"_fuel_color":"#ffdd00","_category":"ipp"},"geometry":{"type":"Point","coordinates":[141.335333,42.562845]}},{"type":"Feature","properties":{"_region":"hokkaido","_region_ja":"北海道","_display_name":"plant_469924216","fuel_type":"bing","capacity_mw":null,"_fuel_color":"#999999","_category":"ipp"},"geometry":{"type":"Point","coordinates":[143.409028,44.005503]}},{"type":"Feature","properties":{"_region":"hokkaido","_region_ja":"北海道","_display_name":"plant_575470792","fuel_type":"unknown","capacity_mw":null,"_fuel_color":"#999999","_category":"ipp"},"geometry":{"type":"Point","coordinates":[142.174993,43.533955]}},{"type":"Feature","properties":{"_region":"hokkaido","_region_ja":"北海道","_display_name":"Ветродизельная электростанция в с. Головнино","fuel_type":"wind","capacity_mw":null,"_fuel_color":"#00cc88","_category":"ipp"},"geometry":{"type":"Point","coordinates":[145.512547,43.747889]}},{"type":"Feature","properties":{"_region":"hokkaido","_region_ja":"北海道","_display_name":"下津別発電所","fuel_type":"hydro","capacity_mw":-1.0,"_fuel_color":"#0088ff","_category":"ipp"},"geometry":{"type":"Point","coordinates":[144.044459,43.693566]}},{"type":"Feature","properties":{"_region":"hokkaido","_region_ja":"北海道","_display_name":"津別発電所","fuel_type":"hydro","capacity_mw":0.28,"_fuel_color":"#0088ff","_category":"ipp"},"geometry":{"type":"Point","coordinates":[144.071177,43.665264]}},{"type":"Feature","properties":{"_region":"hokkaido","_region_ja":"北海道","_display_name":"志比内発電所","fuel_type":"hydro","capacity_mw":null,"_fuel_color":"#0088ff","_category":"ipp"},"geometry":{"type":"Point","coordinates":[142.548368,43.665983]}},{"type":"Feature","properties":{"_region":"hokkaido","_region_ja":"北海道","_display_name":"忠別川発電所","fuel_type":"hydro","capacity_mw":null,"_fuel_color":"#0088ff","_category":"ipp"},"geometry":{"type":"Point","coordinates":[142.580365,43.652103]}},{"type":"Feature","properties":{"_region":"hokkaido","_region_ja":"北海道","_display_name":"新忠別発電所","fuel_type":"hydro","capacity_mw":null,"_fuel_color":"#0088ff","_category":"ipp"},"geometry":{"type":"Point","coordinates":[142.62546,43.62671]}},{"type":"Feature","properties":{"_region":"hokkaido","_region_ja":"北海道","_display_name":"江卸発電所","fuel_type":"hydro","capacity_mw":null,"_fuel_color":"#0088ff","_category":"ipp"},"geometry":{"type":"Point","coordinates":[142.664363,43.631569]}},{"type":"Feature","properties":{"_region":"hokkaido","_region_ja":"北海道","_display_name":"岩松発電所","fuel_type":"hydro","capacity_mw":16.0,"_fuel_color":"#0088ff","_category":"ipp"},"geometry":{"type":"Point","coordinates":[142.924524,43.182171]}},{"type":"Feature","properties":{"_region":"hokkaido","_region_ja":"北海道","_display_name":"然別第二発電所","fuel_type":"hydro","capacity_mw":7.4,"_fuel_color":"#0088ff","_category":"ipp"},"geometry":{"type":"Point","coordinates":[142.963053,43.242787]}},{"type":"Feature","properties":{"_region":"hokkaido","_region_ja":"北海道","_display_name":"然別第一発電所","fuel_type":"hydro","capacity_mw":13.5,"_fuel_color":"#0088ff","_category":"ipp"},"geometry":{"type":"Point","coordinates":[143.04302,43.263544]}},{"type":"Feature","properties":{"_region":"hokkaido","_region_ja":"北海道","_display_name":"富村変電所","fuel_type":"hydro","capacity_mw":41.3,"_fuel_color":"#0088ff","_category":"ipp"},"geometry":{"type":"Point","coordinates":[142.925187,43.361659]}},{"type":"Feature","properties":{"_region":"hokkaido","_region_ja":"北海道","_display_name":"plant_625047942","fuel_type":"unknown","capacity_mw":null,"_fuel_color":"#999999","_category":"ipp"},"geometry":{"type":"Point","coordinates":[143.034837,43.678478]}},{"type":"Feature","properties":{"_region":"hokkaido","_region_ja":"北海道","_display_name":"層雲峡発電所","fuel_type":"hydro","capacity_mw":null,"_fuel_color":"#0088ff","_category":"ipp"},"geometry":{"type":"Point","coordinates":[142.932192,43.750806]}},{"type":"Feature","properties":{"_region":"hokkaido","_region_ja":"北海道","_display_name":"真勲別発電所","fuel_type":"hydro","capacity_mw":null,"_fuel_color":"#0088ff","_category":"ipp"},"geometry":{"type":"Point","coordinates":[142.872136,43.809563]}},{"type":"Feature","properties":{"_region":"hokkaido","_region_ja":"北海道","_display_name":"上川発電所","fuel_type":"hydro","capacity_mw":null,"_fuel_color":"#0088ff","_category":"ipp"},"geometry":{"type":"Point","coordinates":[142.792264,43.841767]}},{"type":"Feature","properties":{"_region":"hokkaido","_region_ja":"北海道","_display_name":"plant_625051879","fuel_type":"hydro","capacity_mw":null,"_fuel_color":"#0088ff","_category":"ipp"},"geometry":{"type":"Point","coordinates":[142.708999,43.840243]}},{"type":"Feature","properties":{"_region":"hokkaido","_region_ja":"北海道","_display_name":"安足間発電所","fuel_type":"hydro","capacity_mw":null,"_fuel_color":"#0088ff","_category":"ipp"},"geometry":{"type":"Point","coordinates":[142.709137,43.839657]}},{"type":"Feature","properties":{"_region":"hokkaido","_region_ja":"北海道","_display_name":"plant_625052918","fuel_type":"hydro","capacity_mw":null,"_fuel_color":"#0088ff","_category":"ipp"},"geometry":{"type":"Point","coordinates":[142.659013,43.884106]}},{"type":"Feature","properties":{"_region":"hokkaido","_region_ja":"北海道","_display_name":"plant_625054529","fuel_type":"hydro","capacity_mw":25.0,"_fuel_color":"#0088ff","_category":"ipp"},"geometry":{"type":"Point","coordinates":[142.440884,43.13134]}},{"type":"Feature","properties":{"_region":"hokkaido","_region_ja":"北海道","_display_name":"plant_625057382","fuel_type":"unknown","capacity_mw":null,"_fuel_color":"#999999","_category":"ipp"},"geometry":{"type":"Point","coordinates":[141.170528,42.96915]}},{"type":"Feature","properties":{"_region":"hokkaido","_region_ja":"北海道","_display_name":"plant_625057384","fuel_type":"unknown","capacity_mw":null,"_fuel_color":"#999999","_category":"ipp"},"geometry":{"type":"Point","coordinates":[141.195155,42.967764]}},{"type":"Feature","properties":{"_region":"hokkaido","_region_ja":"北海道","_display_name":"plant_625060010","fuel_type":"hydro","capacity_mw":25.6,"_fuel_color":"#0088ff","_category":"ipp"},"geometry":{"type":"Point","coordinates":[142.467397,42.893175]}},{"type":"Feature","properties":{"_region":"hokkaido","_region_ja":"北海道","_display_name":"相沼内発電所","fuel_type":"hydro","capacity_mw":2.0,"_fuel_color":"#0088ff","_category":"ipp"},"geometry":{"type":"Point","coordinates":[140.126347,42.090698]}},{"type":"Feature","properties":{"_region":"hokkaido","_region_ja":"北海道","_display_name":"磯谷川第二(水力)変電所","fuel_type":"hydro","capacity_mw":1.2,"_fuel_color":"#0088ff","_category":"ipp"},"geometry":{"type":"Point","coordinates":[140.89401,41.992206]}},{"type":"Feature","properties":{"_region":"hokkaido","_region_ja":"北海道","_display_name":"磯谷川第一発電所","fuel_type":"hydro","capacity_mw":2.4,"_fuel_color":"#0088ff","_category":"ipp"},"geometry":{"type":"Point","coordinates":[140.881637,41.977543]}},{"type":"Feature","properties":{"_region":"hokkaido","_region_ja":"北海道","_display_name":"ピリカ発電所","fuel_type":"hydro","capacity_mw":4.2,"_fuel_color":"#0088ff","_category":"ipp"},"geometry":{"type":"Point","coordinates":[140.195622,42.470717]}},{"type":"Feature","properties":{"_region":"hokkaido","_region_ja":"北海道","_display_name":"plant_625559016","fuel_type":"unknown","capacity_mw":null,"_fuel_color":"#999999","_category":"ipp"},"geometry":{"type":"Point","coordinates":[145.048267,43.680892]}},{"type":"Feature","properties":{"_region":"hokkaido","_region_ja":"北海道","_display_name":"plant_629864964","fuel_type":"unknown","capacity_mw":null,"_fuel_color":"#999999","_category":"ipp"},"geometry":{"type":"Point","coordinates":[144.390858,43.030605]}},{"type":"Feature","properties":{"_region":"hokkaido","_region_ja":"北海道","_display_name":"plant_629864965","fuel_type":"unknown","capacity_mw":null,"_fuel_color":"#999999","_category":"ipp"},"geometry":{"type":"Point","coordinates":[144.39149,43.027596]}},{"type":"Feature","properties":{"_region":"hokkaido","_region_ja":"北海道","_display_name":"幌満川第2発電所","fuel_type":"hydro","capacity_mw":4.4,"_fuel_color":"#0088ff","_category":"ipp"},"geometry":{"type":"Point","coordinates":[143.03922,42.083427]}},{"type":"Feature","properties":{"_region":"hokkaido","_region_ja":"北海道","_display_name":"焼尻発電所","fuel_type":"oil","capacity_mw":null,"_fuel_color":"#884400","_category":"ipp"},"geometry":{"type":"Point","coordinates":[141.417394,44.444855]}},{"type":"Feature","properties":{"_region":"hokkaido","_region_ja":"北海道","_display_name":"北海道企業局 川端発電所","fuel_type":"hydro","capacity_mw":null,"_fuel_color":"#0088ff","_category":"ipp"},"geometry":{"type":"Point","coordinates":[141.916423,42.911974]}},{"type":"Feature","properties":{"_region":"hokkaido","_region_ja":"北海道","_display_name":"電源開発 桂沢発電所","fuel_type":"hydro","capacity_mw":null,"_fuel_color":"#0088ff","_category":"ipp"},"geometry":{"type":"Point","coordinates":[141.982964,43.24731]}},{"type":"Feature","properties":{"_region":"hokkaido","_region_ja":"北海道","_display_name":"北海道企業局　滝の上発電所","fuel_type":"hydro","capacity_mw":null,"_fuel_color":"#0088ff","_category":"ipp"},"geometry":{"type":"Point","coordinates":[141.970208,42.911522]}},{"type":"Feature","properties":{"_region":"hokkaido","_region_ja":"北海道","_display_name":"北海道企業局夕張川発電管理事務所","fuel_type":"hydro","capacity_mw":null,"_fuel_color":"#0088ff","_category":"ipp"},"geometry":{"type":"Point","coordinates":[142.007417,42.962388]}},{"type":"Feature","properties":{"_region":"hokkaido","_region_ja":"北海道","_display_name":"NSC Muroran Works Power Plant","fuel_type":"coal","capacity_mw":100.0,"_fuel_color":"#444444","_category":"ipp"},"geometry":{"type":"Point","coordinates":[140.992935,42.350336]}},{"type":"Feature","properties":{"_region":"hokkaido","_region_ja":"北海道","_display_name":"Setana Offshore","fuel_type":"wind","capacity_mw":-1.0,"_fuel_color":"#00cc88","_category":"ipp"},"geometry":{"type":"Point","coordinates":[139.839419,42.443679]}},{"type":"Feature","properties":{"_region":"hokkaido","_region_ja":"北海道","_display_name":"王子製紙(株)苫小牧工場","fuel_type":"coal","capacity_mw":25.0,"_fuel_color":"#444444","_category":"ipp"},"geometry":{"type":"Point","coordinates":[141.589253,42.636227]}},{"type":"Feature","properties":{"_region":"hokkaido","_region_ja":"北海道","_display_name":"plant_1082964885","fuel_type":"unknown","capacity_mw":null,"_fuel_color":"#999999","_category":"ipp"},"geometry":{"type":"Point","coordinates":[141.143461,45.199872]}},{"type":"Feature","properties":{"_region":"hokkaido","_region_ja":"北海道","_display_name":"Kushiro Power Plant","fuel_type":"coal","capacity_mw":112.0,"_fuel_color":"#444444","_category":"ipp"},"geometry":{"type":"Point","coordinates":[144.405164,42.960779]}},{"type":"Feature","properties":{"_region":"hokkaido","_region_ja":"北海道","_display_name":"Nippon Paper Shiraoi Mill Power Station","fuel_type":"unknown","capacity_mw":null,"_fuel_color":"#999999","_category":"ipp"},"geometry":{"type":"Point","coordinates":[141.282764,42.511904]}},{"type":"Feature","properties":{"_region":"hokkaido","_region_ja":"北海道","_display_name":"plant_1210450335","fuel_type":"unknown","capacity_mw":null,"_fuel_color":"#999999","_category":"ipp"},"geometry":{"type":"Point","coordinates":[141.616987,43.294278]}},{"type":"Feature","properties":{"_region":"hokkaido","_region_ja":"北海道","_display_name":"Nippon Paper Industries Kushiro Mill IPP Power Station","fuel_type":"coal","capacity_mw":80.0,"_fuel_color":"#444444","_category":"ipp"},"geometry":{"type":"Point","coordinates":[144.350688,43.007947]}},{"type":"Feature","properties":{"_region":"hokkaido","_region_ja":"北海道","_display_name":"Nippon Paper Industries Kushiro Mill Power Station","fuel_type":"coal","capacity_mw":80.0,"_fuel_color":"#444444","_category":"ipp"},"geometry":{"type":"Point","coordinates":[144.357358,43.005995]}},{"type":"Feature","properties":{"_region":"hokkaido","_region_ja":"北海道","_display_name":"plant_1231251332","fuel_type":"unknown","capacity_mw":null,"_fuel_color":"#999999","_category":"ipp"},"geometry":{"type":"Point","coordinates":[141.644017,43.328111]}},{"type":"Feature","properties":{"_region":"hokkaido","_region_ja":"北海道","_display_name":"plant_1231251334","fuel_type":"unknown","capacity_mw":null,"_fuel_color":"#999999","_category":"ipp"},"geometry":{"type":"Point","coordinates":[141.64461,43.328186]}},{"type":"Feature","properties":{"_region":"hokkaido","_region_ja":"北海道","_display_name":"新ひだかソーラーパーク","fuel_type":"solar","capacity_mw":21.0,"_fuel_color":"#ffdd00","_category":"ipp"},"geometry":{"type":"Point","coordinates":[142.569842,42.322016]}},{"type":"Feature","properties":{"_region":"hokkaido","_region_ja":"北海道","_display_name":"幌満川第3発電所","fuel_type":"hydro","capacity_mw":6.2,"_fuel_color":"#0088ff","_category":"ipp"},"geometry":{"type":"Point","coordinates":[143.054316,42.110746]}},{"type":"Feature","properties":{"_region":"hokkaido","_region_ja":"北海道","_display_name":"漁川発電所","fuel_type":"hydro","capacity_mw":1.8,"_fuel_color":"#0088ff","_category":"ipp"},"geometry":{"type":"Point","coordinates":[141.536905,42.860677]}},{"type":"Feature","properties":{"_region":"hokkaido","_region_ja":"北海道","_display_name":"恵庭発電所","fuel_type":"hydro","capacity_mw":2.26,"_fuel_color":"#0088ff","_category":"ipp"},"geometry":{"type":"Point","coordinates":[141.500697,42.850718]}},{"type":"Feature","properties":{"_region":"hokkaido","_region_ja":"北海道","_display_name":"plant_1463456953","fuel_type":"hydro","capacity_mw":null,"_fuel_color":"#0088ff","_category":"ipp"},"geometry":{"type":"Point","coordinates":[142.629793,44.330658]}},{"type":"Feature","properties":{"_region":"hokkaido","_region_ja":"北海道","_display_name":"plant_1463456954","fuel_type":"hydro","capacity_mw":null,"_fuel_color":"#0088ff","_category":"ipp"},"geometry":{"type":"Point","coordinates":[142.018896,43.001401]}},{"type":"Feature","properties":{"_region":"hokkaido","_region_ja":"北海道","_display_name":"シューパロ発電所","fuel_type":"hydro","capacity_mw":28.5,"_fuel_color":"#0088ff","_category":"ipp"},"geometry":{"type":"Point","coordinates":[142.098174,43.021929]}},{"type":"Feature","properties":{"_region":"hokkaido","_region_ja":"北海道","_display_name":"plant_1472866521","fuel_type":"hydro","capacity_mw":8.3,"_fuel_color":"#0088ff","_category":"ipp"},"geometry":{"type":"Point","coordinates":[140.640692,42.807728]}},{"type":"Feature","properties":{"_region":"hokkaido","_region_ja":"北海道","_display_name":"比羅夫発電所","fuel_type":"hydro","capacity_mw":12.0,"_fuel_color":"#0088ff","_category":"ipp"},"geometry":{"type":"Point","coordinates":[140.721366,42.824801]}},{"type":"Feature","properties":{"_region":"hokkaido","_region_ja":"北海道","_display_name":"勇払バイオマス発電","fuel_type":"biomass","capacity_mw":75.0,"_fuel_color":"#668833","_category":"ipp"},"geometry":{"type":"Point","coordinates":[141.697111,42.645051]}},{"type":"Feature","properties":{"_region":"hokkaido","_region_ja":"北海道","_display_name":"ユーラス岩屋ウインドファーム","fuel_type":"wind","capacity_mw":32.5,"_fuel_color":"#00cc88","_category":"ipp"},"geometry":{"type":"Point","coordinates":[141.423854,41.381783]}},{"type":"Feature","properties":{"_region":"hokkaido","_region_ja":"北海道","_display_name":"ユーラス尻労ウインドファーム","fuel_type":"wind","capacity_mw":19.25,"_fuel_color":"#00cc88","_category":"ipp"},"geometry":{"type":"Point","coordinates":[141.429491,41.375673]}},{"type":"Feature","properties":{"_region":"hokkaido","_region_ja":"北海道","_display_name":"ユーラスヒッツ北野沢クリフ風力発電所","fuel_type":"wind","capacity_mw":12.0,"_fuel_color":"#00cc88","_category":"ipp"},"geometry":{"type":"Point","coordinates":[141.423038,41.367304]}},{"type":"Feature","properties":{"_region":"hokkaido","_region_ja":"北海道","_display_name":"ソフトバンク 八雲ソーラーパーク","fuel_type":"solar","capacity_mw":102.3,"_fuel_color":"#ffdd00","_category":"ipp"},"geometry":{"type":"Point","coordinates":[140.268431,42.301037]}},{"type":"Feature","properties":{"_region":"hokkaido","_region_ja":"北海道","_display_name":"とまこまい勇払メガソーラー発電所","fuel_type":"solar","capacity_mw":29.8,"_fuel_color":"#ffdd00","_category":"ipp"},"geometry":{"type":"Point","coordinates":[141.724552,42.661756]}},{"type":"Feature","properties":{"_region":"hokkaido","_region_ja":"北海道","_display_name":"Nippon Paper Industries Power Generation","fuel_type":"coal","capacity_mw":80.0,"_fuel_color":"#444444","_category":"ipp"},"geometry":{"type":"Point","coordinates":[144.35396,43.006946]}},{"type":"Feature","properties":{"_region":"hokkaido","_region_ja":"北海道","_display_name":"テラスエナジー苫東安平ソーラーパーク2","fuel_type":"solar","capacity_mw":64.6,"_fuel_color":"#ffdd00","_category":"ipp"},"geometry":{"type":"Point","coordinates":[141.80802,42.704797]}},{"type":"Feature","properties":{"_region":"tohoku","_region_ja":"東北","_display_name":"福島第二原子力発電所","fuel_type":"nuclear","capacity_mw":4400.0,"_fuel_color":"#ff0000","_category":"ipp"},"geometry":{"type":"Point","coordinates":[141.02217,37.316116]}},{"type":"Feature","properties":{"_region":"tohoku","_region_ja":"東北","_display_name":"NSC KAMAISHI WORKS power station","fuel_type":"biomass","capacity_mw":-1.0,"_fuel_color":"#668833","_category":"ipp"},"geometry":{"type":"Point","coordinates":[141.877731,39.268722]}},{"type":"Feature","properties":{"_region":"tohoku","_region_ja":"東北","_display_name":"plant_176730220","fuel_type":"image","capacity_mw":null,"_fuel_color":"#999999","_category":"ipp"},"geometry":{"type":"Point","coordinates":[140.163087,39.220702]}},{"type":"Feature","properties":{"_region":"tohoku","_region_ja":"東北","_display_name":"plant_298241504","fuel_type":"unknown","capacity_mw":null,"_fuel_color":"#999999","_category":"ipp"},"geometry":{"type":"Point","coordinates":[139.446138,37.313038]}},{"type":"Feature","properties":{"_region":"tohoku","_region_ja":"東北","_display_name":"plant_310882976","fuel_type":"unknown","capacity_mw":null,"_fuel_color":"#999999","_category":"ipp"},"geometry":{"type":"Point","coordinates":[141.125485,38.539568]}},{"type":"Feature","properties":{"_region":"tohoku","_region_ja":"東北","_display_name":"天栄村風力発電所","fuel_type":"wind","capacity_mw":3.0,"_fuel_color":"#00cc88","_category":"ipp"},"geometry":{"type":"Point","coordinates":[139.96662,37.267015]}},{"type":"Feature","properties":{"_region":"tohoku","_region_ja":"東北","_display_name":"plant_311108762","fuel_type":"unknown","capacity_mw":null,"_fuel_color":"#999999","_category":"ipp"},"geometry":{"type":"Point","coordinates":[140.931745,38.282649]}},{"type":"Feature","properties":{"_region":"tohoku","_region_ja":"東北","_display_name":"plant_319050721","fuel_type":"unknown","capacity_mw":null,"_fuel_color":"#999999","_category":"ipp"},"geometry":{"type":"Point","coordinates":[139.904126,37.291367]}},{"type":"Feature","properties":{"_region":"tohoku","_region_ja":"東北","_display_name":"plant_319050733","fuel_type":"unknown","capacity_mw":null,"_fuel_color":"#999999","_category":"ipp"},"geometry":{"type":"Point","coordinates":[139.903628,37.309189]}},{"type":"Feature","properties":{"_region":"tohoku","_region_ja":"東北","_display_name":"沼沢発電所","fuel_type":"hydro","capacity_mw":null,"_fuel_color":"#0088ff","_category":"ipp"},"geometry":{"type":"Point","coordinates":[139.600716,37.456722]}},{"type":"Feature","properties":{"_region":"tohoku","_region_ja":"東北","_display_name":"plant_360613988","fuel_type":"hydro","capacity_mw":null,"_fuel_color":"#0088ff","_category":"ipp"},"geometry":{"type":"Point","coordinates":[139.051309,37.349929]}},{"type":"Feature","properties":{"_region":"tohoku","_region_ja":"東北","_display_name":"一戸フォレストパワー","fuel_type":"unknown","capacity_mw":null,"_fuel_color":"#999999","_category":"ipp"},"geometry":{"type":"Point","coordinates":[141.307302,40.202134]}},{"type":"Feature","properties":{"_region":"tohoku","_region_ja":"東北","_display_name":"plant_432844379","fuel_type":"unknown","capacity_mw":null,"_fuel_color":"#999999","_category":"ipp"},"geometry":{"type":"Point","coordinates":[140.348143,37.705352]}},{"type":"Feature","properties":{"_region":"tohoku","_region_ja":"東北","_display_name":"素波里発電所","fuel_type":"hydro","capacity_mw":6.3,"_fuel_color":"#0088ff","_category":"ipp"},"geometry":{"type":"Point","coordinates":[140.220811,40.33314]}},{"type":"Feature","properties":{"_region":"tohoku","_region_ja":"東北","_display_name":"plant_480494782","fuel_type":"hydro","capacity_mw":null,"_fuel_color":"#0088ff","_category":"ipp"},"geometry":{"type":"Point","coordinates":[139.267872,37.071451]}},{"type":"Feature","properties":{"_region":"tohoku","_region_ja":"東北","_display_name":"plant_481849863","fuel_type":"unknown","capacity_mw":null,"_fuel_color":"#999999","_category":"ipp"},"geometry":{"type":"Point","coordinates":[141.014361,37.295219]}},{"type":"Feature","properties":{"_region":"tohoku","_region_ja":"東北","_display_name":"胆沢第一発電所","fuel_type":"hydro","capacity_mw":14.2,"_fuel_color":"#0088ff","_category":"ipp"},"geometry":{"type":"Point","coordinates":[140.954781,39.122962]}},{"type":"Feature","properties":{"_region":"tohoku","_region_ja":"東北","_display_name":"胆沢第二発電所","fuel_type":"hydro","capacity_mw":6.8,"_fuel_color":"#0088ff","_category":"ipp"},"geometry":{"type":"Point","coordinates":[140.988173,39.128963]}},{"type":"Feature","properties":{"_region":"tohoku","_region_ja":"東北","_display_name":"川治第二発電所","fuel_type":"hydro","capacity_mw":2.6,"_fuel_color":"#0088ff","_category":"ipp"},"geometry":{"type":"Point","coordinates":[139.702317,36.873252]}},{"type":"Feature","properties":{"_region":"tohoku","_region_ja":"東北","_display_name":"大平洋エネルギーセンター","fuel_type":"solar","capacity_mw":44.0,"_fuel_color":"#ffdd00","_category":"ipp"},"geometry":{"type":"Point","coordinates":[141.488026,40.550083]}},{"type":"Feature","properties":{"_region":"tohoku","_region_ja":"東北","_display_name":"石巻雲雀野発電所","fuel_type":"coal","capacity_mw":-1.0,"_fuel_color":"#444444","_category":"ipp"},"geometry":{"type":"Point","coordinates":[141.288731,38.412436]}},{"type":"Feature","properties":{"_region":"tohoku","_region_ja":"東北","_display_name":"酒田火力発電所","fuel_type":"coal","capacity_mw":700.0,"_fuel_color":"#444444","_category":"ipp"},"geometry":{"type":"Point","coordinates":[139.83318,38.969578]}},{"type":"Feature","properties":{"_region":"tohoku","_region_ja":"東北","_display_name":"東通原子力発電所","fuel_type":"nuclear","capacity_mw":1100.0,"_fuel_color":"#ff0000","_category":"ipp"},"geometry":{"type":"Point","coordinates":[141.389571,41.187669]}},{"type":"Feature","properties":{"_region":"tohoku","_region_ja":"東北","_display_name":"東北電力株式会社　飛島火力発電所","fuel_type":"unknown","capacity_mw":null,"_fuel_color":"#999999","_category":"ipp"},"geometry":{"type":"Point","coordinates":[139.54662,39.18362]}},{"type":"Feature","properties":{"_region":"tohoku","_region_ja":"東北","_display_name":"plant_648494090","fuel_type":"unknown","capacity_mw":null,"_fuel_color":"#999999","_category":"ipp"},"geometry":{"type":"Point","coordinates":[140.359494,37.770408]}},{"type":"Feature","properties":{"_region":"tohoku","_region_ja":"東北","_display_name":"plant_648494092","fuel_type":"unknown","capacity_mw":null,"_fuel_color":"#999999","_category":"ipp"},"geometry":{"type":"Point","coordinates":[140.359716,37.762229]}},{"type":"Feature","properties":{"_region":"tohoku","_region_ja":"東北","_display_name":"大笹生発電所","fuel_type":"hydro","capacity_mw":null,"_fuel_color":"#0088ff","_category":"ipp"},"geometry":{"type":"Point","coordinates":[140.377529,37.795802]}},{"type":"Feature","properties":{"_region":"tohoku","_region_ja":"東北","_display_name":"板室発電所","fuel_type":"hydro","capacity_mw":16.1,"_fuel_color":"#0088ff","_category":"ipp"},"geometry":{"type":"Point","coordinates":[139.917769,37.071048]}},{"type":"Feature","properties":{"_region":"tohoku","_region_ja":"東北","_display_name":"森吉ダム","fuel_type":"hydro","capacity_mw":null,"_fuel_color":"#0088ff","_category":"ipp"},"geometry":{"type":"Point","coordinates":[140.606334,40.04768]}},{"type":"Feature","properties":{"_region":"tohoku","_region_ja":"東北","_display_name":"plant_678666552","fuel_type":"unknown","capacity_mw":null,"_fuel_color":"#999999","_category":"ipp"},"geometry":{"type":"Point","coordinates":[140.693002,37.233703]}},{"type":"Feature","properties":{"_region":"tohoku","_region_ja":"東北","_display_name":"plant_680680928","fuel_type":"unknown","capacity_mw":null,"_fuel_color":"#999999","_category":"ipp"},"geometry":{"type":"Point","coordinates":[140.863912,37.276485]}},{"type":"Feature","properties":{"_region":"tohoku","_region_ja":"東北","_display_name":"plant_686983673","fuel_type":"unknown","capacity_mw":null,"_fuel_color":"#999999","_category":"ipp"},"geometry":{"type":"Point","coordinates":[141.001399,37.244597]}},{"type":"Feature","properties":{"_region":"tohoku","_region_ja":"東北","_display_name":"plant_690528184","fuel_type":"unknown","capacity_mw":null,"_fuel_color":"#999999","_category":"ipp"},"geometry":{"type":"Point","coordinates":[139.837663,38.603773]}},{"type":"Feature","properties":{"_region":"tohoku","_region_ja":"東北","_display_name":"那須塩原ソーラー","fuel_type":"solar","capacity_mw":26.2,"_fuel_color":"#ffdd00","_category":"ipp"},"geometry":{"type":"Point","coordinates":[139.955553,36.937362]}},{"type":"Feature","properties":{"_region":"tohoku","_region_ja":"東北","_display_name":"plant_709059082","fuel_type":"unknown","capacity_mw":null,"_fuel_color":"#999999","_category":"ipp"},"geometry":{"type":"Point","coordinates":[141.915829,39.513473]}},{"type":"Feature","properties":{"_region":"tohoku","_region_ja":"東北","_display_name":"plant_712627969","fuel_type":"unknown","capacity_mw":null,"_fuel_color":"#999999","_category":"ipp"},"geometry":{"type":"Point","coordinates":[141.238937,39.379477]}},{"type":"Feature","properties":{"_region":"tohoku","_region_ja":"東北","_display_name":"松尾八幡平地熱発電所","fuel_type":"geothermal","capacity_mw":7.5,"_fuel_color":"#cc4488","_category":"ipp"},"geometry":{"type":"Point","coordinates":[140.932439,39.947635]}},{"type":"Feature","properties":{"_region":"tohoku","_region_ja":"東北","_display_name":"松川地熱発電所","fuel_type":"geothermal","capacity_mw":23.5,"_fuel_color":"#cc4488","_category":"ipp"},"geometry":{"type":"Point","coordinates":[140.921226,39.871911]}},{"type":"Feature","properties":{"_region":"tohoku","_region_ja":"東北","_display_name":"ユーラス六ヶ所ソーラーパーク 鷹架","fuel_type":"solar","capacity_mw":60.0,"_fuel_color":"#ffdd00","_category":"ipp"},"geometry":{"type":"Point","coordinates":[141.358391,40.926538]}},{"type":"Feature","properties":{"_region":"tohoku","_region_ja":"東北","_display_name":"小玉川第二発電所","fuel_type":"hydro","capacity_mw":null,"_fuel_color":"#0088ff","_category":"ipp"},"geometry":{"type":"Point","coordinates":[140.80716,37.129118]}},{"type":"Feature","properties":{"_region":"tohoku","_region_ja":"東北","_display_name":"秋田新屋ウインドファーム","fuel_type":"wind","capacity_mw":-1.0,"_fuel_color":"#00cc88","_category":"ipp"},"geometry":{"type":"Point","coordinates":[140.062112,39.730581]}},{"type":"Feature","properties":{"_region":"tohoku","_region_ja":"東北","_display_name":"ユナイテッド リニューアブルエナジー株式会社","fuel_type":"biomass","capacity_mw":-1.0,"_fuel_color":"#668833","_category":"ipp"},"geometry":{"type":"Point","coordinates":[140.064762,39.731942]}},{"type":"Feature","properties":{"_region":"tohoku","_region_ja":"東北","_display_name":"八幡平発電所","fuel_type":"hydro","capacity_mw":5.4,"_fuel_color":"#0088ff","_category":"ipp"},"geometry":{"type":"Point","coordinates":[140.798204,40.06854]}},{"type":"Feature","properties":{"_region":"tohoku","_region_ja":"東北","_display_name":"扇平第三発電所","fuel_type":"hydro","capacity_mw":1.3,"_fuel_color":"#0088ff","_category":"ipp"},"geometry":{"type":"Point","coordinates":[140.83175,40.331287]}},{"type":"Feature","properties":{"_region":"tohoku","_region_ja":"東北","_display_name":"止滝第二発電所","fuel_type":"hydro","capacity_mw":1.4,"_fuel_color":"#0088ff","_category":"ipp"},"geometry":{"type":"Point","coordinates":[140.878878,40.373055]}},{"type":"Feature","properties":{"_region":"tohoku","_region_ja":"東北","_display_name":"銚子第一発電所","fuel_type":"hydro","capacity_mw":2.5,"_fuel_color":"#0088ff","_category":"ipp"},"geometry":{"type":"Point","coordinates":[140.895475,40.378146]}},{"type":"Feature","properties":{"_region":"tohoku","_region_ja":"東北","_display_name":"大湯第四発電所","fuel_type":"hydro","capacity_mw":3.2,"_fuel_color":"#0088ff","_category":"ipp"},"geometry":{"type":"Point","coordinates":[140.829304,40.298559]}},{"type":"Feature","properties":{"_region":"tohoku","_region_ja":"東北","_display_name":"沼平第六発電所","fuel_type":"hydro","capacity_mw":0.7,"_fuel_color":"#0088ff","_category":"ipp"},"geometry":{"type":"Point","coordinates":[140.839374,40.344215]}},{"type":"Feature","properties":{"_region":"tohoku","_region_ja":"東北","_display_name":"新大楽前発電所","fuel_type":"hydro","capacity_mw":2.5,"_fuel_color":"#0088ff","_category":"ipp"},"geometry":{"type":"Point","coordinates":[140.847245,40.351911]}},{"type":"Feature","properties":{"_region":"tohoku","_region_ja":"東北","_display_name":"柴平発電所","fuel_type":"hydro","capacity_mw":2.8,"_fuel_color":"#0088ff","_category":"ipp"},"geometry":{"type":"Point","coordinates":[140.846458,40.235518]}},{"type":"Feature","properties":{"_region":"tohoku","_region_ja":"東北","_display_name":"碇発電所","fuel_type":"hydro","capacity_mw":1.87,"_fuel_color":"#0088ff","_category":"ipp"},"geometry":{"type":"Point","coordinates":[140.809687,40.137765]}},{"type":"Feature","properties":{"_region":"tohoku","_region_ja":"東北","_display_name":"大沼地熱発電所","fuel_type":"geothermal","capacity_mw":9.5,"_fuel_color":"#cc4488","_category":"ipp"},"geometry":{"type":"Point","coordinates":[140.806146,39.986155]}},{"type":"Feature","properties":{"_region":"tohoku","_region_ja":"東北","_display_name":"plant_781791649","fuel_type":"unknown","capacity_mw":null,"_fuel_color":"#999999","_category":"ipp"},"geometry":{"type":"Point","coordinates":[140.883607,39.819552]}},{"type":"Feature","properties":{"_region":"tohoku","_region_ja":"東北","_display_name":"plant_781791662","fuel_type":"unknown","capacity_mw":null,"_fuel_color":"#999999","_category":"ipp"},"geometry":{"type":"Point","coordinates":[140.855395,39.83554]}},{"type":"Feature","properties":{"_region":"tohoku","_region_ja":"東北","_display_name":"岩洞第二発電所","fuel_type":"hydro","capacity_mw":8.3,"_fuel_color":"#0088ff","_category":"ipp"},"geometry":{"type":"Point","coordinates":[141.167717,39.801054]}},{"type":"Feature","properties":{"_region":"tohoku","_region_ja":"東北","_display_name":"岩洞第一発電所","fuel_type":"hydro","capacity_mw":41.0,"_fuel_color":"#0088ff","_category":"ipp"},"geometry":{"type":"Point","coordinates":[141.241562,39.80223]}},{"type":"Feature","properties":{"_region":"tohoku","_region_ja":"東北","_display_name":"岩見発電所","fuel_type":"hydro","capacity_mw":5.4,"_fuel_color":"#0088ff","_category":"ipp"},"geometry":{"type":"Point","coordinates":[140.342198,39.744813]}},{"type":"Feature","properties":{"_region":"tohoku","_region_ja":"東北","_display_name":"板戸発電所","fuel_type":"hydro","capacity_mw":2.0,"_fuel_color":"#0088ff","_category":"ipp"},"geometry":{"type":"Point","coordinates":[140.597057,39.068108]}},{"type":"Feature","properties":{"_region":"tohoku","_region_ja":"東北","_display_name":"皆瀬発電所","fuel_type":"hydro","capacity_mw":5.3,"_fuel_color":"#0088ff","_category":"ipp"},"geometry":{"type":"Point","coordinates":[140.626769,39.057843]}},{"type":"Feature","properties":{"_region":"tohoku","_region_ja":"東北","_display_name":"杉沢発電所","fuel_type":"hydro","capacity_mw":null,"_fuel_color":"#0088ff","_category":"ipp"},"geometry":{"type":"Point","coordinates":[140.250027,39.914636]}},{"type":"Feature","properties":{"_region":"tohoku","_region_ja":"東北","_display_name":"萩形発電所","fuel_type":"hydro","capacity_mw":null,"_fuel_color":"#0088ff","_category":"ipp"},"geometry":{"type":"Point","coordinates":[140.31348,39.924908]}},{"type":"Feature","properties":{"_region":"tohoku","_region_ja":"東北","_display_name":"小又川第二発電所","fuel_type":"hydro","capacity_mw":null,"_fuel_color":"#0088ff","_category":"ipp"},"geometry":{"type":"Point","coordinates":[140.565181,40.041485]}},{"type":"Feature","properties":{"_region":"tohoku","_region_ja":"東北","_display_name":"小和瀬発電所","fuel_type":"hydro","capacity_mw":8.8,"_fuel_color":"#0088ff","_category":"ipp"},"geometry":{"type":"Point","coordinates":[140.705316,39.86286]}},{"type":"Feature","properties":{"_region":"tohoku","_region_ja":"東北","_display_name":"秋田メタン発酵ガス化バイオマス発電所","fuel_type":"biomass","capacity_mw":-1.0,"_fuel_color":"#668833","_category":"ipp"},"geometry":{"type":"Point","coordinates":[140.06486,39.727876]}},{"type":"Feature","properties":{"_region":"tohoku","_region_ja":"東北","_display_name":"八戸バイオマス発電所","fuel_type":"biomass","capacity_mw":12.4,"_fuel_color":"#668833","_category":"ipp"},"geometry":{"type":"Point","coordinates":[141.49831,40.544466]}},{"type":"Feature","properties":{"_region":"tohoku","_region_ja":"東北","_display_name":"小又川第一発電所","fuel_type":"hydro","capacity_mw":null,"_fuel_color":"#0088ff","_category":"ipp"},"geometry":{"type":"Point","coordinates":[140.523276,40.046726]}},{"type":"Feature","properties":{"_region":"tohoku","_region_ja":"東北","_display_name":"玉川発電所","fuel_type":"hydro","capacity_mw":null,"_fuel_color":"#0088ff","_category":"ipp"},"geometry":{"type":"Point","coordinates":[140.641097,39.830022]}},{"type":"Feature","properties":{"_region":"tohoku","_region_ja":"東北","_display_name":"鎧畑発電所","fuel_type":"hydro","capacity_mw":null,"_fuel_color":"#0088ff","_category":"ipp"},"geometry":{"type":"Point","coordinates":[140.669246,39.77525]}},{"type":"Feature","properties":{"_region":"tohoku","_region_ja":"東北","_display_name":"田沢湖発電所","fuel_type":"hydro","capacity_mw":null,"_fuel_color":"#0088ff","_category":"ipp"},"geometry":{"type":"Point","coordinates":[140.676204,39.749128]}},{"type":"Feature","properties":{"_region":"tohoku","_region_ja":"東北","_display_name":"先達発電所","fuel_type":"hydro","capacity_mw":null,"_fuel_color":"#0088ff","_category":"ipp"},"geometry":{"type":"Point","coordinates":[140.718716,39.755945]}},{"type":"Feature","properties":{"_region":"tohoku","_region_ja":"東北","_display_name":"上先達発電所","fuel_type":"hydro","capacity_mw":null,"_fuel_color":"#0088ff","_category":"ipp"},"geometry":{"type":"Point","coordinates":[140.756054,39.771061]}},{"type":"Feature","properties":{"_region":"tohoku","_region_ja":"東北","_display_name":"人来田発電所","fuel_type":"hydro","capacity_mw":null,"_fuel_color":"#0088ff","_category":"ipp"},"geometry":{"type":"Point","coordinates":[140.811907,38.216441]}},{"type":"Feature","properties":{"_region":"tohoku","_region_ja":"東北","_display_name":"plant_821418421","fuel_type":"hydro","capacity_mw":null,"_fuel_color":"#0088ff","_category":"ipp"},"geometry":{"type":"Point","coordinates":[139.989553,39.186587]}},{"type":"Feature","properties":{"_region":"tohoku","_region_ja":"東北","_display_name":"plant_821418424","fuel_type":"hydro","capacity_mw":null,"_fuel_color":"#0088ff","_category":"ipp"},"geometry":{"type":"Point","coordinates":[140.00158,39.171546]}},{"type":"Feature","properties":{"_region":"tohoku","_region_ja":"東北","_display_name":"大湯発電所","fuel_type":"hydro","capacity_mw":-1.0,"_fuel_color":"#0088ff","_category":"ipp"},"geometry":{"type":"Point","coordinates":[140.801335,40.274144]}},{"type":"Feature","properties":{"_region":"tohoku","_region_ja":"東北","_display_name":"plant_837137764","fuel_type":"hydro","capacity_mw":null,"_fuel_color":"#0088ff","_category":"ipp"},"geometry":{"type":"Point","coordinates":[140.83339,40.123603]}},{"type":"Feature","properties":{"_region":"tohoku","_region_ja":"東北","_display_name":"plant_841229625","fuel_type":"wind","capacity_mw":null,"_fuel_color":"#00cc88","_category":"ipp"},"geometry":{"type":"Point","coordinates":[140.833446,39.538929]}},{"type":"Feature","properties":{"_region":"tohoku","_region_ja":"東北","_display_name":"軽米尊坊ソーラー発電所","fuel_type":"solar","capacity_mw":40.0,"_fuel_color":"#ffdd00","_category":"ipp"},"geometry":{"type":"Point","coordinates":[141.526686,40.283988]}},{"type":"Feature","properties":{"_region":"tohoku","_region_ja":"東北","_display_name":"仙台パワーステーション","fuel_type":"coal","capacity_mw":null,"_fuel_color":"#444444","_category":"ipp"},"geometry":{"type":"Point","coordinates":[141.008829,38.268246]}},{"type":"Feature","properties":{"_region":"tohoku","_region_ja":"東北","_display_name":"Orix Soma Energy Power Plant","fuel_type":"coal","capacity_mw":-1.0,"_fuel_color":"#444444","_category":"ipp"},"geometry":{"type":"Point","coordinates":[140.941498,37.831175]}},{"type":"Feature","properties":{"_region":"tohoku","_region_ja":"東北","_display_name":"福島ガス発電所","fuel_type":"gas","capacity_mw":null,"_fuel_color":"#ff8800","_category":"ipp"},"geometry":{"type":"Point","coordinates":[140.953415,37.848247]}},{"type":"Feature","properties":{"_region":"tohoku","_region_ja":"東北","_display_name":"Hokuetsu Niigata Mill Power Plant","fuel_type":"gas","capacity_mw":null,"_fuel_color":"#ff8800","_category":"ipp"},"geometry":{"type":"Point","coordinates":[139.079622,37.925217]}},{"type":"Feature","properties":{"_region":"tohoku","_region_ja":"東北","_display_name":"Hachinohe Mill Power Station","fuel_type":"coal","capacity_mw":null,"_fuel_color":"#444444","_category":"ipp"},"geometry":{"type":"Point","coordinates":[141.480264,40.567879]}},{"type":"Feature","properties":{"_region":"tohoku","_region_ja":"東北","_display_name":"Iwanuma Mill","fuel_type":"unknown","capacity_mw":null,"_fuel_color":"#999999","_category":"ipp"},"geometry":{"type":"Point","coordinates":[140.859232,38.086467]}},{"type":"Feature","properties":{"_region":"tohoku","_region_ja":"東北","_display_name":"十文字チキンカンパニー バイオマス発電所","fuel_type":"biofuel","capacity_mw":6.25,"_fuel_color":"#999999","_category":"ipp"},"geometry":{"type":"Point","coordinates":[141.427764,40.334556]}},{"type":"Feature","properties":{"_region":"tohoku","_region_ja":"東北","_display_name":"Hirono Solar Power Plant","fuel_type":"solar","capacity_mw":25.0,"_fuel_color":"#ffdd00","_category":"ipp"},"geometry":{"type":"Point","coordinates":[141.673829,40.22164]}},{"type":"Feature","properties":{"_region":"tohoku","_region_ja":"東北","_display_name":"plant_1030329181","fuel_type":"solar","capacity_mw":27.4,"_fuel_color":"#ffdd00","_category":"ipp"},"geometry":{"type":"Point","coordinates":[141.178187,40.775369]}},{"type":"Feature","properties":{"_region":"tohoku","_region_ja":"東北","_display_name":"plant_1030329182","fuel_type":"solar","capacity_mw":18.4,"_fuel_color":"#ffdd00","_category":"ipp"},"geometry":{"type":"Point","coordinates":[141.123596,40.744439]}},{"type":"Feature","properties":{"_region":"tohoku","_region_ja":"東北","_display_name":"plant_1030329187","fuel_type":"solar","capacity_mw":11.3,"_fuel_color":"#ffdd00","_category":"ipp"},"geometry":{"type":"Point","coordinates":[141.202265,40.739501]}},{"type":"Feature","properties":{"_region":"tohoku","_region_ja":"東北","_display_name":"七戸町卒古沢太陽光発電所","fuel_type":"solar","capacity_mw":19.6,"_fuel_color":"#ffdd00","_category":"ipp"},"geometry":{"type":"Point","coordinates":[141.185823,40.780828]}},{"type":"Feature","properties":{"_region":"tohoku","_region_ja":"東北","_display_name":"plant_1052431035","fuel_type":"solar","capacity_mw":18.0,"_fuel_color":"#ffdd00","_category":"ipp"},"geometry":{"type":"Point","coordinates":[141.207588,40.646572]}},{"type":"Feature","properties":{"_region":"tohoku","_region_ja":"東北","_display_name":"粟島火力発電所","fuel_type":"oil","capacity_mw":0.9,"_fuel_color":"#884400","_category":"ipp"},"geometry":{"type":"Point","coordinates":[139.253936,38.46701]}},{"type":"Feature","properties":{"_region":"tohoku","_region_ja":"東北","_display_name":"plant_1064441347","fuel_type":"unknown","capacity_mw":null,"_fuel_color":"#999999","_category":"ipp"},"geometry":{"type":"Point","coordinates":[140.90352,38.907802]}},{"type":"Feature","properties":{"_region":"tohoku","_region_ja":"東北","_display_name":"plant_1064441357","fuel_type":"hydro","capacity_mw":null,"_fuel_color":"#0088ff","_category":"ipp"},"geometry":{"type":"Point","coordinates":[140.92795,38.904204]}},{"type":"Feature","properties":{"_region":"tohoku","_region_ja":"東北","_display_name":"Able Iwaki Power Plant","fuel_type":"biomass","capacity_mw":null,"_fuel_color":"#668833","_category":"ipp"},"geometry":{"type":"Point","coordinates":[140.842262,37.079457]}},{"type":"Feature","properties":{"_region":"tohoku","_region_ja":"東北","_display_name":"川治第一発電所","fuel_type":"hydro","capacity_mw":15.3,"_fuel_color":"#0088ff","_category":"ipp"},"geometry":{"type":"Point","coordinates":[139.701329,36.894705]}},{"type":"Feature","properties":{"_region":"tohoku","_region_ja":"東北","_display_name":"木の俣発電所","fuel_type":"hydro","capacity_mw":3.6,"_fuel_color":"#0088ff","_category":"ipp"},"geometry":{"type":"Point","coordinates":[139.898937,37.054088]}},{"type":"Feature","properties":{"_region":"tohoku","_region_ja":"東北","_display_name":"深山発電所","fuel_type":"hydro","capacity_mw":2.3,"_fuel_color":"#0088ff","_category":"ipp"},"geometry":{"type":"Point","coordinates":[139.904497,37.115026]}},{"type":"Feature","properties":{"_region":"tohoku","_region_ja":"東北","_display_name":"小網発電所","fuel_type":"hydro","capacity_mw":0.1,"_fuel_color":"#0088ff","_category":"ipp"},"geometry":{"type":"Point","coordinates":[139.702759,36.883697]}},{"type":"Feature","properties":{"_region":"tohoku","_region_ja":"東北","_display_name":"東荒川発電所","fuel_type":"hydro","capacity_mw":0.6,"_fuel_color":"#0088ff","_category":"ipp"},"geometry":{"type":"Point","coordinates":[139.829472,36.847174]}},{"type":"Feature","properties":{"_region":"tohoku","_region_ja":"東北","_display_name":"寺山ダム発電所","fuel_type":"hydro","capacity_mw":0.2,"_fuel_color":"#0088ff","_category":"ipp"},"geometry":{"type":"Point","coordinates":[139.865825,36.847192]}},{"type":"Feature","properties":{"_region":"tohoku","_region_ja":"東北","_display_name":"大田原寒井第一太陽光発電所","fuel_type":"solar","capacity_mw":14.0,"_fuel_color":"#ffdd00","_category":"ipp"},"geometry":{"type":"Point","coordinates":[140.107015,36.906964]}},{"type":"Feature","properties":{"_region":"tohoku","_region_ja":"東北","_display_name":"SGET大田原メガソーラー","fuel_type":"solar","capacity_mw":25.1,"_fuel_color":"#ffdd00","_category":"ipp"},"geometry":{"type":"Point","coordinates":[140.169694,36.920616]}},{"type":"Feature","properties":{"_region":"tohoku","_region_ja":"東北","_display_name":"奈良俣発電所","fuel_type":"hydro","capacity_mw":12.8,"_fuel_color":"#0088ff","_category":"ipp"},"geometry":{"type":"Point","coordinates":[139.078019,36.877473]}},{"type":"Feature","properties":{"_region":"tohoku","_region_ja":"東北","_display_name":"plant_1135582093","fuel_type":"hydro","capacity_mw":null,"_fuel_color":"#0088ff","_category":"ipp"},"geometry":{"type":"Point","coordinates":[140.863469,37.460919]}},{"type":"Feature","properties":{"_region":"tohoku","_region_ja":"東北","_display_name":"ソフトバンク那須塩原ソーラーパーク","fuel_type":"solar","capacity_mw":13.9,"_fuel_color":"#ffdd00","_category":"ipp"},"geometry":{"type":"Point","coordinates":[139.941414,36.938628]}},{"type":"Feature","properties":{"_region":"tohoku","_region_ja":"東北","_display_name":"Nakoso IGCC Power Plant","fuel_type":"coal","capacity_mw":525.0,"_fuel_color":"#444444","_category":"ipp"},"geometry":{"type":"Point","coordinates":[140.819623,36.914408]}},{"type":"Feature","properties":{"_region":"tohoku","_region_ja":"東北","_display_name":"Hachinohe Mill Eco-Energy Power Station","fuel_type":"biomass","capacity_mw":null,"_fuel_color":"#668833","_category":"ipp"},"geometry":{"type":"Point","coordinates":[141.487016,40.567652]}},{"type":"Feature","properties":{"_region":"tohoku","_region_ja":"東北","_display_name":"Maeda Ofunato Biomass Power Plant","fuel_type":"biomass","capacity_mw":null,"_fuel_color":"#668833","_category":"ipp"},"geometry":{"type":"Point","coordinates":[141.728406,39.071513]}},{"type":"Feature","properties":{"_region":"tohoku","_region_ja":"東北","_display_name":"杜の都バイオマス発電所","fuel_type":"biomass","capacity_mw":75.0,"_fuel_color":"#668833","_category":"ipp"},"geometry":{"type":"Point","coordinates":[141.005293,38.256623]}},{"type":"Feature","properties":{"_region":"tohoku","_region_ja":"東北","_display_name":"請戸川水力発電所","fuel_type":"hydro","capacity_mw":1.4,"_fuel_color":"#0088ff","_category":"ipp"},"geometry":{"type":"Point","coordinates":[140.887186,37.514413]}},{"type":"Feature","properties":{"_region":"tohoku","_region_ja":"東北","_display_name":"Shimokita Clean Center","fuel_type":"waste","capacity_mw":null,"_fuel_color":"#996633","_category":"ipp"},"geometry":{"type":"Point","coordinates":[141.257414,41.218933]}},{"type":"Feature","properties":{"_region":"tohoku","_region_ja":"東北","_display_name":"H.I.S. Kakuda Biomass Park","fuel_type":"gas","capacity_mw":null,"_fuel_color":"#ff8800","_category":"ipp"},"geometry":{"type":"Point","coordinates":[140.79689,37.982251]}},{"type":"Feature","properties":{"_region":"tohoku","_region_ja":"東北","_display_name":"女川原子力発電所","fuel_type":"nuclear","capacity_mw":2174.0,"_fuel_color":"#ff0000","_category":"ipp"},"geometry":{"type":"Point","coordinates":[141.499204,38.398967]}},{"type":"Feature","properties":{"_region":"tohoku","_region_ja":"東北","_display_name":"飯豊川第一発電所","fuel_type":"unknown","capacity_mw":null,"_fuel_color":"#999999","_category":"ipp"},"geometry":{"type":"Point","coordinates":[139.438588,37.825422]}},{"type":"Feature","properties":{"_region":"tohoku","_region_ja":"東北","_display_name":"plant_1395570729","fuel_type":"hydro","capacity_mw":null,"_fuel_color":"#0088ff","_category":"ipp"},"geometry":{"type":"Point","coordinates":[141.798388,39.292817]}},{"type":"Feature","properties":{"_region":"tohoku","_region_ja":"東北","_display_name":"高森高原風力発電所","fuel_type":"unknown","capacity_mw":null,"_fuel_color":"#999999","_category":"ipp"},"geometry":{"type":"Point","coordinates":[141.181077,40.103344]}},{"type":"Feature","properties":{"_region":"tohoku","_region_ja":"東北","_display_name":"Ishinomaki Hibarino Biomass power station","fuel_type":"biomass","capacity_mw":-1.0,"_fuel_color":"#668833","_category":"ipp"},"geometry":{"type":"Point","coordinates":[141.277949,38.411033]}},{"type":"Feature","properties":{"_region":"tohoku","_region_ja":"東北","_display_name":"plant_1463456948","fuel_type":"hydro","capacity_mw":null,"_fuel_color":"#0088ff","_category":"ipp"},"geometry":{"type":"Point","coordinates":[139.005046,37.303459]}},{"type":"Feature","properties":{"_region":"tohoku","_region_ja":"東北","_display_name":"plant_1463456952","fuel_type":"hydro","capacity_mw":null,"_fuel_color":"#0088ff","_category":"ipp"},"geometry":{"type":"Point","coordinates":[140.91889,39.911467]}},{"type":"Feature","properties":{"_region":"tohoku","_region_ja":"東北","_display_name":"plant_1463458859","fuel_type":"hydro","capacity_mw":null,"_fuel_color":"#0088ff","_category":"ipp"},"geometry":{"type":"Point","coordinates":[140.96777,39.238079]}},{"type":"Feature","properties":{"_region":"tohoku","_region_ja":"東北","_display_name":"plant_1463458860","fuel_type":"hydro","capacity_mw":null,"_fuel_color":"#0088ff","_category":"ipp"},"geometry":{"type":"Point","coordinates":[140.957048,39.304956]}},{"type":"Feature","properties":{"_region":"tohoku","_region_ja":"東北","_display_name":"plant_1475609610","fuel_type":"unknown","capacity_mw":null,"_fuel_color":"#999999","_category":"ipp"},"geometry":{"type":"Point","coordinates":[140.958165,39.892182]}},{"type":"Feature","properties":{"_region":"tohoku","_region_ja":"東北","_display_name":"Hachiryu wind farm","fuel_type":"wind","capacity_mw":25.5,"_fuel_color":"#00cc88","_category":"ipp"},"geometry":{"type":"Point","coordinates":[139.953201,40.085553]}},{"type":"Feature","properties":{"_region":"tohoku","_region_ja":"東北","_display_name":"むつ小川原ウインドファーム","fuel_type":"wind","capacity_mw":31.5,"_fuel_color":"#00cc88","_category":"ipp"},"geometry":{"type":"Point","coordinates":[141.297973,40.95861]}},{"type":"Feature","properties":{"_region":"tohoku","_region_ja":"東北","_display_name":"ユーラス野辺地ウィンドファーム","fuel_type":"wind","capacity_mw":50.0,"_fuel_color":"#00cc88","_category":"ipp"},"geometry":{"type":"Point","coordinates":[141.23621,40.960281]}},{"type":"Feature","properties":{"_region":"tohoku","_region_ja":"東北","_display_name":"新地火力発電所","fuel_type":"coal","capacity_mw":2000.0,"_fuel_color":"#444444","_category":"ipp"},"geometry":{"type":"Point","coordinates":[140.940156,37.845]}},{"type":"Feature","properties":{"_region":"tohoku","_region_ja":"東北","_display_name":"上北六ヶ所太陽光発電所","fuel_type":"solar","capacity_mw":51.0,"_fuel_color":"#ffdd00","_category":"ipp"},"geometry":{"type":"Point","coordinates":[141.293121,40.959974]}},{"type":"Feature","properties":{"_region":"tohoku","_region_ja":"東北","_display_name":"ユーラス六ヶ所ソーラーパーク 千歳平北","fuel_type":"solar","capacity_mw":55.0,"_fuel_color":"#ffdd00","_category":"ipp"},"geometry":{"type":"Point","coordinates":[141.280964,40.897801]}},{"type":"Feature","properties":{"_region":"tohoku","_region_ja":"東北","_display_name":"軽米東ソーラー発電所","fuel_type":"solar","capacity_mw":80.8,"_fuel_color":"#ffdd00","_category":"ipp"},"geometry":{"type":"Point","coordinates":[141.425484,40.293744]}},{"type":"Feature","properties":{"_region":"tohoku","_region_ja":"東北","_display_name":"軽米西ソーラー発電所","fuel_type":"solar","capacity_mw":48.0,"_fuel_color":"#ffdd00","_category":"ipp"},"geometry":{"type":"Point","coordinates":[141.412804,40.294995]}},{"type":"Feature","properties":{"_region":"tohoku","_region_ja":"東北","_display_name":"ウィンドファームつがる","fuel_type":"wind","capacity_mw":121.6,"_fuel_color":"#00cc88","_category":"ipp"},"geometry":{"type":"Point","coordinates":[140.315521,40.891661]}},{"type":"Feature","properties":{"_region":"tohoku","_region_ja":"東北","_display_name":"ユーラス岩屋ウインドファーム","fuel_type":"wind","capacity_mw":32.5,"_fuel_color":"#00cc88","_category":"ipp"},"geometry":{"type":"Point","coordinates":[141.423854,41.381783]}},{"type":"Feature","properties":{"_region":"tohoku","_region_ja":"東北","_display_name":"ユーラス尻労ウインドファーム","fuel_type":"wind","capacity_mw":19.25,"_fuel_color":"#00cc88","_category":"ipp"},"geometry":{"type":"Point","coordinates":[141.429491,41.375673]}},{"type":"Feature","properties":{"_region":"tohoku","_region_ja":"東北","_display_name":"ユーラスヒッツ北野沢クリフ風力発電所","fuel_type":"wind","capacity_mw":12.0,"_fuel_color":"#00cc88","_category":"ipp"},"geometry":{"type":"Point","coordinates":[141.423038,41.367304]}},{"type":"Feature","properties":{"_region":"tohoku","_region_ja":"東北","_display_name":"ユーラス小田野沢ウインドファーム","fuel_type":"wind","capacity_mw":13.0,"_fuel_color":"#00cc88","_category":"ipp"},"geometry":{"type":"Point","coordinates":[141.36843,41.207944]}},{"type":"Feature","properties":{"_region":"tohoku","_region_ja":"東北","_display_name":"ユーラス大豆田ウインドファーム","fuel_type":"wind","capacity_mw":10.5,"_fuel_color":"#00cc88","_category":"ipp"},"geometry":{"type":"Point","coordinates":[141.282662,41.113075]}},{"type":"Feature","properties":{"_region":"tohoku","_region_ja":"東北","_display_name":"ユーラス田代平ウインドファーム","fuel_type":"wind","capacity_mw":7.65,"_fuel_color":"#00cc88","_category":"ipp"},"geometry":{"type":"Point","coordinates":[140.976636,40.398972]}},{"type":"Feature","properties":{"_region":"tohoku","_region_ja":"東北","_display_name":"新郷村風力発電所","fuel_type":"wind","capacity_mw":18.0,"_fuel_color":"#00cc88","_category":"ipp"},"geometry":{"type":"Point","coordinates":[141.00192,40.414427]}},{"type":"Feature","properties":{"_region":"tohoku","_region_ja":"東北","_display_name":"横浜町雲雀平風力発電所","fuel_type":"wind","capacity_mw":32.2,"_fuel_color":"#00cc88","_category":"ipp"},"geometry":{"type":"Point","coordinates":[141.241243,40.975665]}},{"type":"Feature","properties":{"_region":"tohoku","_region_ja":"東北","_display_name":"二又風力発電所","fuel_type":"wind","capacity_mw":51.0,"_fuel_color":"#00cc88","_category":"ipp"},"geometry":{"type":"Point","coordinates":[141.315235,40.994303]}},{"type":"Feature","properties":{"_region":"tohoku","_region_ja":"東北","_display_name":"六ヶ所村風力発電所","fuel_type":"wind","capacity_mw":30.0,"_fuel_color":"#00cc88","_category":"ipp"},"geometry":{"type":"Point","coordinates":[141.284123,40.990214]}},{"type":"Feature","properties":{"_region":"tohoku","_region_ja":"東北","_display_name":"六ヶ所村風力第二発電所","fuel_type":"wind","capacity_mw":2.85,"_fuel_color":"#00cc88","_category":"ipp"},"geometry":{"type":"Point","coordinates":[141.28391,40.991491]}},{"type":"Feature","properties":{"_region":"tohoku","_region_ja":"東北","_display_name":"吹越台地風力発電所","fuel_type":"wind","capacity_mw":20.0,"_fuel_color":"#00cc88","_category":"ipp"},"geometry":{"type":"Point","coordinates":[141.291607,40.996767]}},{"type":"Feature","properties":{"_region":"tohoku","_region_ja":"東北","_display_name":"睦栄風力発電所","fuel_type":"wind","capacity_mw":10.0,"_fuel_color":"#00cc88","_category":"ipp"},"geometry":{"type":"Point","coordinates":[141.26239,40.909803]}},{"type":"Feature","properties":{"_region":"tohoku","_region_ja":"東北","_display_name":"勿来発電所","fuel_type":"coal","capacity_mw":1975.0,"_fuel_color":"#444444","_category":"ipp"},"geometry":{"type":"Point","coordinates":[140.815431,36.913941]}},{"type":"Feature","properties":{"_region":"tokyo","_region_ja":"東京","_display_name":"群馬県日向見発電所","fuel_type":"hydro","capacity_mw":-1.0,"_fuel_color":"#0088ff","_category":"ipp"},"geometry":{"type":"Point","coordinates":[138.780869,36.696256]}},{"type":"Feature","properties":{"_region":"tokyo","_region_ja":"東京","_display_name":"東京電力リニューアブルパワー㈱ 大津発電所","fuel_type":"unknown","capacity_mw":null,"_fuel_color":"#999999","_category":"ipp"},"geometry":{"type":"Point","coordinates":[138.628312,36.552648]}},{"type":"Feature","properties":{"_region":"tokyo","_region_ja":"東京","_display_name":"川崎火力発電所","fuel_type":"gas","capacity_mw":807.0,"_fuel_color":"#ff8800","_category":"ipp"},"geometry":{"type":"Point","coordinates":[139.719021,35.498958]}},{"type":"Feature","properties":{"_region":"tokyo","_region_ja":"東京","_display_name":"plant_133342780","fuel_type":"hydro","capacity_mw":null,"_fuel_color":"#0088ff","_category":"ipp"},"geometry":{"type":"Point","coordinates":[138.484344,36.156982]}},{"type":"Feature","properties":{"_region":"tokyo","_region_ja":"東京","_display_name":"品川清掃工場","fuel_type":"waste","capacity_mw":15.0,"_fuel_color":"#996633","_category":"ipp"},"geometry":{"type":"Point","coordinates":[139.754022,35.609471]}},{"type":"Feature","properties":{"_region":"tokyo","_region_ja":"東京","_display_name":"豊島清掃工場","fuel_type":"waste","capacity_mw":-1.0,"_fuel_color":"#996633","_category":"ipp"},"geometry":{"type":"Point","coordinates":[139.714633,35.735099]}},{"type":"Feature","properties":{"_region":"tokyo","_region_ja":"東京","_display_name":"神奈川県企業庁 相模発電所","fuel_type":"hydro","capacity_mw":31.0,"_fuel_color":"#0088ff","_category":"ipp"},"geometry":{"type":"Point","coordinates":[139.19657,35.616036]}},{"type":"Feature","properties":{"_region":"tokyo","_region_ja":"東京","_display_name":"plant_192183570","fuel_type":"unknown","capacity_mw":null,"_fuel_color":"#999999","_category":"ipp"},"geometry":{"type":"Point","coordinates":[138.897784,36.559641]}},{"type":"Feature","properties":{"_region":"tokyo","_region_ja":"東京","_display_name":"東京都交通局 多摩川第三発電所","fuel_type":"hydro","capacity_mw":16.4,"_fuel_color":"#0088ff","_category":"ipp"},"geometry":{"type":"Point","coordinates":[139.176569,35.799442]}},{"type":"Feature","properties":{"_region":"tokyo","_region_ja":"東京","_display_name":"城山水力発電所","fuel_type":"hydro","capacity_mw":250.0,"_fuel_color":"#0088ff","_category":"ipp"},"geometry":{"type":"Point","coordinates":[139.274131,35.604058]}},{"type":"Feature","properties":{"_region":"tokyo","_region_ja":"東京","_display_name":"plant_263633056","fuel_type":"hydro","capacity_mw":null,"_fuel_color":"#0088ff","_category":"ipp"},"geometry":{"type":"Point","coordinates":[138.444512,35.374561]}},{"type":"Feature","properties":{"_region":"tokyo","_region_ja":"東京","_display_name":"愛川第1発電所","fuel_type":"hydro","capacity_mw":24.2,"_fuel_color":"#0088ff","_category":"ipp"},"geometry":{"type":"Point","coordinates":[139.251005,35.541139]}},{"type":"Feature","properties":{"_region":"tokyo","_region_ja":"東京","_display_name":"愛川第2発電所","fuel_type":"hydro","capacity_mw":1.2,"_fuel_color":"#0088ff","_category":"ipp"},"geometry":{"type":"Point","coordinates":[139.256448,35.539084]}},{"type":"Feature","properties":{"_region":"tokyo","_region_ja":"東京","_display_name":"資源循環局","fuel_type":"waste","capacity_mw":-1.0,"_fuel_color":"#996633","_category":"ipp"},"geometry":{"type":"Point","coordinates":[139.649859,35.363862]}},{"type":"Feature","properties":{"_region":"tokyo","_region_ja":"東京","_display_name":"花貫川第二発電所","fuel_type":"hydro","capacity_mw":-1.0,"_fuel_color":"#0088ff","_category":"ipp"},"geometry":{"type":"Point","coordinates":[140.622596,36.726967]}},{"type":"Feature","properties":{"_region":"tokyo","_region_ja":"東京","_display_name":"花貫川第一発電所","fuel_type":"hydro","capacity_mw":-1.0,"_fuel_color":"#0088ff","_category":"ipp"},"geometry":{"type":"Point","coordinates":[140.654151,36.724909]}},{"type":"Feature","properties":{"_region":"tokyo","_region_ja":"東京","_display_name":"中里発電所","fuel_type":"hydro","capacity_mw":0.7,"_fuel_color":"#0088ff","_category":"ipp"},"geometry":{"type":"Point","coordinates":[140.541808,36.618171]}},{"type":"Feature","properties":{"_region":"tokyo","_region_ja":"東京","_display_name":"KEN里美太陽光発電所","fuel_type":"solar","capacity_mw":31.2,"_fuel_color":"#ffdd00","_category":"ipp"},"geometry":{"type":"Point","coordinates":[140.56564,36.671928]}},{"type":"Feature","properties":{"_region":"tokyo","_region_ja":"東京","_display_name":"日立十王太陽光発電所","fuel_type":"solar","capacity_mw":55.6,"_fuel_color":"#ffdd00","_category":"ipp"},"geometry":{"type":"Point","coordinates":[140.587665,36.680931]}},{"type":"Feature","properties":{"_region":"tokyo","_region_ja":"東京","_display_name":"クリーンパーク茂原","fuel_type":"waste","capacity_mw":-1.0,"_fuel_color":"#996633","_category":"ipp"},"geometry":{"type":"Point","coordinates":[139.874346,36.46651]}},{"type":"Feature","properties":{"_region":"tokyo","_region_ja":"東京","_display_name":"那須南エコファーム太陽光発電所","fuel_type":"solar","capacity_mw":16.0,"_fuel_color":"#ffdd00","_category":"ipp"},"geometry":{"type":"Point","coordinates":[140.123329,36.724806]}},{"type":"Feature","properties":{"_region":"tokyo","_region_ja":"東京","_display_name":"那須烏山メガソーラー発電所","fuel_type":"solar","capacity_mw":47.5,"_fuel_color":"#ffdd00","_category":"ipp"},"geometry":{"type":"Point","coordinates":[140.210966,36.654345]}},{"type":"Feature","properties":{"_region":"tokyo","_region_ja":"東京","_display_name":"パシフィコ・エナジー佐野メガソーラー発電所","fuel_type":"solar","capacity_mw":53.9,"_fuel_color":"#ffdd00","_category":"ipp"},"geometry":{"type":"Point","coordinates":[139.511405,36.380643]}},{"type":"Feature","properties":{"_region":"tokyo","_region_ja":"東京","_display_name":"佐野ソーラーウェイ","fuel_type":"solar","capacity_mw":16.6,"_fuel_color":"#ffdd00","_category":"ipp"},"geometry":{"type":"Point","coordinates":[139.571767,36.44148]}},{"type":"Feature","properties":{"_region":"tokyo","_region_ja":"東京","_display_name":"常陸大宮太陽光発電所","fuel_type":"solar","capacity_mw":41.0,"_fuel_color":"#ffdd00","_category":"ipp"},"geometry":{"type":"Point","coordinates":[140.374957,36.605971]}},{"type":"Feature","properties":{"_region":"tokyo","_region_ja":"東京","_display_name":"plant_441375468","fuel_type":"hydro","capacity_mw":null,"_fuel_color":"#0088ff","_category":"ipp"},"geometry":{"type":"Point","coordinates":[139.113894,35.232541]}},{"type":"Feature","properties":{"_region":"tokyo","_region_ja":"東京","_display_name":"plant_443684725","fuel_type":"unknown","capacity_mw":null,"_fuel_color":"#999999","_category":"ipp"},"geometry":{"type":"Point","coordinates":[138.677623,35.686272]}},{"type":"Feature","properties":{"_region":"tokyo","_region_ja":"東京","_display_name":"plant_443691105","fuel_type":"unknown","capacity_mw":null,"_fuel_color":"#999999","_category":"ipp"},"geometry":{"type":"Point","coordinates":[138.691326,35.687946]}},{"type":"Feature","properties":{"_region":"tokyo","_region_ja":"東京","_display_name":"plant_443691213","fuel_type":"unknown","capacity_mw":null,"_fuel_color":"#999999","_category":"ipp"},"geometry":{"type":"Point","coordinates":[138.69689,35.691316]}},{"type":"Feature","properties":{"_region":"tokyo","_region_ja":"東京","_display_name":"plant_443701623","fuel_type":"unknown","capacity_mw":null,"_fuel_color":"#999999","_category":"ipp"},"geometry":{"type":"Point","coordinates":[138.723786,35.705949]}},{"type":"Feature","properties":{"_region":"tokyo","_region_ja":"東京","_display_name":"plant_443718781","fuel_type":"unknown","capacity_mw":null,"_fuel_color":"#999999","_category":"ipp"},"geometry":{"type":"Point","coordinates":[138.740862,35.704828]}},{"type":"Feature","properties":{"_region":"tokyo","_region_ja":"東京","_display_name":"田口発電所","fuel_type":"hydro","capacity_mw":6.0,"_fuel_color":"#0088ff","_category":"ipp"},"geometry":{"type":"Point","coordinates":[139.04315,36.451039]}},{"type":"Feature","properties":{"_region":"tokyo","_region_ja":"東京","_display_name":"群馬県坂東発電事務所","fuel_type":"hydro","capacity_mw":null,"_fuel_color":"#0088ff","_category":"ipp"},"geometry":{"type":"Point","coordinates":[139.042898,36.451154]}},{"type":"Feature","properties":{"_region":"tokyo","_region_ja":"東京","_display_name":"plant_499421150","fuel_type":"unknown","capacity_mw":null,"_fuel_color":"#999999","_category":"ipp"},"geometry":{"type":"Point","coordinates":[139.38915,36.309081]}},{"type":"Feature","properties":{"_region":"tokyo","_region_ja":"東京","_display_name":"plant_499932514","fuel_type":"unknown","capacity_mw":null,"_fuel_color":"#999999","_category":"ipp"},"geometry":{"type":"Point","coordinates":[139.393452,36.300554]}},{"type":"Feature","properties":{"_region":"tokyo","_region_ja":"東京","_display_name":"plant_501281299","fuel_type":"unknown","capacity_mw":null,"_fuel_color":"#999999","_category":"ipp"},"geometry":{"type":"Point","coordinates":[139.943136,36.622113]}},{"type":"Feature","properties":{"_region":"tokyo","_region_ja":"東京","_display_name":"宇都宮北太陽光発電所","fuel_type":"solar","capacity_mw":18.8,"_fuel_color":"#ffdd00","_category":"ipp"},"geometry":{"type":"Point","coordinates":[139.897548,36.62679]}},{"type":"Feature","properties":{"_region":"tokyo","_region_ja":"東京","_display_name":"plant_501283547","fuel_type":"unknown","capacity_mw":null,"_fuel_color":"#999999","_category":"ipp"},"geometry":{"type":"Point","coordinates":[139.936818,36.686864]}},{"type":"Feature","properties":{"_region":"tokyo","_region_ja":"東京","_display_name":"氷川発電所","fuel_type":"hydro","capacity_mw":8.2,"_fuel_color":"#0088ff","_category":"ipp"},"geometry":{"type":"Point","coordinates":[139.110062,35.802241]}},{"type":"Feature","properties":{"_region":"tokyo","_region_ja":"東京","_display_name":"太陽光","fuel_type":"unknown","capacity_mw":null,"_fuel_color":"#999999","_category":"ipp"},"geometry":{"type":"Point","coordinates":[140.147746,36.058405]}},{"type":"Feature","properties":{"_region":"tokyo","_region_ja":"東京","_display_name":"川治第二発電所","fuel_type":"hydro","capacity_mw":2.6,"_fuel_color":"#0088ff","_category":"ipp"},"geometry":{"type":"Point","coordinates":[139.702317,36.873252]}},{"type":"Feature","properties":{"_region":"tokyo","_region_ja":"東京","_display_name":"plant_553861624","fuel_type":"unknown","capacity_mw":null,"_fuel_color":"#999999","_category":"ipp"},"geometry":{"type":"Point","coordinates":[139.506676,36.299017]}},{"type":"Feature","properties":{"_region":"tokyo","_region_ja":"東京","_display_name":"plant_555417586","fuel_type":"unknown","capacity_mw":null,"_fuel_color":"#999999","_category":"ipp"},"geometry":{"type":"Point","coordinates":[139.413585,36.341142]}},{"type":"Feature","properties":{"_region":"tokyo","_region_ja":"東京","_display_name":"plant_557899965","fuel_type":"unknown","capacity_mw":null,"_fuel_color":"#999999","_category":"ipp"},"geometry":{"type":"Point","coordinates":[139.390304,36.37912]}},{"type":"Feature","properties":{"_region":"tokyo","_region_ja":"東京","_display_name":"plant_559696875","fuel_type":"unknown","capacity_mw":null,"_fuel_color":"#999999","_category":"ipp"},"geometry":{"type":"Point","coordinates":[138.846212,36.361331]}},{"type":"Feature","properties":{"_region":"tokyo","_region_ja":"東京","_display_name":"畑宿発電所","fuel_type":"hydro","capacity_mw":null,"_fuel_color":"#0088ff","_category":"ipp"},"geometry":{"type":"Point","coordinates":[139.068563,35.216589]}},{"type":"Feature","properties":{"_region":"tokyo","_region_ja":"東京","_display_name":"plant_570460370","fuel_type":"unknown","capacity_mw":null,"_fuel_color":"#999999","_category":"ipp"},"geometry":{"type":"Point","coordinates":[139.635837,35.223415]}},{"type":"Feature","properties":{"_region":"tokyo","_region_ja":"東京","_display_name":"plant_585534780","fuel_type":"unknown","capacity_mw":null,"_fuel_color":"#999999","_category":"ipp"},"geometry":{"type":"Point","coordinates":[140.269288,35.81765]}},{"type":"Feature","properties":{"_region":"tokyo","_region_ja":"東京","_display_name":"plant_585791367","fuel_type":"unknown","capacity_mw":null,"_fuel_color":"#999999","_category":"ipp"},"geometry":{"type":"Point","coordinates":[140.111992,35.863047]}},{"type":"Feature","properties":{"_region":"tokyo","_region_ja":"東京","_display_name":"plant_586057984","fuel_type":"gsimaps/ort","capacity_mw":null,"_fuel_color":"#999999","_category":"ipp"},"geometry":{"type":"Point","coordinates":[138.618028,36.809538]}},{"type":"Feature","properties":{"_region":"tokyo","_region_ja":"東京","_display_name":"切明発電所","fuel_type":"hydro","capacity_mw":null,"_fuel_color":"#0088ff","_category":"ipp"},"geometry":{"type":"Point","coordinates":[138.618727,36.80872]}},{"type":"Feature","properties":{"_region":"tokyo","_region_ja":"東京","_display_name":"扇島パワーステーション","fuel_type":"gas","capacity_mw":1221.3,"_fuel_color":"#ff8800","_category":"ipp"},"geometry":{"type":"Point","coordinates":[139.702373,35.47915]}},{"type":"Feature","properties":{"_region":"tokyo","_region_ja":"東京","_display_name":"plant_591721433","fuel_type":"unknown","capacity_mw":null,"_fuel_color":"#999999","_category":"ipp"},"geometry":{"type":"Point","coordinates":[138.510413,36.457512]}},{"type":"Feature","properties":{"_region":"tokyo","_region_ja":"東京","_display_name":"plant_601173907","fuel_type":"unknown","capacity_mw":null,"_fuel_color":"#999999","_category":"ipp"},"geometry":{"type":"Point","coordinates":[139.002149,36.505264]}},{"type":"Feature","properties":{"_region":"tokyo","_region_ja":"東京","_display_name":"plant_601305383","fuel_type":"unknown","capacity_mw":null,"_fuel_color":"#999999","_category":"ipp"},"geometry":{"type":"Point","coordinates":[138.853072,36.585112]}},{"type":"Feature","properties":{"_region":"tokyo","_region_ja":"東京","_display_name":"plant_601305390","fuel_type":"unknown","capacity_mw":null,"_fuel_color":"#999999","_category":"ipp"},"geometry":{"type":"Point","coordinates":[138.860229,36.585144]}},{"type":"Feature","properties":{"_region":"tokyo","_region_ja":"東京","_display_name":"plant_601401989","fuel_type":"unknown","capacity_mw":null,"_fuel_color":"#999999","_category":"ipp"},"geometry":{"type":"Point","coordinates":[138.840512,36.584028]}},{"type":"Feature","properties":{"_region":"tokyo","_region_ja":"東京","_display_name":"plant_602747150","fuel_type":"unknown","capacity_mw":null,"_fuel_color":"#999999","_category":"ipp"},"geometry":{"type":"Point","coordinates":[138.770117,36.558343]}},{"type":"Feature","properties":{"_region":"tokyo","_region_ja":"東京","_display_name":"plant_605745524","fuel_type":"unknown","capacity_mw":null,"_fuel_color":"#999999","_category":"ipp"},"geometry":{"type":"Point","coordinates":[138.608637,36.559423]}},{"type":"Feature","properties":{"_region":"tokyo","_region_ja":"東京","_display_name":"plant_605937590","fuel_type":"unknown","capacity_mw":null,"_fuel_color":"#999999","_category":"ipp"},"geometry":{"type":"Point","coordinates":[138.840492,36.584406]}},{"type":"Feature","properties":{"_region":"tokyo","_region_ja":"東京","_display_name":"SGET神栖メガソーラー","fuel_type":"solar","capacity_mw":20.5,"_fuel_color":"#ffdd00","_category":"ipp"},"geometry":{"type":"Point","coordinates":[140.724291,35.851085]}},{"type":"Feature","properties":{"_region":"tokyo","_region_ja":"東京","_display_name":"鹿島南共同発電所","fuel_type":"gas","capacity_mw":318.6,"_fuel_color":"#ff8800","_category":"ipp"},"geometry":{"type":"Point","coordinates":[140.69969,35.886625]}},{"type":"Feature","properties":{"_region":"tokyo","_region_ja":"東京","_display_name":"JFE扇島火力発電所","fuel_type":"gas","capacity_mw":494.5,"_fuel_color":"#ff8800","_category":"ipp"},"geometry":{"type":"Point","coordinates":[139.717875,35.483077]}},{"type":"Feature","properties":{"_region":"tokyo","_region_ja":"東京","_display_name":"plant_626398306","fuel_type":"unknown","capacity_mw":null,"_fuel_color":"#999999","_category":"ipp"},"geometry":{"type":"Point","coordinates":[139.327669,35.443743]}},{"type":"Feature","properties":{"_region":"tokyo","_region_ja":"東京","_display_name":"plant_628565320","fuel_type":"unknown","capacity_mw":null,"_fuel_color":"#999999","_category":"ipp"},"geometry":{"type":"Point","coordinates":[139.307343,35.391439]}},{"type":"Feature","properties":{"_region":"tokyo","_region_ja":"東京","_display_name":"plant_628565321","fuel_type":"unknown","capacity_mw":null,"_fuel_color":"#999999","_category":"ipp"},"geometry":{"type":"Point","coordinates":[139.30736,35.391373]}},{"type":"Feature","properties":{"_region":"tokyo","_region_ja":"東京","_display_name":"plant_628565322","fuel_type":"unknown","capacity_mw":null,"_fuel_color":"#999999","_category":"ipp"},"geometry":{"type":"Point","coordinates":[139.307374,35.391307]}},{"type":"Feature","properties":{"_region":"tokyo","_region_ja":"東京","_display_name":"plant_628566186","fuel_type":"unknown","capacity_mw":null,"_fuel_color":"#999999","_category":"ipp"},"geometry":{"type":"Point","coordinates":[139.327567,35.443897]}},{"type":"Feature","properties":{"_region":"tokyo","_region_ja":"東京","_display_name":"plant_628566187","fuel_type":"unknown","capacity_mw":null,"_fuel_color":"#999999","_category":"ipp"},"geometry":{"type":"Point","coordinates":[139.327563,35.443854]}},{"type":"Feature","properties":{"_region":"tokyo","_region_ja":"東京","_display_name":"plant_628566188","fuel_type":"unknown","capacity_mw":null,"_fuel_color":"#999999","_category":"ipp"},"geometry":{"type":"Point","coordinates":[139.327563,35.443807]}},{"type":"Feature","properties":{"_region":"tokyo","_region_ja":"東京","_display_name":"plant_628566189","fuel_type":"unknown","capacity_mw":null,"_fuel_color":"#999999","_category":"ipp"},"geometry":{"type":"Point","coordinates":[139.327564,35.443759]}},{"type":"Feature","properties":{"_region":"tokyo","_region_ja":"東京","_display_name":"plant_628566190","fuel_type":"unknown","capacity_mw":null,"_fuel_color":"#999999","_category":"ipp"},"geometry":{"type":"Point","coordinates":[139.327564,35.44371]}},{"type":"Feature","properties":{"_region":"tokyo","_region_ja":"東京","_display_name":"plant_628566191","fuel_type":"unknown","capacity_mw":null,"_fuel_color":"#999999","_category":"ipp"},"geometry":{"type":"Point","coordinates":[139.327779,35.443694]}},{"type":"Feature","properties":{"_region":"tokyo","_region_ja":"東京","_display_name":"plant_628566192","fuel_type":"unknown","capacity_mw":null,"_fuel_color":"#999999","_category":"ipp"},"geometry":{"type":"Point","coordinates":[139.327772,35.443744]}},{"type":"Feature","properties":{"_region":"tokyo","_region_ja":"東京","_display_name":"plant_628566193","fuel_type":"unknown","capacity_mw":null,"_fuel_color":"#999999","_category":"ipp"},"geometry":{"type":"Point","coordinates":[139.327772,35.443797]}},{"type":"Feature","properties":{"_region":"tokyo","_region_ja":"東京","_display_name":"plant_628566194","fuel_type":"unknown","capacity_mw":null,"_fuel_color":"#999999","_category":"ipp"},"geometry":{"type":"Point","coordinates":[139.327761,35.443851]}},{"type":"Feature","properties":{"_region":"tokyo","_region_ja":"東京","_display_name":"plant_628566195","fuel_type":"unknown","capacity_mw":null,"_fuel_color":"#999999","_category":"ipp"},"geometry":{"type":"Point","coordinates":[139.327735,35.443893]}},{"type":"Feature","properties":{"_region":"tokyo","_region_ja":"東京","_display_name":"plant_628566196","fuel_type":"unknown","capacity_mw":null,"_fuel_color":"#999999","_category":"ipp"},"geometry":{"type":"Point","coordinates":[139.327775,35.443642]}},{"type":"Feature","properties":{"_region":"tokyo","_region_ja":"東京","_display_name":"plant_628566197","fuel_type":"unknown","capacity_mw":null,"_fuel_color":"#999999","_category":"ipp"},"geometry":{"type":"Point","coordinates":[139.327557,35.443649]}},{"type":"Feature","properties":{"_region":"tokyo","_region_ja":"東京","_display_name":"plant_629314610","fuel_type":"unknown","capacity_mw":null,"_fuel_color":"#999999","_category":"ipp"},"geometry":{"type":"Point","coordinates":[139.309439,36.33025]}},{"type":"Feature","properties":{"_region":"tokyo","_region_ja":"東京","_display_name":"plant_629314611","fuel_type":"unknown","capacity_mw":null,"_fuel_color":"#999999","_category":"ipp"},"geometry":{"type":"Point","coordinates":[139.310355,36.330922]}},{"type":"Feature","properties":{"_region":"tokyo","_region_ja":"東京","_display_name":"清掃リサイクルセンター21","fuel_type":"waste","capacity_mw":-1.0,"_fuel_color":"#996633","_category":"ipp"},"geometry":{"type":"Point","coordinates":[139.162241,36.299075]}},{"type":"Feature","properties":{"_region":"tokyo","_region_ja":"東京","_display_name":"plant_634092001","fuel_type":"unknown","capacity_mw":null,"_fuel_color":"#999999","_category":"ipp"},"geometry":{"type":"Point","coordinates":[139.80895,36.358133]}},{"type":"Feature","properties":{"_region":"tokyo","_region_ja":"東京","_display_name":"plant_634092051","fuel_type":"unknown","capacity_mw":null,"_fuel_color":"#999999","_category":"ipp"},"geometry":{"type":"Point","coordinates":[139.804437,36.34723]}},{"type":"Feature","properties":{"_region":"tokyo","_region_ja":"東京","_display_name":"plant_636820095","fuel_type":"unknown","capacity_mw":null,"_fuel_color":"#999999","_category":"ipp"},"geometry":{"type":"Point","coordinates":[139.755343,36.46139]}},{"type":"Feature","properties":{"_region":"tokyo","_region_ja":"東京","_display_name":"plant_637128022","fuel_type":"unknown","capacity_mw":null,"_fuel_color":"#999999","_category":"ipp"},"geometry":{"type":"Point","coordinates":[139.730209,36.478923]}},{"type":"Feature","properties":{"_region":"tokyo","_region_ja":"東京","_display_name":"川越市資源化センター発電所","fuel_type":"waste","capacity_mw":-1.0,"_fuel_color":"#996633","_category":"ipp"},"geometry":{"type":"Point","coordinates":[139.4543,35.941791]}},{"type":"Feature","properties":{"_region":"tokyo","_region_ja":"東京","_display_name":"資源循環局鶴見工場発電所","fuel_type":"waste","capacity_mw":-1.0,"_fuel_color":"#996633","_category":"ipp"},"geometry":{"type":"Point","coordinates":[139.690843,35.480885]}},{"type":"Feature","properties":{"_region":"tokyo","_region_ja":"東京","_display_name":"坂戸市西清掃センター","fuel_type":"waste","capacity_mw":null,"_fuel_color":"#996633","_category":"ipp"},"geometry":{"type":"Point","coordinates":[139.376646,35.971577]}},{"type":"Feature","properties":{"_region":"tokyo","_region_ja":"東京","_display_name":"plant_653970305","fuel_type":"unknown","capacity_mw":null,"_fuel_color":"#999999","_category":"ipp"},"geometry":{"type":"Point","coordinates":[139.29438,35.437595]}},{"type":"Feature","properties":{"_region":"tokyo","_region_ja":"東京","_display_name":"plant_682580255","fuel_type":"unknown","capacity_mw":null,"_fuel_color":"#999999","_category":"ipp"},"geometry":{"type":"Point","coordinates":[139.274954,36.276846]}},{"type":"Feature","properties":{"_region":"tokyo","_region_ja":"東京","_display_name":"筑西広域市町村圏事務組合環境センター発電所","fuel_type":"biomass","capacity_mw":-1.0,"_fuel_color":"#668833","_category":"ipp"},"geometry":{"type":"Point","coordinates":[139.901392,36.295446]}},{"type":"Feature","properties":{"_region":"tokyo","_region_ja":"東京","_display_name":"plant_700606593","fuel_type":"unknown","capacity_mw":null,"_fuel_color":"#999999","_category":"ipp"},"geometry":{"type":"Point","coordinates":[139.216097,36.451025]}},{"type":"Feature","properties":{"_region":"tokyo","_region_ja":"東京","_display_name":"plant_700608330","fuel_type":"unknown","capacity_mw":null,"_fuel_color":"#999999","_category":"ipp"},"geometry":{"type":"Point","coordinates":[139.211302,36.464593]}},{"type":"Feature","properties":{"_region":"tokyo","_region_ja":"東京","_display_name":"plant_700744385","fuel_type":"unknown","capacity_mw":null,"_fuel_color":"#999999","_category":"ipp"},"geometry":{"type":"Point","coordinates":[139.223763,36.446583]}},{"type":"Feature","properties":{"_region":"tokyo","_region_ja":"東京","_display_name":"plant_700794412","fuel_type":"unknown","capacity_mw":null,"_fuel_color":"#999999","_category":"ipp"},"geometry":{"type":"Point","coordinates":[139.244012,36.383139]}},{"type":"Feature","properties":{"_region":"tokyo","_region_ja":"東京","_display_name":"plant_701260381","fuel_type":"unknown","capacity_mw":null,"_fuel_color":"#999999","_category":"ipp"},"geometry":{"type":"Point","coordinates":[139.245584,36.374191]}},{"type":"Feature","properties":{"_region":"tokyo","_region_ja":"東京","_display_name":"plant_701981412","fuel_type":"unknown","capacity_mw":null,"_fuel_color":"#999999","_category":"ipp"},"geometry":{"type":"Point","coordinates":[139.257215,36.383298]}},{"type":"Feature","properties":{"_region":"tokyo","_region_ja":"東京","_display_name":"真岡発電所","fuel_type":"gas","capacity_mw":1248.0,"_fuel_color":"#ff8800","_category":"ipp"},"geometry":{"type":"Point","coordinates":[139.9739,36.457486]}},{"type":"Feature","properties":{"_region":"tokyo","_region_ja":"東京","_display_name":"那須塩原ソーラー","fuel_type":"solar","capacity_mw":26.2,"_fuel_color":"#ffdd00","_category":"ipp"},"geometry":{"type":"Point","coordinates":[139.955553,36.937362]}},{"type":"Feature","properties":{"_region":"tokyo","_region_ja":"東京","_display_name":"plant_705849384","fuel_type":"unknown","capacity_mw":null,"_fuel_color":"#999999","_category":"ipp"},"geometry":{"type":"Point","coordinates":[139.267378,36.385249]}},{"type":"Feature","properties":{"_region":"tokyo","_region_ja":"東京","_display_name":"plant_705849385","fuel_type":"unknown","capacity_mw":null,"_fuel_color":"#999999","_category":"ipp"},"geometry":{"type":"Point","coordinates":[139.267396,36.385725]}},{"type":"Feature","properties":{"_region":"tokyo","_region_ja":"東京","_display_name":"細尾発電所","fuel_type":"hydro","capacity_mw":15.7,"_fuel_color":"#0088ff","_category":"ipp"},"geometry":{"type":"Point","coordinates":[139.542667,36.72742]}},{"type":"Feature","properties":{"_region":"tokyo","_region_ja":"東京","_display_name":"グリーンパワー富津太陽光発電所","fuel_type":"solar","capacity_mw":42.2,"_fuel_color":"#ffdd00","_category":"ipp"},"geometry":{"type":"Point","coordinates":[139.894607,35.244808]}},{"type":"Feature","properties":{"_region":"tokyo","_region_ja":"東京","_display_name":"富津ソーラー","fuel_type":"solar","capacity_mw":40.4,"_fuel_color":"#ffdd00","_category":"ipp"},"geometry":{"type":"Point","coordinates":[139.896105,35.236735]}},{"type":"Feature","properties":{"_region":"tokyo","_region_ja":"東京","_display_name":"道志第一発電所","fuel_type":"hydro","capacity_mw":10.5,"_fuel_color":"#0088ff","_category":"ipp"},"geometry":{"type":"Point","coordinates":[139.142597,35.592957]}},{"type":"Feature","properties":{"_region":"tokyo","_region_ja":"東京","_display_name":"plant_736504710","fuel_type":"unknown","capacity_mw":null,"_fuel_color":"#999999","_category":"ipp"},"geometry":{"type":"Point","coordinates":[139.559814,36.285914]}},{"type":"Feature","properties":{"_region":"tokyo","_region_ja":"東京","_display_name":"神栖火力発電所","fuel_type":"coal","capacity_mw":112.0,"_fuel_color":"#444444","_category":"ipp"},"geometry":{"type":"Point","coordinates":[140.703676,35.908013]}},{"type":"Feature","properties":{"_region":"tokyo","_region_ja":"東京","_display_name":"日本製鉄鹿島火力発電所","fuel_type":"coal","capacity_mw":1152.0,"_fuel_color":"#444444","_category":"ipp"},"geometry":{"type":"Point","coordinates":[140.689092,35.950181]}},{"type":"Feature","properties":{"_region":"tokyo","_region_ja":"東京","_display_name":"plant_758937139","fuel_type":"unknown","capacity_mw":null,"_fuel_color":"#999999","_category":"ipp"},"geometry":{"type":"Point","coordinates":[139.43615,36.329456]}},{"type":"Feature","properties":{"_region":"tokyo","_region_ja":"東京","_display_name":"Mihama Seaside Power Station","fuel_type":"biomass","capacity_mw":-1.0,"_fuel_color":"#668833","_category":"ipp"},"geometry":{"type":"Point","coordinates":[140.076617,35.607327]}},{"type":"Feature","properties":{"_region":"tokyo","_region_ja":"東京","_display_name":"八王子市北野清掃工場","fuel_type":"waste","capacity_mw":-1.0,"_fuel_color":"#996633","_category":"ipp"},"geometry":{"type":"Point","coordinates":[139.353248,35.655265]}},{"type":"Feature","properties":{"_region":"tokyo","_region_ja":"東京","_display_name":"上室田第５発電所","fuel_type":"solar","capacity_mw":49.9,"_fuel_color":"#ffdd00","_category":"ipp"},"geometry":{"type":"Point","coordinates":[138.840296,36.401741]}},{"type":"Feature","properties":{"_region":"tokyo","_region_ja":"東京","_display_name":"上室田第１～３発電所","fuel_type":"solar","capacity_mw":120.0,"_fuel_color":"#ffdd00","_category":"ipp"},"geometry":{"type":"Point","coordinates":[138.840723,36.402298]}},{"type":"Feature","properties":{"_region":"tokyo","_region_ja":"東京","_display_name":"津久井発電所","fuel_type":"hydro","capacity_mw":-1.0,"_fuel_color":"#0088ff","_category":"ipp"},"geometry":{"type":"Point","coordinates":[139.294269,35.589384]}},{"type":"Feature","properties":{"_region":"tokyo","_region_ja":"東京","_display_name":"高浜発電所","fuel_type":"solar","capacity_mw":25.0,"_fuel_color":"#ffdd00","_category":"ipp"},"geometry":{"type":"Point","coordinates":[138.932589,36.372116]}},{"type":"Feature","properties":{"_region":"tokyo","_region_ja":"東京","_display_name":"高浜発電所","fuel_type":"solar","capacity_mw":25.0,"_fuel_color":"#ffdd00","_category":"ipp"},"geometry":{"type":"Point","coordinates":[138.932668,36.371744]}},{"type":"Feature","properties":{"_region":"tokyo","_region_ja":"東京","_display_name":"高浜発電所","fuel_type":"solar","capacity_mw":25.0,"_fuel_color":"#ffdd00","_category":"ipp"},"geometry":{"type":"Point","coordinates":[138.933774,36.371175]}},{"type":"Feature","properties":{"_region":"tokyo","_region_ja":"東京","_display_name":"高浜発電所","fuel_type":"solar","capacity_mw":25.0,"_fuel_color":"#ffdd00","_category":"ipp"},"geometry":{"type":"Point","coordinates":[138.931908,36.368173]}},{"type":"Feature","properties":{"_region":"tokyo","_region_ja":"東京","_display_name":"東京発電株式会社 狩宿発電所","fuel_type":"hydro","capacity_mw":-1.0,"_fuel_color":"#0088ff","_category":"ipp"},"geometry":{"type":"Point","coordinates":[138.585717,35.300483]}},{"type":"Feature","properties":{"_region":"tokyo","_region_ja":"東京","_display_name":"君津共同発電所","fuel_type":"gas","capacity_mw":1152.0,"_fuel_color":"#ff8800","_category":"ipp"},"geometry":{"type":"Point","coordinates":[139.860655,35.362932]}},{"type":"Feature","properties":{"_region":"tokyo","_region_ja":"東京","_display_name":"鹿島共同発電所","fuel_type":"coal","capacity_mw":1000.0,"_fuel_color":"#444444","_category":"ipp"},"geometry":{"type":"Point","coordinates":[140.688741,35.940387]}},{"type":"Feature","properties":{"_region":"tokyo","_region_ja":"東京","_display_name":"安中市太陽光発電所","fuel_type":"solar","capacity_mw":63.2,"_fuel_color":"#ffdd00","_category":"ipp"},"geometry":{"type":"Point","coordinates":[138.93604,36.309428]}},{"type":"Feature","properties":{"_region":"tokyo","_region_ja":"東京","_display_name":"鈴川エネルギーセンター","fuel_type":"coal","capacity_mw":100.0,"_fuel_color":"#444444","_category":"ipp"},"geometry":{"type":"Point","coordinates":[138.714696,35.143586]}},{"type":"Feature","properties":{"_region":"tokyo","_region_ja":"東京","_display_name":"日立造船 茨城工場","fuel_type":"gas","capacity_mw":225.8,"_fuel_color":"#ff8800","_category":"ipp"},"geometry":{"type":"Point","coordinates":[140.37993,36.539064]}},{"type":"Feature","properties":{"_region":"tokyo","_region_ja":"東京","_display_name":"Tokyo Gas Yokosuka Power Plant","fuel_type":"gas","capacity_mw":200.0,"_fuel_color":"#ff8800","_category":"ipp"},"geometry":{"type":"Point","coordinates":[139.644092,35.311496]}},{"type":"Feature","properties":{"_region":"tokyo","_region_ja":"東京","_display_name":"Hitachinaka - Katsuta Incineration Plant","fuel_type":"unknown","capacity_mw":null,"_fuel_color":"#999999","_category":"ipp"},"geometry":{"type":"Point","coordinates":[140.571444,36.380624]}},{"type":"Feature","properties":{"_region":"tokyo","_region_ja":"東京","_display_name":"日本テクノ袖ケ浦グリーンパワー","fuel_type":"gas","capacity_mw":109.2,"_fuel_color":"#ff8800","_category":"ipp"},"geometry":{"type":"Point","coordinates":[139.963508,35.451298]}},{"type":"Feature","properties":{"_region":"tokyo","_region_ja":"東京","_display_name":"駿河台大学発電所","fuel_type":"unknown","capacity_mw":null,"_fuel_color":"#999999","_category":"ipp"},"geometry":{"type":"Point","coordinates":[139.338384,35.828565]}},{"type":"Feature","properties":{"_region":"tokyo","_region_ja":"東京","_display_name":"plant_979796136","fuel_type":"hydro","capacity_mw":null,"_fuel_color":"#0088ff","_category":"ipp"},"geometry":{"type":"Point","coordinates":[139.059556,35.24742]}},{"type":"Feature","properties":{"_region":"tokyo","_region_ja":"東京","_display_name":"クリーンパーク茂原","fuel_type":"waste","capacity_mw":-1.0,"_fuel_color":"#996633","_category":"ipp"},"geometry":{"type":"Point","coordinates":[139.874114,36.466969]}},{"type":"Feature","properties":{"_region":"tokyo","_region_ja":"東京","_display_name":"クリーンパーク茂原","fuel_type":"waste","capacity_mw":-1.0,"_fuel_color":"#996633","_category":"ipp"},"geometry":{"type":"Point","coordinates":[139.874285,36.467941]}},{"type":"Feature","properties":{"_region":"tokyo","_region_ja":"東京","_display_name":"清津川発電所","fuel_type":"hydro","capacity_mw":null,"_fuel_color":"#0088ff","_category":"ipp"},"geometry":{"type":"Point","coordinates":[138.774224,36.888107]}},{"type":"Feature","properties":{"_region":"tokyo","_region_ja":"東京","_display_name":"千葉香取メガソーラー発電所","fuel_type":"solar","capacity_mw":14.4,"_fuel_color":"#ffdd00","_category":"ipp"},"geometry":{"type":"Point","coordinates":[140.519993,35.864916]}},{"type":"Feature","properties":{"_region":"tokyo","_region_ja":"東京","_display_name":"ENEOS根岸製油所","fuel_type":"gas","capacity_mw":342.0,"_fuel_color":"#ff8800","_category":"ipp"},"geometry":{"type":"Point","coordinates":[139.644351,35.415234]}},{"type":"Feature","properties":{"_region":"tokyo","_region_ja":"東京","_display_name":"高津戸発電所","fuel_type":"hydro","capacity_mw":5.3,"_fuel_color":"#0088ff","_category":"ipp"},"geometry":{"type":"Point","coordinates":[139.279376,36.439322]}},{"type":"Feature","properties":{"_region":"tokyo","_region_ja":"東京","_display_name":"壬生ソーラーウェイ","fuel_type":"solar","capacity_mw":16.8,"_fuel_color":"#ffdd00","_category":"ipp"},"geometry":{"type":"Point","coordinates":[139.828849,36.428036]}},{"type":"Feature","properties":{"_region":"tokyo","_region_ja":"東京","_display_name":"壬生発電所","fuel_type":"biomass","capacity_mw":18.0,"_fuel_color":"#668833","_category":"ipp"},"geometry":{"type":"Point","coordinates":[139.808972,36.408077]}},{"type":"Feature","properties":{"_region":"tokyo","_region_ja":"東京","_display_name":"風見発電所","fuel_type":"hydro","capacity_mw":10.2,"_fuel_color":"#0088ff","_category":"ipp"},"geometry":{"type":"Point","coordinates":[139.856624,36.738137]}},{"type":"Feature","properties":{"_region":"tokyo","_region_ja":"東京","_display_name":"芳賀ソーラーパワー","fuel_type":"solar","capacity_mw":13.0,"_fuel_color":"#ffdd00","_category":"ipp"},"geometry":{"type":"Point","coordinates":[140.013084,36.55718]}},{"type":"Feature","properties":{"_region":"tokyo","_region_ja":"東京","_display_name":"川治第一発電所","fuel_type":"hydro","capacity_mw":15.3,"_fuel_color":"#0088ff","_category":"ipp"},"geometry":{"type":"Point","coordinates":[139.701329,36.894705]}},{"type":"Feature","properties":{"_region":"tokyo","_region_ja":"東京","_display_name":"足尾発電所","fuel_type":"hydro","capacity_mw":10.0,"_fuel_color":"#0088ff","_category":"ipp"},"geometry":{"type":"Point","coordinates":[139.412765,36.616369]}},{"type":"Feature","properties":{"_region":"tokyo","_region_ja":"東京","_display_name":"小百川発電所","fuel_type":"hydro","capacity_mw":0.2,"_fuel_color":"#0088ff","_category":"ipp"},"geometry":{"type":"Point","coordinates":[139.636946,36.797096]}},{"type":"Feature","properties":{"_region":"tokyo","_region_ja":"東京","_display_name":"馬道発電所","fuel_type":"hydro","capacity_mw":7.7,"_fuel_color":"#0088ff","_category":"ipp"},"geometry":{"type":"Point","coordinates":[139.5133,36.742954]}},{"type":"Feature","properties":{"_region":"tokyo","_region_ja":"東京","_display_name":"上の代発電所","fuel_type":"hydro","capacity_mw":5.9,"_fuel_color":"#0088ff","_category":"ipp"},"geometry":{"type":"Point","coordinates":[139.572675,36.742197]}},{"type":"Feature","properties":{"_region":"tokyo","_region_ja":"東京","_display_name":"小網発電所","fuel_type":"hydro","capacity_mw":0.1,"_fuel_color":"#0088ff","_category":"ipp"},"geometry":{"type":"Point","coordinates":[139.702759,36.883697]}},{"type":"Feature","properties":{"_region":"tokyo","_region_ja":"東京","_display_name":"東荒川発電所","fuel_type":"hydro","capacity_mw":0.6,"_fuel_color":"#0088ff","_category":"ipp"},"geometry":{"type":"Point","coordinates":[139.829472,36.847174]}},{"type":"Feature","properties":{"_region":"tokyo","_region_ja":"東京","_display_name":"寺山ダム発電所","fuel_type":"hydro","capacity_mw":0.2,"_fuel_color":"#0088ff","_category":"ipp"},"geometry":{"type":"Point","coordinates":[139.865825,36.847192]}},{"type":"Feature","properties":{"_region":"tokyo","_region_ja":"東京","_display_name":"沢入発電所","fuel_type":"hydro","capacity_mw":1.1,"_fuel_color":"#0088ff","_category":"ipp"},"geometry":{"type":"Point","coordinates":[139.388815,36.575724]}},{"type":"Feature","properties":{"_region":"tokyo","_region_ja":"東京","_display_name":"東発電所","fuel_type":"hydro","capacity_mw":20.3,"_fuel_color":"#0088ff","_category":"ipp"},"geometry":{"type":"Point","coordinates":[139.372784,36.540893]}},{"type":"Feature","properties":{"_region":"tokyo","_region_ja":"東京","_display_name":"東第二発電所","fuel_type":"hydro","capacity_mw":0.2,"_fuel_color":"#0088ff","_category":"ipp"},"geometry":{"type":"Point","coordinates":[139.372339,36.540374]}},{"type":"Feature","properties":{"_region":"tokyo","_region_ja":"東京","_display_name":"小平発電所","fuel_type":"hydro","capacity_mw":36.2,"_fuel_color":"#0088ff","_category":"ipp"},"geometry":{"type":"Point","coordinates":[139.297824,36.466109]}},{"type":"Feature","properties":{"_region":"tokyo","_region_ja":"東京","_display_name":"大田原寒井第一太陽光発電所","fuel_type":"solar","capacity_mw":14.0,"_fuel_color":"#ffdd00","_category":"ipp"},"geometry":{"type":"Point","coordinates":[140.107015,36.906964]}},{"type":"Feature","properties":{"_region":"tokyo","_region_ja":"東京","_display_name":"SGET大田原メガソーラー","fuel_type":"solar","capacity_mw":25.1,"_fuel_color":"#ffdd00","_category":"ipp"},"geometry":{"type":"Point","coordinates":[140.169694,36.920616]}},{"type":"Feature","properties":{"_region":"tokyo","_region_ja":"東京","_display_name":"SJソーラーつくば発電所","fuel_type":"solar","capacity_mw":35.0,"_fuel_color":"#ffdd00","_category":"ipp"},"geometry":{"type":"Point","coordinates":[140.064554,36.163865]}},{"type":"Feature","properties":{"_region":"tokyo","_region_ja":"東京","_display_name":"エナリスパワー常陸那珂発電所","fuel_type":"biomass","capacity_mw":23.5,"_fuel_color":"#668833","_category":"ipp"},"geometry":{"type":"Point","coordinates":[140.585756,36.376845]}},{"type":"Feature","properties":{"_region":"tokyo","_region_ja":"東京","_display_name":"鹿島北共同発電所","fuel_type":"oil","capacity_mw":650.0,"_fuel_color":"#884400","_category":"ipp"},"geometry":{"type":"Point","coordinates":[140.688114,35.903464]}},{"type":"Feature","properties":{"_region":"tokyo","_region_ja":"東京","_display_name":"大林神栖バイオマス発電所","fuel_type":"biomass","capacity_mw":51.5,"_fuel_color":"#668833","_category":"ipp"},"geometry":{"type":"Point","coordinates":[140.708001,35.906609]}},{"type":"Feature","properties":{"_region":"tokyo","_region_ja":"東京","_display_name":"常陸那珂共同火力発電所","fuel_type":"coal","capacity_mw":650.0,"_fuel_color":"#444444","_category":"ipp"},"geometry":{"type":"Point","coordinates":[140.616884,36.437109]}},{"type":"Feature","properties":{"_region":"tokyo","_region_ja":"東京","_display_name":"里川発電所","fuel_type":"hydro","capacity_mw":0.7,"_fuel_color":"#0088ff","_category":"ipp"},"geometry":{"type":"Point","coordinates":[140.53741,36.638724]}},{"type":"Feature","properties":{"_region":"tokyo","_region_ja":"東京","_display_name":"賀美発電所","fuel_type":"hydro","capacity_mw":0.6,"_fuel_color":"#0088ff","_category":"ipp"},"geometry":{"type":"Point","coordinates":[140.520518,36.665608]}},{"type":"Feature","properties":{"_region":"tokyo","_region_ja":"東京","_display_name":"小里川発電所","fuel_type":"hydro","capacity_mw":1.0,"_fuel_color":"#0088ff","_category":"ipp"},"geometry":{"type":"Point","coordinates":[140.48131,36.785653]}},{"type":"Feature","properties":{"_region":"tokyo","_region_ja":"東京","_display_name":"宮の郷木質バイオマス発電所","fuel_type":"biomass","capacity_mw":5.8,"_fuel_color":"#668833","_category":"ipp"},"geometry":{"type":"Point","coordinates":[140.447902,36.546816]}},{"type":"Feature","properties":{"_region":"tokyo","_region_ja":"東京","_display_name":"那珂瓦斯発電所","fuel_type":"gas","capacity_mw":110.0,"_fuel_color":"#ff8800","_category":"ipp"},"geometry":{"type":"Point","coordinates":[140.525952,36.473875]}},{"type":"Feature","properties":{"_region":"tokyo","_region_ja":"東京","_display_name":"北浦複合団地太陽光発電所","fuel_type":"solar","capacity_mw":22.0,"_fuel_color":"#ffdd00","_category":"ipp"},"geometry":{"type":"Point","coordinates":[140.507223,36.10944]}},{"type":"Feature","properties":{"_region":"tokyo","_region_ja":"東京","_display_name":"石岡第一発電所","fuel_type":"hydro","capacity_mw":5.5,"_fuel_color":"#0088ff","_category":"ipp"},"geometry":{"type":"Point","coordinates":[140.679683,36.777351]}},{"type":"Feature","properties":{"_region":"tokyo","_region_ja":"東京","_display_name":"横川発電所","fuel_type":"hydro","capacity_mw":2.5,"_fuel_color":"#0088ff","_category":"ipp"},"geometry":{"type":"Point","coordinates":[140.651687,36.793697]}},{"type":"Feature","properties":{"_region":"tokyo","_region_ja":"東京","_display_name":"神栖パワープラント","fuel_type":"biomass","capacity_mw":38.9,"_fuel_color":"#668833","_category":"ipp"},"geometry":{"type":"Point","coordinates":[140.70721,35.907685]}},{"type":"Feature","properties":{"_region":"tokyo","_region_ja":"東京","_display_name":"前橋バイオマス発電所","fuel_type":"biomass","capacity_mw":6.8,"_fuel_color":"#668833","_category":"ipp"},"geometry":{"type":"Point","coordinates":[139.183174,36.470917]}},{"type":"Feature","properties":{"_region":"tokyo","_region_ja":"東京","_display_name":"小出発電所","fuel_type":"hydro","capacity_mw":8.4,"_fuel_color":"#0088ff","_category":"ipp"},"geometry":{"type":"Point","coordinates":[139.055412,36.412757]}},{"type":"Feature","properties":{"_region":"tokyo","_region_ja":"東京","_display_name":"関根発電所","fuel_type":"hydro","capacity_mw":7.8,"_fuel_color":"#0088ff","_category":"ipp"},"geometry":{"type":"Point","coordinates":[139.04603,36.435059]}},{"type":"Feature","properties":{"_region":"tokyo","_region_ja":"東京","_display_name":"吾妻木質バイオマス発電所","fuel_type":"biomass","capacity_mw":13.6,"_fuel_color":"#668833","_category":"ipp"},"geometry":{"type":"Point","coordinates":[138.942913,36.541976]}},{"type":"Feature","properties":{"_region":"tokyo","_region_ja":"東京","_display_name":"矢倉発電所","fuel_type":"hydro","capacity_mw":7.8,"_fuel_color":"#0088ff","_category":"ipp"},"geometry":{"type":"Point","coordinates":[138.650182,36.652013]}},{"type":"Feature","properties":{"_region":"tokyo","_region_ja":"東京","_display_name":"熊倉発電所","fuel_type":"hydro","capacity_mw":2.9,"_fuel_color":"#0088ff","_category":"ipp"},"geometry":{"type":"Point","coordinates":[138.605562,36.66371]}},{"type":"Feature","properties":{"_region":"tokyo","_region_ja":"東京","_display_name":"湯川発電所","fuel_type":"hydro","capacity_mw":8.2,"_fuel_color":"#0088ff","_category":"ipp"},"geometry":{"type":"Point","coordinates":[138.631006,36.603291]}},{"type":"Feature","properties":{"_region":"tokyo","_region_ja":"東京","_display_name":"下久保発電所","fuel_type":"hydro","capacity_mw":15.0,"_fuel_color":"#0088ff","_category":"ipp"},"geometry":{"type":"Point","coordinates":[139.023963,36.134628]}},{"type":"Feature","properties":{"_region":"tokyo","_region_ja":"東京","_display_name":"奈良俣発電所","fuel_type":"hydro","capacity_mw":12.8,"_fuel_color":"#0088ff","_category":"ipp"},"geometry":{"type":"Point","coordinates":[139.078019,36.877473]}},{"type":"Feature","properties":{"_region":"tokyo","_region_ja":"東京","_display_name":"東京ガスベイパワー","fuel_type":"gas","capacity_mw":102.9,"_fuel_color":"#ff8800","_category":"ipp"},"geometry":{"type":"Point","coordinates":[139.976196,35.470786]}},{"type":"Feature","properties":{"_region":"tokyo","_region_ja":"東京","_display_name":"Genex Mizue Power Plant","fuel_type":"gas","capacity_mw":276.0,"_fuel_color":"#ff8800","_category":"ipp"},"geometry":{"type":"Point","coordinates":[139.745833,35.514058]}},{"type":"Feature","properties":{"_region":"tokyo","_region_ja":"東京","_display_name":"株式会社カネカ 鹿島工場西地区 大規模太陽光発電所","fuel_type":"solar","capacity_mw":12.7,"_fuel_color":"#ffdd00","_category":"ipp"},"geometry":{"type":"Point","coordinates":[140.669706,35.905439]}},{"type":"Feature","properties":{"_region":"tokyo","_region_ja":"東京","_display_name":"川又発電所","fuel_type":"hydro","capacity_mw":3.2,"_fuel_color":"#0088ff","_category":"ipp"},"geometry":{"type":"Point","coordinates":[138.846657,35.93849]}},{"type":"Feature","properties":{"_region":"tokyo","_region_ja":"東京","_display_name":"滝沢発電所","fuel_type":"hydro","capacity_mw":3.4,"_fuel_color":"#0088ff","_category":"ipp"},"geometry":{"type":"Point","coordinates":[138.900542,35.956805]}},{"type":"Feature","properties":{"_region":"tokyo","_region_ja":"東京","_display_name":"宮平発電所","fuel_type":"hydro","capacity_mw":null,"_fuel_color":"#0088ff","_category":"ipp"},"geometry":{"type":"Point","coordinates":[138.932768,35.95062]}},{"type":"Feature","properties":{"_region":"tokyo","_region_ja":"東京","_display_name":"栃本発電所","fuel_type":"hydro","capacity_mw":4.5,"_fuel_color":"#0088ff","_category":"ipp"},"geometry":{"type":"Point","coordinates":[138.913134,35.945974]}},{"type":"Feature","properties":{"_region":"tokyo","_region_ja":"東京","_display_name":"二瀬発電所","fuel_type":"hydro","capacity_mw":5.2,"_fuel_color":"#0088ff","_category":"ipp"},"geometry":{"type":"Point","coordinates":[138.909952,35.941775]}},{"type":"Feature","properties":{"_region":"tokyo","_region_ja":"東京","_display_name":"大洞第二発電所","fuel_type":"hydro","capacity_mw":1.6,"_fuel_color":"#0088ff","_category":"ipp"},"geometry":{"type":"Point","coordinates":[138.964996,35.949727]}},