{"type":"FeatureCollection","features":[{"type":"Feature","properties":{"_region":"hokkaido","_region_ja":"北海道","_voltage_kv":275.0,"_display_name":"Ōno Substation"},"geometry":{"type":"Point","coordinates":[140.6073,41.888]}},{"type":"Feature","properties":{"_region":"hokkaido","_region_ja":"北海道","_voltage_kv":275.0,"_display_name":"北斗変換所"},"geometry":{"type":"Point","coordinates":[140.585,41.9163]}},{"type":"Feature","properties":{"_region":"hokkaido","_region_ja":"北海道","_voltage_kv":275.0,"_display_name":"南早来変電所"},"geometry":{"type":"Point","coordinates":[141.7811,42.7139]}},{"type":"Feature","properties":{"_region":"hokkaido","_region_ja":"北海道","_voltage_kv":275.0,"_display_name":""},"geometry":{"type":"Point","coordinates":[141.8035,42.612]}},{"type":"Feature","properties":{"_region":"hokkaido","_region_ja":"北海道","_voltage_kv":275.0,"_display_name":"西野変電所"},"geometry":{"type":"Point","coordinates":[141.2225,43.0575]}},{"type":"Feature","properties":{"_region":"hokkaido","_region_ja":"北海道","_voltage_kv":275.0,"_display_name":"西当別変電所"},"geometry":{"type":"Point","coordinates":[141.4506,43.2344]}},{"type":"Feature","properties":{"_region":"hokkaido","_region_ja":"北海道","_voltage_kv":275.0,"_display_name":"Nishifutaba Switching Station"},"geometry":{"type":"Point","coordinates":[141.0356,42.7494]}},{"type":"Feature","properties":{"_region":"hokkaido","_region_ja":"北海道","_voltage_kv":275.0,"_display_name":"石狩湾新港発電所"},"geometry":{"type":"Point","coordinates":[141.2765,43.192]}},{"type":"Feature","properties":{"_region":"hokkaido","_region_ja":"北海道","_voltage_kv":275.0,"_display_name":"北新得変電所"},"geometry":{"type":"Point","coordinates":[142.9042,43.1643]}},{"type":"Feature","properties":{"_region":"tohoku","_region_ja":"東北","_voltage_kv":275.0,"_display_name":"田子倉発電所"},"geometry":{"type":"Point","coordinates":[139.288,37.314]}},{"type":"Feature","properties":{"_region":"tohoku","_region_ja":"東北","_voltage_kv":275.0,"_display_name":"新潟変電所"},"geometry":{"type":"Point","coordinates":[139.2468,37.7278]}},{"type":"Feature","properties":{"_region":"tohoku","_region_ja":"東北","_voltage_kv":275.0,"_display_name":"北新潟変電所"},"geometry":{"type":"Point","coordinates":[139.2847,37.9805]}},{"type":"Feature","properties":{"_region":"tohoku","_region_ja":"東北","_voltage_kv":275.0,"_display_name":""},"geometry":{"type":"Point","coordinates":[139.2441,37.1604]}},{"type":"Feature","properties":{"_region":"tohoku","_region_ja":"東北","_voltage_kv":275.0,"_display_name":"本名変電所"},"geometry":{"type":"Point","coordinates":[139.5013,37.4408]}},{"type":"Feature","properties":{"_region":"tohoku","_region_ja":"東北","_voltage_kv":275.0,"_display_name":"越後開閉所"},"geometry":{"type":"Point","coordinates":[139.411,37.8893]}},{"type":"Feature","properties":{"_region":"tohoku","_region_ja":"東北","_voltage_kv":275.0,"_display_name":"中越変電所"},"geometry":{"type":"Point","coordinates":[139.042,37.4839]}},{"type":"Feature","properties":{"_region":"tohoku","_region_ja":"東北","_voltage_kv":275.0,"_display_name":""},"geometry":{"type":"Point","coordinates":[139.0472,36.8007]}},{"type":"Feature","properties":{"_region":"tohoku","_region_ja":"東北","_voltage_kv":275.0,"_display_name":"沼原電力所"},"geometry":{"type":"Point","coordinates":[139.9047,37.0999]}},{"type":"Feature","properties":{"_region":"tohoku","_region_ja":"東北","_voltage_kv":275.0,"_display_name":""},"geometry":{"type":"Point","coordinates":[139.2425,37.997]}},{"type":"Feature","properties":{"_region":"tohoku","_region_ja":"東北","_voltage_kv":275.0,"_display_name":""},"geometry":{"type":"Point","coordinates":[139.2453,37.999]}},{"type":"Feature","properties":{"_region":"tohoku","_region_ja":"東北","_voltage_kv":500.0,"_display_name":""},"geometry":{"type":"Point","coordinates":[139.9084,37.3449]}},{"type":"Feature","properties":{"_region":"tohoku","_region_ja":"東北","_voltage_kv":275.0,"_display_name":""},"geometry":{"type":"Point","coordinates":[141.0315,37.4206]}},{"type":"Feature","properties":{"_region":"tohoku","_region_ja":"東北","_voltage_kv":275.0,"_display_name":""},"geometry":{"type":"Point","coordinates":[141.0305,37.4228]}},{"type":"Feature","properties":{"_region":"tohoku","_region_ja":"東北","_voltage_kv":500.0,"_display_name":""},"geometry":{"type":"Point","coordinates":[141.0308,37.4296]}},{"type":"Feature","properties":{"_region":"tohoku","_region_ja":"東北","_voltage_kv":275.0,"_display_name":"仙台変電所"},"geometry":{"type":"Point","coordinates":[140.9075,38.3191]}},{"type":"Feature","properties":{"_region":"tohoku","_region_ja":"東北","_voltage_kv":500.0,"_display_name":""},"geometry":{"type":"Point","coordinates":[141.0218,37.3162]}},{"type":"Feature","properties":{"_region":"tohoku","_region_ja":"東北","_voltage_kv":275.0,"_display_name":"須賀川変電所"},"geometry":{"type":"Point","coordinates":[140.4261,37.3052]}},{"type":"Feature","properties":{"_region":"tohoku","_region_ja":"東北","_voltage_kv":275.0,"_display_name":"JR東日本 新福島変電所"},"geometry":{"type":"Point","coordinates":[140.4766,37.7947]}},{"type":"Feature","properties":{"_region":"tohoku","_region_ja":"東北","_voltage_kv":500.0,"_display_name":"新いわき開閉所"},"geometry":{"type":"Point","coordinates":[140.7228,37.1422]}},{"type":"Feature","properties":{"_region":"tohoku","_region_ja":"東北","_voltage_kv":500.0,"_display_name":"新福島変電所"},"geometry":{"type":"Point","coordinates":[140.9606,37.3594]}},{"type":"Feature","properties":{"_region":"tohoku","_region_ja":"東北","_voltage_kv":275.0,"_display_name":"福島変電所"},"geometry":{"type":"Point","coordinates":[140.4228,37.676]}},{"type":"Feature","properties":{"_region":"tohoku","_region_ja":"東北","_voltage_kv":500.0,"_display_name":"南相馬変電所"},"geometry":{"type":"Point","coordinates":[140.9503,37.5362]}},{"type":"Feature","properties":{"_region":"tohoku","_region_ja":"東北","_voltage_kv":275.0,"_display_name":"いわき変電所"},"geometry":{"type":"Point","coordinates":[140.7479,36.9886]}},{"type":"Feature","properties":{"_region":"tohoku","_region_ja":"東北","_voltage_kv":275.0,"_display_name":"米沢変電所"},"geometry":{"type":"Point","coordinates":[140.1162,37.8582]}},{"type":"Feature","properties":{"_region":"tohoku","_region_ja":"東北","_voltage_kv":500.0,"_display_name":"南いわき開閉所"},"geometry":{"type":"Point","coordinates":[140.8051,37.382]}},{"type":"Feature","properties":{"_region":"tohoku","_region_ja":"東北","_voltage_kv":275.0,"_display_name":"新那須変電所"},"geometry":{"type":"Point","coordinates":[140.105,37.0289]}},{"type":"Feature","properties":{"_region":"tohoku","_region_ja":"東北","_voltage_kv":275.0,"_display_name":""},"geometry":{"type":"Point","coordinates":[140.504,37.8032]}},{"type":"Feature","properties":{"_region":"tohoku","_region_ja":"東北","_voltage_kv":275.0,"_display_name":"西山形変電所"},"geometry":{"type":"Point","coordinates":[140.1824,38.2764]}},{"type":"Feature","properties":{"_region":"tohoku","_region_ja":"東北","_voltage_kv":500.0,"_display_name":"西仙台変電所"},"geometry":{"type":"Point","coordinates":[140.6436,38.2546]}},{"type":"Feature","properties":{"_region":"tohoku","_region_ja":"東北","_voltage_kv":275.0,"_display_name":""},"geometry":{"type":"Point","coordinates":[140.8548,38.1665]}},{"type":"Feature","properties":{"_region":"tohoku","_region_ja":"東北","_voltage_kv":275.0,"_display_name":"名取変電所"},"geometry":{"type":"Point","coordinates":[140.8508,38.165]}},{"type":"Feature","properties":{"_region":"tohoku","_region_ja":"東北","_voltage_kv":500.0,"_display_name":"宮城中央変電所"},"geometry":{"type":"Point","coordinates":[140.7512,38.3526]}},{"type":"Feature","properties":{"_region":"tohoku","_region_ja":"東北","_voltage_kv":275.0,"_display_name":"東仙台変電所"},"geometry":{"type":"Point","coordinates":[141.0408,38.2783]}},{"type":"Feature","properties":{"_region":"tohoku","_region_ja":"東北","_voltage_kv":275.0,"_display_name":"JR東日本 新郡山変電所"},"geometry":{"type":"Point","coordinates":[140.3663,37.3373]}},{"type":"Feature","properties":{"_region":"tohoku","_region_ja":"東北","_voltage_kv":275.0,"_display_name":""},"geometry":{"type":"Point","coordinates":[140.6281,37.6049]}},{"type":"Feature","properties":{"_region":"tohoku","_region_ja":"東北","_voltage_kv":500.0,"_display_name":""},"geometry":{"type":"Point","coordinates":[140.949,37.851]}},{"type":"Feature","properties":{"_region":"tohoku","_region_ja":"東北","_voltage_kv":500.0,"_display_name":""},"geometry":{"type":"Point","coordinates":[140.9412,37.8447]}},{"type":"Feature","properties":{"_region":"tohoku","_region_ja":"東北","_voltage_kv":275.0,"_display_name":""},"geometry":{"type":"Point","coordinates":[141.0162,37.6645]}},{"type":"Feature","properties":{"_region":"tohoku","_region_ja":"東北","_voltage_kv":500.0,"_display_name":"宮城変電所"},"geometry":{"type":"Point","coordinates":[140.8493,38.6057]}},{"type":"Feature","properties":{"_region":"tohoku","_region_ja":"東北","_voltage_kv":275.0,"_display_name":"JR東日本 新古川変電所"},"geometry":{"type":"Point","coordinates":[141.0075,38.6369]}},{"type":"Feature","properties":{"_region":"tohoku","_region_ja":"東北","_voltage_kv":275.0,"_display_name":"雫石開閉所"},"geometry":{"type":"Point","coordinates":[140.929,39.6935]}},{"type":"Feature","properties":{"_region":"tohoku","_region_ja":"東北","_voltage_kv":275.0,"_display_name":"秋田変電所"},"geometry":{"type":"Point","coordinates":[140.0859,39.8128]}},{"type":"Feature","properties":{"_region":"tohoku","_region_ja":"東北","_voltage_kv":275.0,"_display_name":"新庄変電所"},"geometry":{"type":"Point","coordinates":[140.2503,38.7014]}},{"type":"Feature","properties":{"_region":"tohoku","_region_ja":"東北","_voltage_kv":275.0,"_display_name":"羽後変電所"},"geometry":{"type":"Point","coordinates":[140.427,39.1689]}},{"type":"Feature","properties":{"_region":"tohoku","_region_ja":"東北","_voltage_kv":275.0,"_display_name":"JR東日本 院内変電所"},"geometry":{"type":"Point","coordinates":[140.4274,39.0526]}},{"type":"Feature","properties":{"_region":"tohoku","_region_ja":"東北","_voltage_kv":500.0,"_display_name":"岩手変電所"},"geometry":{"type":"Point","coordinates":[141.1759,39.9049]}},{"type":"Feature","properties":{"_region":"tohoku","_region_ja":"東北","_voltage_kv":275.0,"_display_name":"水沢変電所"},"geometry":{"type":"Point","coordinates":[141.1976,39.0752]}},{"type":"Feature","properties":{"_region":"tohoku","_region_ja":"東北","_voltage_kv":275.0,"_display_name":"JR東日本 新水沢変電所"},"geometry":{"type":"Point","coordinates":[141.1989,39.0851]}},{"type":"Feature","properties":{"_region":"tohoku","_region_ja":"東北","_voltage_kv":275.0,"_display_name":"石巻変電所"},"geometry":{"type":"Point","coordinates":[141.2377,38.4811]}},{"type":"Feature","properties":{"_region":"tohoku","_region_ja":"東北","_voltage_kv":275.0,"_display_name":"新盛岡変電所"},"geometry":{"type":"Point","coordinates":[141.1566,39.5758]}},{"type":"Feature","properties":{"_region":"tohoku","_region_ja":"東北","_voltage_kv":275.0,"_display_name":"東花巻変電所"},"geometry":{"type":"Point","coordinates":[141.2586,39.3498]}},{"type":"Feature","properties":{"_region":"tohoku","_region_ja":"東北","_voltage_kv":275.0,"_display_name":""},"geometry":{"type":"Point","coordinates":[141.5012,38.3978]}},{"type":"Feature","properties":{"_region":"tohoku","_region_ja":"東北","_voltage_kv":275.0,"_display_name":""},"geometry":{"type":"Point","coordinates":[141.4986,38.3998]}},{"type":"Feature","properties":{"_region":"tohoku","_region_ja":"東北","_voltage_kv":275.0,"_display_name":""},"geometry":{"type":"Point","coordinates":[139.9948,40.1899]}},{"type":"Feature","properties":{"_region":"tohoku","_region_ja":"東北","_voltage_kv":275.0,"_display_name":"能代変電所"},"geometry":{"type":"Point","coordinates":[140.0718,40.1623]}},{"type":"Feature","properties":{"_region":"tohoku","_region_ja":"東北","_voltage_kv":275.0,"_display_name":"青森変電所"},"geometry":{"type":"Point","coordinates":[140.7105,40.7746]}},{"type":"Feature","properties":{"_region":"tohoku","_region_ja":"東北","_voltage_kv":275.0,"_display_name":"JR北海道 今別変電所"},"geometry":{"type":"Point","coordinates":[140.5081,41.1539]}},{"type":"Feature","properties":{"_region":"tohoku","_region_ja":"東北","_voltage_kv":275.0,"_display_name":"今別変換所"},"geometry":{"type":"Point","coordinates":[140.514,41.1337]}},{"type":"Feature","properties":{"_region":"tohoku","_region_ja":"東北","_voltage_kv":275.0,"_display_name":"JR東日本 新七戸変電所"},"geometry":{"type":"Point","coordinates":[141.1783,40.7106]}},{"type":"Feature","properties":{"_region":"tohoku","_region_ja":"東北","_voltage_kv":275.0,"_display_name":"五戸変電所"},"geometry":{"type":"Point","coordinates":[141.3568,40.5286]}},{"type":"Feature","properties":{"_region":"tohoku","_region_ja":"東北","_voltage_kv":500.0,"_display_name":"上北変電所"},"geometry":{"type":"Point","coordinates":[141.1721,40.7838]}},{"type":"Feature","properties":{"_region":"tohoku","_region_ja":"東北","_voltage_kv":275.0,"_display_name":"上北変換所"},"geometry":{"type":"Point","coordinates":[141.1972,40.8017]}},{"type":"Feature","properties":{"_region":"tohoku","_region_ja":"東北","_voltage_kv":500.0,"_display_name":""},"geometry":{"type":"Point","coordinates":[141.3866,41.1875]}},{"type":"Feature","properties":{"_region":"tokyo","_region_ja":"東京","_voltage_kv":275.0,"_display_name":"青梅変電所"},"geometry":{"type":"Point","coordinates":[139.317,35.7947]}},{"type":"Feature","properties":{"_region":"tokyo","_region_ja":"東京","_voltage_kv":275.0,"_display_name":"北相模変電所"},"geometry":{"type":"Point","coordinates":[139.3679,35.5343]}},{"type":"Feature","properties":{"_region":"tokyo","_region_ja":"東京","_voltage_kv":275.0,"_display_name":"西東京変電所"},"geometry":{"type":"Point","coordinates":[139.4575,35.6045]}},{"type":"Feature","properties":{"_region":"tokyo","_region_ja":"東京","_voltage_kv":275.0,"_display_name":"南川越変電所"},"geometry":{"type":"Point","coordinates":[139.466,35.8914]}},{"type":"Feature","properties":{"_region":"tokyo","_region_ja":"東京","_voltage_kv":275.0,"_display_name":"荏田変電所"},"geometry":{"type":"Point","coordinates":[139.5487,35.555]}},{"type":"Feature","properties":{"_region":"tokyo","_region_ja":"東京","_voltage_kv":275.0,"_display_name":"北多摩変電所"},"geometry":{"type":"Point","coordinates":[139.5028,35.6547]}},{"type":"Feature","properties":{"_region":"tokyo","_region_ja":"東京","_voltage_kv":275.0,"_display_name":"港北変電所"},"geometry":{"type":"Point","coordinates":[139.6028,35.5362]}},{"type":"Feature","properties":{"_region":"tokyo","_region_ja":"東京","_voltage_kv":275.0,"_display_name":"京浜変電所"},"geometry":{"type":"Point","coordinates":[139.5005,35.4311]}},{"type":"Feature","properties":{"_region":"tokyo","_region_ja":"東京","_voltage_kv":500.0,"_display_name":"新飯能変電所"},"geometry":{"type":"Point","coordinates":[139.2397,35.852]}},{"type":"Feature","properties":{"_region":"tokyo","_region_ja":"東京","_voltage_kv":275.0,"_display_name":"新座変電所"},"geometry":{"type":"Point","coordinates":[139.5504,35.7954]}},{"type":"Feature","properties":{"_region":"tokyo","_region_ja":"東京","_voltage_kv":500.0,"_display_name":"新多摩変電所"},"geometry":{"type":"Point","coordinates":[139.223,35.7146]}},{"type":"Feature","properties":{"_region":"tokyo","_region_ja":"東京","_voltage_kv":275.0,"_display_name":"南多摩変電所"},"geometry":{"type":"Point","coordinates":[139.3583,35.6763]}},{"type":"Feature","properties":{"_region":"tokyo","_region_ja":"東京","_voltage_kv":500.0,"_display_name":"新秦野変電所"},"geometry":{"type":"Point","coordinates":[139.2259,35.4006]}},{"type":"Feature","properties":{"_region":"tokyo","_region_ja":"東京","_voltage_kv":500.0,"_display_name":"東山梨変電所"},"geometry":{"type":"Point","coordinates":[138.8,35.5905]}},{"type":"Feature","properties":{"_region":"tokyo","_region_ja":"東京","_voltage_kv":500.0,"_display_name":"新富士変電所"},"geometry":{"type":"Point","coordinates":[138.9624,35.3723]}},{"type":"Feature","properties":{"_region":"tokyo","_region_ja":"東京","_voltage_kv":275.0,"_display_name":"多摩変電所"},"geometry":{"type":"Point","coordinates":[139.4407,35.7341]}},{"type":"Feature","properties":{"_region":"tokyo","_region_ja":"東京","_voltage_kv":275.0,"_display_name":"西横浜変電所"},"geometry":{"type":"Point","coordinates":[139.5048,35.5]}},{"type":"Feature","properties":{"_region":"tokyo","_region_ja":"東京","_voltage_kv":275.0,"_display_name":"南狭山変電所"},"geometry":{"type":"Point","coordinates":[139.4451,35.8385]}},{"type":"Feature","properties":{"_region":"tokyo","_region_ja":"東京","_voltage_kv":275.0,"_display_name":"中相模変電所"},"geometry":{"type":"Point","coordinates":[139.4094,35.418]}},{"type":"Feature","properties":{"_region":"tokyo","_region_ja":"東京","_voltage_kv":275.0,"_display_name":"東清水変電所"},"geometry":{"type":"Point","coordinates":[138.5,35.058]}},{"type":"Feature","properties":{"_region":"tokyo","_region_ja":"東京","_voltage_kv":275.0,"_display_name":"逗子変電所"},"geometry":{"type":"Point","coordinates":[139.6064,35.3102]}},{"type":"Feature","properties":{"_region":"tokyo","_region_ja":"東京","_voltage_kv":275.0,"_display_name":"練馬変電所"},"geometry":{"type":"Point","coordinates":[139.6469,35.7367]}},{"type":"Feature","properties":{"_region":"tokyo","_region_ja":"東京","_voltage_kv":275.0,"_display_name":"世田谷変電所"},"geometry":{"type":"Point","coordinates":[139.6502,35.6318]}},{"type":"Feature","properties":{"_region":"tokyo","_region_ja":"東京","_voltage_kv":500.0,"_display_name":"新豊洲変電所"},"geometry":{"type":"Point","coordinates":[139.7908,35.6479]}},{"type":"Feature","properties":{"_region":"tokyo","_region_ja":"東京","_voltage_kv":275.0,"_display_name":"南川崎変電所"},"geometry":{"type":"Point","coordinates":[139.7115,35.5]}},{"type":"Feature","properties":{"_region":"tokyo","_region_ja":"東京","_voltage_kv":500.0,"_display_name":"新佐原変電所"},"geometry":{"type":"Point","coordinates":[140.4586,35.8658]}},{"type":"Feature","properties":{"_region":"tokyo","_region_ja":"東京","_voltage_kv":275.0,"_display_name":"北葛飾変電所"},"geometry":{"type":"Point","coordinates":[139.8697,35.8698]}},{"type":"Feature","properties":{"_region":"tokyo","_region_ja":"東京","_voltage_kv":275.0,"_display_name":"北総変電所"},"geometry":{"type":"Point","coordinates":[140.2658,35.7112]}},{"type":"Feature","properties":{"_region":"tokyo","_region_ja":"東京","_voltage_kv":500.0,"_display_name":"房総変電所"},"geometry":{"type":"Point","coordinates":[140.1665,35.4992]}},{"type":"Feature","properties":{"_region":"tokyo","_region_ja":"東京","_voltage_kv":275.0,"_display_name":"西越谷変電所"},"geometry":{"type":"Point","coordinates":[139.751,35.8904]}},{"type":"Feature","properties":{"_region":"tokyo","_region_ja":"東京","_voltage_kv":275.0,"_display_name":"墨東変電所"},"geometry":{"type":"Point","coordinates":[139.8203,35.6985]}},{"type":"Feature","properties":{"_region":"tokyo","_region_ja":"東京","_voltage_kv":275.0,"_display_name":"池上変電所"},"geometry":{"type":"Point","coordinates":[139.6964,35.5694]}},{"type":"Feature","properties":{"_region":"tokyo","_region_ja":"東京","_voltage_kv":500.0,"_display_name":"新京葉変電所"},"geometry":{"type":"Point","coordinates":[140.0695,35.781]}},{"type":"Feature","properties":{"_region":"tokyo","_region_ja":"東京","_voltage_kv":275.0,"_display_name":"江東変電所"},"geometry":{"type":"Point","coordinates":[139.8403,35.6636]}},{"type":"Feature","properties":{"_region":"tokyo","_region_ja":"東京","_voltage_kv":275.0,"_display_name":"水道橋変電所"},"geometry":{"type":"Point","coordinates":[139.7523,35.7003]}},{"type":"Feature","properties":{"_region":"tokyo","_region_ja":"東京","_voltage_kv":275.0,"_display_name":"花見川変電所 (Hanamigawa Hendensho)"},"geometry":{"type":"Point","coordinates":[140.0719,35.669]}},{"type":"Feature","properties":{"_region":"tokyo","_region_ja":"東京","_voltage_kv":275.0,"_display_name":"千葉中央変電所"},"geometry":{"type":"Point","coordinates":[140.1264,35.5648]}},{"type":"Feature","properties":{"_region":"tokyo","_region_ja":"東京","_voltage_kv":500.0,"_display_name":""},"geometry":{"type":"Point","coordinates":[139.9803,35.4641]}},{"type":"Feature","properties":{"_region":"tokyo","_region_ja":"東京","_voltage_kv":275.0,"_display_name":"上野変電所"},"geometry":{"type":"Point","coordinates":[139.7898,35.7271]}},{"type":"Feature","properties":{"_region":"tokyo","_region_ja":"東京","_voltage_kv":500.0,"_display_name":""},"geometry":{"type":"Point","coordinates":[139.8365,35.3439]}},{"type":"Feature","properties":{"_region":"tokyo","_region_ja":"東京","_voltage_kv":500.0,"_display_name":"新木更津変電所"},"geometry":{"type":"Point","coordinates":[140.0273,35.3431]}},{"type":"Feature","properties":{"_region":"tokyo","_region_ja":"東京","_voltage_kv":275.0,"_display_name":"鹿島変電所"},"geometry":{"type":"Point","coordinates":[140.6561,35.8966]}},{"type":"Feature","properties":{"_region":"tokyo","_region_ja":"東京","_voltage_kv":275.0,"_display_name":"永代橋変電所"},"geometry":{"type":"Point","coordinates":[139.7844,35.6756]}},{"type":"Feature","properties":{"_region":"tokyo","_region_ja":"東京","_voltage_kv":275.0,"_display_name":"京北変電所"},"geometry":{"type":"Point","coordinates":[139.7861,35.8281]}},{"type":"Feature","properties":{"_region":"tokyo","_region_ja":"東京","_voltage_kv":275.0,"_display_name":"新宿変電所"},"geometry":{"type":"Point","coordinates":[139.6892,35.6911]}},{"type":"Feature","properties":{"_region":"tokyo","_region_ja":"東京","_voltage_kv":275.0,"_display_name":"東新宿変電所"},"geometry":{"type":"Point","coordinates":[139.7104,35.6921]}},{"type":"Feature","properties":{"_region":"tokyo","_region_ja":"東京","_voltage_kv":275.0,"_display_name":"豊島変電所"},"geometry":{"type":"Point","coordinates":[139.7202,35.7288]}},{"type":"Feature","properties":{"_region":"tokyo","_region_ja":"東京","_voltage_kv":275.0,"_display_name":"城南変電所"},"geometry":{"type":"Point","coordinates":[139.723,35.673]}},{"type":"Feature","properties":{"_region":"tokyo","_region_ja":"東京","_voltage_kv":275.0,"_display_name":"高輪変電所"},"geometry":{"type":"Point","coordinates":[139.7339,35.635]}},{"type":"Feature","properties":{"_region":"tokyo","_region_ja":"東京","_voltage_kv":275.0,"_display_name":"東内幸町変電所"},"geometry":{"type":"Point","coordinates":[139.7584,35.6702]}},{"type":"Feature","properties":{"_region":"tokyo","_region_ja":"東京","_voltage_kv":275.0,"_display_name":"葛南変電所"},"geometry":{"type":"Point","coordinates":[139.9077,35.6659]}},{"type":"Feature","properties":{"_region":"tokyo","_region_ja":"東京","_voltage_kv":500.0,"_display_name":"西群馬開閉所"},"geometry":{"type":"Point","coordinates":[138.8018,36.6222]}},{"type":"Feature","properties":{"_region":"tokyo","_region_ja":"東京","_voltage_kv":500.0,"_display_name":"新坂戸変電所"},"geometry":{"type":"Point","coordinates":[139.4366,35.9621]}},{"type":"Feature","properties":{"_region":"tokyo","_region_ja":"東京","_voltage_kv":500.0,"_display_name":"新所沢変電所"},"geometry":{"type":"Point","coordinates":[139.3691,35.9281]}},{"type":"Feature","properties":{"_region":"tokyo","_region_ja":"東京","_voltage_kv":275.0,"_display_name":"中東京変電所"},"geometry":{"type":"Point","coordinates":[139.3535,35.9154]}},{"type":"Feature","properties":{"_region":"tokyo","_region_ja":"東京","_voltage_kv":275.0,"_display_name":"北熊谷変電所"},"geometry":{"type":"Point","coordinates":[139.3449,36.2058]}},{"type":"Feature","properties":{"_region":"tokyo","_region_ja":"東京","_voltage_kv":500.0,"_display_name":"新榛名"},"geometry":{"type":"Point","coordinates":[138.8331,36.5478]}},{"type":"Feature","properties":{"_region":"tokyo","_region_ja":"東京","_voltage_kv":275.0,"_display_name":"西毛変電所"},"geometry":{"type":"Point","coordinates":[139.0414,36.2219]}},{"type":"Feature","properties":{"_region":"tokyo","_region_ja":"東京","_voltage_kv":275.0,"_display_name":"上尾変電所"},"geometry":{"type":"Point","coordinates":[139.612,35.969]}},{"type":"Feature","properties":{"_region":"tokyo","_region_ja":"東京","_voltage_kv":500.0,"_display_name":"新秩父開閉所"},"geometry":{"type":"Point","coordinates":[138.937,36.0311]}},{"type":"Feature","properties":{"_region":"tokyo","_region_ja":"東京","_voltage_kv":275.0,"_display_name":"東毛変電所"},"geometry":{"type":"Point","coordinates":[139.3285,36.2989]}},{"type":"Feature","properties":{"_region":"tokyo","_region_ja":"東京","_voltage_kv":500.0,"_display_name":"東群馬変電所"},"geometry":{"type":"Point","coordinates":[139.2235,36.5793]}},{"type":"Feature","properties":{"_region":"tokyo","_region_ja":"東京","_voltage_kv":500.0,"_display_name":"新岡部変電所"},"geometry":{"type":"Point","coordinates":[139.2123,36.2202]}},{"type":"Feature","properties":{"_region":"tokyo","_region_ja":"東京","_voltage_kv":500.0,"_display_name":"新新田変電所"},"geometry":{"type":"Point","coordinates":[139.3052,36.3262]}},{"type":"Feature","properties":{"_region":"tokyo","_region_ja":"東京","_voltage_kv":275.0,"_display_name":""},"geometry":{"type":"Point","coordinates":[139.0472,36.8007]}},{"type":"Feature","properties":{"_region":"tokyo","_region_ja":"東京","_voltage_kv":275.0,"_display_name":"東日本旅客鉄道新箕郷変電所"},"geometry":{"type":"Point","coordinates":[138.966,36.3773]}},{"type":"Feature","properties":{"_region":"tokyo","_region_ja":"東京","_voltage_kv":275.0,"_display_name":"新湯沢変電所"},"geometry":{"type":"Point","coordinates":[138.8209,36.9225]}},{"type":"Feature","properties":{"_region":"tokyo","_region_ja":"東京","_voltage_kv":500.0,"_display_name":"新野田変電所"},"geometry":{"type":"MultiPolygon","coordinates":[[[[139.9116649,35.9290707],[139.9113759,35.9290382],[139.9115052,35.9287447],[139.9114818,35.9286411],[139.9114672,35.9285764],[139.9114593,35.9285598],[139.9114389,35.9285169],[139.911366,35.9285082],[139.9113326,35.9285252],[139.9113195,35.9285998],[139.9112774,35.9286465],[139.9111896,35.9287068],[139.9108316,35.928648],[139.9106271,35.9286624],[139.9105202,35.9286825],[139.9104855,35.928689],[139.9104363,35.9286805],[139.9103424,35.928742],[139.9101223,35.9287465],[139.9098578,35.9282573],[139.909849,35.9282411],[139.9094029,35.9274763],[139.909385,35.9274726],[139.9088013,35.9277867],[139.9079086,35.9282434],[139.9078763,35.9282929],[139.9079053,35.9285738],[139.908269,35.9284085],[139.9084226,35.9286377],[139.9079782,35.9288318],[139.9079431,35.9288467],[139.9079734,35.9292455],[139.907986,35.9294296],[139.9079816,35.9295794],[139.9079579,35.9297243],[139.9078142,35.9304153],[139.9077138,35.9306832],[139.9074929,35.931064],[139.9075215,35.9313148],[139.9077495,35.9315374],[139.9079184,35.9315327],[139.9103628,35.9304369],[139.9104857,35.9303759],[139.9105984,35.9303068],[139.9106799,35.9302452],[139.9107818,35.9301586],[139.9109127,35.9300205],[139.9110026,35.9298889],[139.9113784,35.9293334],[139.9115606,35.9291454],[139.9116649,35.9290707]]],[[[139.9081407,35.9321881],[139.9087929,35.933193],[139.9091972,35.9338139],[139.9094897,35.9342589],[139.9095501,35.9343239],[139.9096157,35.9343775],[139.9096998,35.9344245],[139.9097844,35.9344501],[139.9098485,35.9344498],[139.9099024,35.934439],[139.9099626,35.9344199],[139.9129629,35.9330822],[139.9138163,35.9326993],[139.9142536,35.9324947],[139.9142537,35.9324483],[139.914248,35.9324287],[139.9142375,35.9324063],[139.9140992,35.9322111],[139.9137328,35.9316634],[139.9136954,35.9316043],[139.9136733,35.9316128],[139.9135988,35.9314929],[139.9136611,35.9314639],[139.9136958,35.9314478],[139.9136528,35.9313828],[139.91321,35.9307147],[139.9124345,35.9295671],[139.9125836,35.9291269],[139.9124594,35.9289656],[139.9124282,35.9289795],[139.9123581,35.9290379],[139.9123016,35.9291568],[139.9122674,35.9291509],[139.9119799,35.9294778],[139.9116003,35.9293326],[139.9115269,35.9294077],[139.911047,35.9301214],[139.9108379,35.930332],[139.9105872,35.9304972],[139.9079776,35.9316617],[139.9079668,35.931667],[139.9079459,35.9316801],[139.9079195,35.9317032],[139.9079026,35.9317281],[139.9078946,35.931759],[139.9078937,35.9317863],[139.9079006,35.9318151],[139.9081407,35.9321881]]]]}},{"type":"Feature","properties":{"_region":"tokyo","_region_ja":"東京","_voltage_kv":500.0,"_display_name":"新古河変電所"},"geometry":{"type":"Point","coordinates":[139.8323,36.1065]}},{"type":"Feature","properties":{"_region":"tokyo","_region_ja":"東京","_voltage_kv":500.0,"_display_name":"新栃木変電所"},"geometry":{"type":"Point","coordinates":[139.9173,36.6553]}},{"type":"Feature","properties":{"_region":"tokyo","_region_ja":"東京","_voltage_kv":275.0,"_display_name":"那珂変電所"},"geometry":{"type":"Point","coordinates":[140.4455,36.479]}},{"type":"Feature","properties":{"_region":"tokyo","_region_ja":"東京","_voltage_kv":500.0,"_display_name":"新筑波変電所"},"geometry":{"type":"Point","coordinates":[139.9038,36.1666]}},{"type":"Feature","properties":{"_region":"tokyo","_region_ja":"東京","_voltage_kv":275.0,"_display_name":"北東京変電所"},"geometry":{"type":"Point","coordinates":[139.6903,36.0267]}},{"type":"Feature","properties":{"_region":"tokyo","_region_ja":"東京","_voltage_kv":500.0,"_display_name":"新茂木"},"geometry":{"type":"Point","coordinates":[140.1524,36.5229]}},{"type":"Feature","properties":{"_region":"tokyo","_region_ja":"東京","_voltage_kv":500.0,"_display_name":"新今市開閉所"},"geometry":{"type":"Point","coordinates":[139.8326,36.7131]}},{"type":"Feature","properties":{"_region":"tokyo","_region_ja":"東京","_voltage_kv":275.0,"_display_name":"いわき変電所"},"geometry":{"type":"Point","coordinates":[140.7479,36.9886]}},{"type":"Feature","properties":{"_region":"tokyo","_region_ja":"東京","_voltage_kv":275.0,"_display_name":"筑波南変電所"},"geometry":{"type":"Point","coordinates":[140.2498,35.9731]}},{"type":"Feature","properties":{"_region":"tokyo","_region_ja":"東京","_voltage_kv":275.0,"_display_name":"常総変電所"},"geometry":{"type":"Point","coordinates":[140.0452,36.018]}},{"type":"Feature","properties":{"_region":"tokyo","_region_ja":"東京","_voltage_kv":275.0,"_display_name":"常磐変電所"},"geometry":{"type":"Point","coordinates":[140.6721,36.6887]}},{"type":"Feature","properties":{"_region":"tokyo","_region_ja":"東京","_voltage_kv":750.0,"_display_name":"平出変電所"},"geometry":{"type":"Point","coordinates":[139.9404,36.554]}},{"type":"Feature","properties":{"_region":"tokyo","_region_ja":"東京","_voltage_kv":750.0,"_display_name":"今泉変電所"},"geometry":{"type":"Point","coordinates":[139.9105,36.5598]}},{"type":"Feature","properties":{"_region":"tokyo","_region_ja":"東京","_voltage_kv":750.0,"_display_name":"芳賀変電所"},"geometry":{"type":"Point","coordinates":[140.0097,36.5639]}},{"type":"Feature","properties":{"_region":"chubu","_region_ja":"中部","_voltage_kv":275.0,"_display_name":"幸田変電所"},"geometry":{"type":"Point","coordinates":[137.1873,34.8703]}},{"type":"Feature","properties":{"_region":"chubu","_region_ja":"中部","_voltage_kv":500.0,"_display_name":"中能登変電所"},"geometry":{"type":"MultiPolygon","coordinates":[[[[136.8386248,36.9950133],[136.8382758,36.9953525],[136.8382989,36.9955524],[136.8381672,36.9956233],[136.8388849,36.996867],[136.8399581,36.99652],[136.8401029,36.9962938],[136.840656,36.9960914],[136.8398955,36.99459],[136.8386248,36.9950133]]],[[[136.8355097,36.9965807],[136.8358606,36.9964568],[136.8366511,36.9978844],[136.8387814,36.997132],[136.8376199,36.9950342],[136.8351386,36.9959106],[136.8355097,36.9965807]]]]}},{"type":"Feature","properties":{"_region":"chubu","_region_ja":"中部","_voltage_kv":500.0,"_display_name":"西群馬開閉所"},"geometry":{"type":"Point","coordinates":[138.8018,36.6222]}},{"type":"Feature","properties":{"_region":"chubu","_region_ja":"中部","_voltage_kv":500.0,"_display_name":""},"geometry":{"type":"Point","coordinates":[137.7082,35.0716]}},{"type":"Feature","properties":{"_region":"chubu","_region_ja":"中部","_voltage_kv":500.0,"_display_name":"中部電力(株)豊根開閉所"},"geometry":{"type":"Point","coordinates":[137.7291,35.1623]}},{"type":"Feature","properties":{"_region":"chubu","_region_ja":"中部","_voltage_kv":500.0,"_display_name":"東山梨変電所"},"geometry":{"type":"Point","coordinates":[138.8,35.5905]}},{"type":"Feature","properties":{"_region":"chubu","_region_ja":"中部","_voltage_kv":500.0,"_display_name":"新富士変電所"},"geometry":{"type":"Point","coordinates":[138.9624,35.3723]}},{"type":"Feature","properties":{"_region":"chubu","_region_ja":"中部","_voltage_kv":275.0,"_display_name":""},"geometry":{"type":"Point","coordinates":[138.2863,34.9944]}},{"type":"Feature","properties":{"_region":"chubu","_region_ja":"中部","_voltage_kv":275.0,"_display_name":"北松本変電所"},"geometry":{"type":"Point","coordinates":[138.0034,36.3406]}},{"type":"Feature","properties":{"_region":"chubu","_region_ja":"中部","_voltage_kv":275.0,"_display_name":"関開閉所"},"geometry":{"type":"Point","coordinates":[136.8702,35.5054]}},{"type":"Feature","properties":{"_region":"chubu","_region_ja":"中部","_voltage_kv":500.0,"_display_name":"北部変電所"},"geometry":{"type":"Point","coordinates":[136.9365,35.5277]}},{"type":"Feature","properties":{"_region":"chubu","_region_ja":"中部","_voltage_kv":275.0,"_display_name":"西濃変電所"},"geometry":{"type":"Point","coordinates":[136.6448,35.4275]}},{"type":"Feature","properties":{"_region":"chubu","_region_ja":"中部","_voltage_kv":275.0,"_display_name":"東清水変電所"},"geometry":{"type":"Point","coordinates":[138.5,35.058]}},{"type":"Feature","properties":{"_region":"chubu","_region_ja":"中部","_voltage_kv":275.0,"_display_name":"佐久間周波数変換所"},"geometry":{"type":"Point","coordinates":[137.7989,35.083]}},{"type":"Feature","properties":{"_region":"chubu","_region_ja":"中部","_voltage_kv":275.0,"_display_name":"電源名古屋"},"geometry":{"type":"Point","coordinates":[136.9942,35.2649]}},{"type":"Feature","properties":{"_region":"chubu","_region_ja":"中部","_voltage_kv":275.0,"_display_name":"瀬戸変電所"},"geometry":{"type":"Point","coordinates":[137.136,35.2023]}},{"type":"Feature","properties":{"_region":"chubu","_region_ja":"中部","_voltage_kv":500.0,"_display_name":"東部変電所"},"geometry":{"type":"Point","coordinates":[137.2618,35.1064]}},{"type":"Feature","properties":{"_region":"chubu","_region_ja":"中部","_voltage_kv":500.0,"_display_name":"南福光連系所"},"geometry":{"type":"Point","coordinates":[136.8253,36.4994]}},{"type":"Feature","properties":{"_region":"chubu","_region_ja":"中部","_voltage_kv":500.0,"_display_name":"加賀変電所"},"geometry":{"type":"Point","coordinates":[136.7253,36.5017]}},{"type":"Feature","properties":{"_region":"chubu","_region_ja":"中部","_voltage_kv":500.0,"_display_name":"新榛名"},"geometry":{"type":"Point","coordinates":[138.8331,36.5478]}},{"type":"Feature","properties":{"_region":"chubu","_region_ja":"中部","_voltage_kv":275.0,"_display_name":"三河変電所"},"geometry":{"type":"Point","coordinates":[137.4706,34.8444]}},{"type":"Feature","properties":{"_region":"chubu","_region_ja":"中部","_voltage_kv":500.0,"_display_name":"新三河変電所"},"geometry":{"type":"Point","coordinates":[137.4523,34.8908]}},{"type":"Feature","properties":{"_region":"chubu","_region_ja":"中部","_voltage_kv":275.0,"_display_name":"額田開閉所"},"geometry":{"type":"Point","coordinates":[137.2778,34.9634]}},{"type":"Feature","properties":{"_region":"chubu","_region_ja":"中部","_voltage_kv":275.0,"_display_name":""},"geometry":{"type":"Point","coordinates":[137.0692,34.6546]}},{"type":"Feature","properties":{"_region":"chubu","_region_ja":"中部","_voltage_kv":275.0,"_display_name":"中部電力湖西変電所"},"geometry":{"type":"Point","coordinates":[137.508,34.7111]}},{"type":"Feature","properties":{"_region":"chubu","_region_ja":"中部","_voltage_kv":275.0,"_display_name":"田原"},"geometry":{"type":"Point","coordinates":[137.3074,34.6585]}},{"type":"Feature","properties":{"_region":"chubu","_region_ja":"中部","_voltage_kv":500.0,"_display_name":""},"geometry":{"type":"Point","coordinates":[136.9627,35.6358]}},{"type":"Feature","properties":{"_region":"chubu","_region_ja":"中部","_voltage_kv":275.0,"_display_name":"東豊田変電所"},"geometry":{"type":"Point","coordinates":[137.2188,35.0407]}},{"type":"Feature","properties":{"_region":"chubu","_region_ja":"中部","_voltage_kv":275.0,"_display_name":""},"geometry":{"type":"Point","coordinates":[136.9384,35.4486]}},{"type":"Feature","properties":{"_region":"chubu","_region_ja":"中部","_voltage_kv":275.0,"_display_name":"駿遠変電所"},"geometry":{"type":"Point","coordinates":[138.0644,34.8105]}},{"type":"Feature","properties":{"_region":"chubu","_region_ja":"中部","_voltage_kv":500.0,"_display_name":"西部変電所"},"geometry":{"type":"Point","coordinates":[136.5144,35.1928]}},{"type":"Feature","properties":{"_region":"chubu","_region_ja":"中部","_voltage_kv":500.0,"_display_name":"三重開閉所"},"geometry":{"type":"Point","coordinates":[136.4513,35.2033]}},{"type":"Feature","properties":{"_region":"chubu","_region_ja":"中部","_voltage_kv":500.0,"_display_name":"東近江開閉所"},"geometry":{"type":"Point","coordinates":[136.2935,35.0953]}},{"type":"Feature","properties":{"_region":"chubu","_region_ja":"中部","_voltage_kv":275.0,"_display_name":"西毛変電所"},"geometry":{"type":"Point","coordinates":[139.0414,36.2219]}},{"type":"Feature","properties":{"_region":"chubu","_region_ja":"中部","_voltage_kv":275.0,"_display_name":"西名古屋変電所"},"geometry":{"type":"Point","coordinates":[136.6157,35.0837]}},{"type":"Feature","properties":{"_region":"chubu","_region_ja":"中部","_voltage_kv":275.0,"_display_name":"西尾張"},"geometry":{"type":"Point","coordinates":[136.6973,35.1385]}},{"type":"Feature","properties":{"_region":"chubu","_region_ja":"中部","_voltage_kv":500.0,"_display_name":"愛知変電所"},"geometry":{"type":"Point","coordinates":[137.2978,35.2103]}},{"type":"Feature","properties":{"_region":"chubu","_region_ja":"中部","_voltage_kv":275.0,"_display_name":"東名古屋変電所"},"geometry":{"type":"Point","coordinates":[136.9915,35.041]}},{"type":"Feature","properties":{"_region":"chubu","_region_ja":"中部","_voltage_kv":275.0,"_display_name":""},"geometry":{"type":"Point","coordinates":[136.6745,35.045]}},{"type":"Feature","properties":{"_region":"chubu","_region_ja":"中部","_voltage_kv":275.0,"_display_name":"湖東変電所"},"geometry":{"type":"Point","coordinates":[136.3058,35.3128]}},{"type":"Feature","properties":{"_region":"chubu","_region_ja":"中部","_voltage_kv":275.0,"_display_name":"甲賀変電所"},"geometry":{"type":"Point","coordinates":[136.1424,35.0068]}},{"type":"Feature","properties":{"_region":"chubu","_region_ja":"中部","_voltage_kv":500.0,"_display_name":""},"geometry":{"type":"Point","coordinates":[136.7234,35.5841]}},{"type":"Feature","properties":{"_region":"chubu","_region_ja":"中部","_voltage_kv":275.0,"_display_name":"丸山変電所 (Maruyama Hendensho)"},"geometry":{"type":"Point","coordinates":[137.1626,35.47]}},{"type":"Feature","properties":{"_region":"chubu","_region_ja":"中部","_voltage_kv":500.0,"_display_name":"新秩父開閉所"},"geometry":{"type":"Point","coordinates":[138.937,36.0311]}},{"type":"Feature","properties":{"_region":"chubu","_region_ja":"中部","_voltage_kv":275.0,"_display_name":"新北信変電所"},"geometry":{"type":"Point","coordinates":[138.294,36.7408]}},{"type":"Feature","properties":{"_region":"chubu","_region_ja":"中部","_voltage_kv":500.0,"_display_name":"南信変電所"},"geometry":{"type":"Point","coordinates":[137.9969,35.71]}},{"type":"Feature","properties":{"_region":"chubu","_region_ja":"中部","_voltage_kv":500.0,"_display_name":"信濃変電所"},"geometry":{"type":"Point","coordinates":[137.9879,36.064]}},{"type":"Feature","properties":{"_region":"chubu","_region_ja":"中部","_voltage_kv":500.0,"_display_name":"駿遠変電所"},"geometry":{"type":"Point","coordinates":[138.0639,34.8087]}},{"type":"Feature","properties":{"_region":"chubu","_region_ja":"中部","_voltage_kv":275.0,"_display_name":"川根変電所"},"geometry":{"type":"Point","coordinates":[138.1099,35.0926]}},{"type":"Feature","properties":{"_region":"chubu","_region_ja":"中部","_voltage_kv":275.0,"_display_name":""},"geometry":{"type":"Point","coordinates":[137.4626,35.1949]}},{"type":"Feature","properties":{"_region":"chubu","_region_ja":"中部","_voltage_kv":275.0,"_display_name":"東信変電所"},"geometry":{"type":"Point","coordinates":[138.3198,36.4254]}},{"type":"Feature","properties":{"_region":"chubu","_region_ja":"中部","_voltage_kv":275.0,"_display_name":""},"geometry":{"type":"Point","coordinates":[136.4058,34.716]}},{"type":"Feature","properties":{"_region":"chubu","_region_ja":"中部","_voltage_kv":275.0,"_display_name":"佐久変電所"},"geometry":{"type":"Point","coordinates":[138.3707,36.2775]}},{"type":"Feature","properties":{"_region":"chubu","_region_ja":"中部","_voltage_kv":500.0,"_display_name":"加賀変電所"},"geometry":{"type":"Point","coordinates":[136.7169,36.501]}},{"type":"Feature","properties":{"_region":"chubu","_region_ja":"中部","_voltage_kv":275.0,"_display_name":"新鈴鹿変電所"},"geometry":{"type":"Point","coordinates":[136.4372,34.8398]}},{"type":"Feature","properties":{"_region":"chubu","_region_ja":"中部","_voltage_kv":275.0,"_display_name":""},"geometry":{"type":"Point","coordinates":[136.2936,36.1413]}},{"type":"Feature","properties":{"_region":"chubu","_region_ja":"中部","_voltage_kv":275.0,"_display_name":""},"geometry":{"type":"Point","coordinates":[136.2869,36.2067]}},{"type":"Feature","properties":{"_region":"chubu","_region_ja":"中部","_voltage_kv":500.0,"_display_name":"越前変電所"},"geometry":{"type":"Point","coordinates":[136.416,35.9954]}},{"type":"Feature","properties":{"_region":"chubu","_region_ja":"中部","_voltage_kv":275.0,"_display_name":"中信変電所"},"geometry":{"type":"Point","coordinates":[137.9329,36.1269]}},{"type":"Feature","properties":{"_region":"chubu","_region_ja":"中部","_voltage_kv":500.0,"_display_name":"新信濃変電所"},"geometry":{"type":"Point","coordinates":[137.8843,36.1388]}},{"type":"Feature","properties":{"_region":"chubu","_region_ja":"中部","_voltage_kv":275.0,"_display_name":"城端開閉所"},"geometry":{"type":"Point","coordinates":[136.9154,36.4959]}},{"type":"Feature","properties":{"_region":"chubu","_region_ja":"中部","_voltage_kv":275.0,"_display_name":"新愛本変電所"},"geometry":{"type":"Point","coordinates":[137.5543,36.856]}},{"type":"Feature","properties":{"_region":"chubu","_region_ja":"中部","_voltage_kv":275.0,"_display_name":""},"geometry":{"type":"Point","coordinates":[136.9096,36.1406]}},{"type":"Feature","properties":{"_region":"chubu","_region_ja":"中部","_voltage_kv":500.0,"_display_name":"静岡変電所"},"geometry":{"type":"Point","coordinates":[138.049,34.8634]}},{"type":"Feature","properties":{"_region":"chubu","_region_ja":"中部","_voltage_kv":275.0,"_display_name":""},"geometry":{"type":"Point","coordinates":[139.0472,36.8007]}},{"type":"Feature","properties":{"_region":"chubu","_region_ja":"中部","_voltage_kv":275.0,"_display_name":"新富山変電所"},"geometry":{"type":"Point","coordinates":[137.0814,36.698]}},{"type":"Feature","properties":{"_region":"chubu","_region_ja":"中部","_voltage_kv":275.0,"_display_name":""},"geometry":{"type":"Point","coordinates":[137.8061,35.0915]}},{"type":"Feature","properties":{"_region":"chubu","_region_ja":"中部","_voltage_kv":275.0,"_display_name":""},"geometry":{"type":"Point","coordinates":[136.1731,35.8095]}},{"type":"Feature","properties":{"_region":"chubu","_region_ja":"中部","_voltage_kv":500.0,"_display_name":"500 kV switching station"},"geometry":{"type":"Point","coordinates":[138.1466,34.6237]}},{"type":"Feature","properties":{"_region":"chubu","_region_ja":"中部","_voltage_kv":500.0,"_display_name":""},"geometry":{"type":"Point","coordinates":[136.6609,35.7351]}},{"type":"Feature","properties":{"_region":"chubu","_region_ja":"中部","_voltage_kv":275.0,"_display_name":"東日本旅客鉄道新箕郷変電所"},"geometry":{"type":"Point","coordinates":[138.966,36.3773]}},{"type":"Feature","properties":{"_region":"chubu","_region_ja":"中部","_voltage_kv":500.0,"_display_name":""},"geometry":{"type":"Point","coordinates":[136.0174,35.7536]}},{"type":"Feature","properties":{"_region":"chubu","_region_ja":"中部","_voltage_kv":500.0,"_display_name":"飛騨変換所"},"geometry":{"type":"Point","coordinates":[137.0596,36.0705]}},{"type":"Feature","properties":{"_region":"chubu","_region_ja":"中部","_voltage_kv":500.0,"_display_name":"南福光変電所"},"geometry":{"type":"Point","coordinates":[136.8248,36.4996]}},{"type":"Feature","properties":{"_region":"chubu","_region_ja":"中部","_voltage_kv":275.0,"_display_name":""},"geometry":{"type":"Point","coordinates":[136.9009,36.2802]}},{"type":"Feature","properties":{"_region":"chubu","_region_ja":"中部","_voltage_kv":275.0,"_display_name":""},"geometry":{"type":"Point","coordinates":[136.8758,36.3546]}},{"type":"Feature","properties":{"_region":"chubu","_region_ja":"中部","_voltage_kv":275.0,"_display_name":""},"geometry":{"type":"Point","coordinates":[136.9819,36.4769]}},{"type":"Feature","properties":{"_region":"chubu","_region_ja":"中部","_voltage_kv":275.0,"_display_name":""},"geometry":{"type":"Point","coordinates":[136.9822,36.4777]}},{"type":"Feature","properties":{"_region":"chubu","_region_ja":"中部","_voltage_kv":500.0,"_display_name":""},"geometry":{"type":"Point","coordinates":[136.0206,35.7521]}},{"type":"Feature","properties":{"_region":"chubu","_region_ja":"中部","_voltage_kv":275.0,"_display_name":"新湯沢変電所"},"geometry":{"type":"Point","coordinates":[138.8209,36.9225]}},{"type":"Feature","properties":{"_region":"hokuriku","_region_ja":"北陸","_voltage_kv":500.0,"_display_name":"中能登変電所"},"geometry":{"type":"MultiPolygon","coordinates":[[[[136.8386248,36.9950133],[136.8382758,36.9953525],[136.8382989,36.9955524],[136.8381672,36.9956233],[136.8388849,36.996867],[136.8399581,36.99652],[136.8401029,36.9962938],[136.840656,36.9960914],[136.8398955,36.99459],[136.8386248,36.9950133]]],[[[136.8355097,36.9965807],[136.8358606,36.9964568],[136.8366511,36.9978844],[136.8387814,36.997132],[136.8376199,36.9950342],[136.8351386,36.9959106],[136.8355097,36.9965807]]]]}},{"type":"Feature","properties":{"_region":"hokuriku","_region_ja":"北陸","_voltage_kv":500.0,"_display_name":"南福光連系所"},"geometry":{"type":"Point","coordinates":[136.8253,36.4994]}},{"type":"Feature","properties":{"_region":"hokuriku","_region_ja":"北陸","_voltage_kv":500.0,"_display_name":"加賀変電所"},"geometry":{"type":"Point","coordinates":[136.7253,36.5017]}},{"type":"Feature","properties":{"_region":"hokuriku","_region_ja":"北陸","_voltage_kv":500.0,"_display_name":"加賀変電所"},"geometry":{"type":"Point","coordinates":[136.7169,36.501]}},{"type":"Feature","properties":{"_region":"hokuriku","_region_ja":"北陸","_voltage_kv":275.0,"_display_name":""},"geometry":{"type":"Point","coordinates":[136.2936,36.1413]}},{"type":"Feature","properties":{"_region":"hokuriku","_region_ja":"北陸","_voltage_kv":275.0,"_display_name":""},"geometry":{"type":"Point","coordinates":[136.2869,36.2067]}},{"type":"Feature","properties":{"_region":"hokuriku","_region_ja":"北陸","_voltage_kv":500.0,"_display_name":"越前変電所"},"geometry":{"type":"Point","coordinates":[136.416,35.9954]}},{"type":"Feature","properties":{"_region":"hokuriku","_region_ja":"北陸","_voltage_kv":500.0,"_display_name":"新信濃変電所"},"geometry":{"type":"Point","coordinates":[137.8843,36.1388]}},{"type":"Feature","properties":{"_region":"hokuriku","_region_ja":"北陸","_voltage_kv":275.0,"_display_name":"城端開閉所"},"geometry":{"type":"Point","coordinates":[136.9154,36.4959]}},{"type":"Feature","properties":{"_region":"hokuriku","_region_ja":"北陸","_voltage_kv":275.0,"_display_name":"新愛本変電所"},"geometry":{"type":"Point","coordinates":[137.5543,36.856]}},{"type":"Feature","properties":{"_region":"hokuriku","_region_ja":"北陸","_voltage_kv":275.0,"_display_name":""},"geometry":{"type":"Point","coordinates":[136.9096,36.1406]}},{"type":"Feature","properties":{"_region":"hokuriku","_region_ja":"北陸","_voltage_kv":275.0,"_display_name":"新富山変電所"},"geometry":{"type":"Point","coordinates":[137.0814,36.698]}},{"type":"Feature","properties":{"_region":"hokuriku","_region_ja":"北陸","_voltage_kv":275.0,"_display_name":""},"geometry":{"type":"Point","coordinates":[136.1731,35.8095]}},{"type":"Feature","properties":{"_region":"hokuriku","_region_ja":"北陸","_voltage_kv":500.0,"_display_name":""},"geometry":{"type":"Point","coordinates":[136.6609,35.7351]}},{"type":"Feature","properties":{"_region":"hokuriku","_region_ja":"北陸","_voltage_kv":500.0,"_display_name":""},"geometry":{"type":"Point","coordinates":[136.0174,35.7536]}},{"type":"Feature","properties":{"_region":"hokuriku","_region_ja":"北陸","_voltage_kv":500.0,"_display_name":"飛騨変換所"},"geometry":{"type":"Point","coordinates":[137.0596,36.0705]}},{"type":"Feature","properties":{"_region":"hokuriku","_region_ja":"北陸","_voltage_kv":500.0,"_display_name":"南福光変電所"},"geometry":{"type":"Point","coordinates":[136.8248,36.4996]}},{"type":"Feature","properties":{"_region":"hokuriku","_region_ja":"北陸","_voltage_kv":275.0,"_display_name":""},"geometry":{"type":"Point","coordinates":[136.9009,36.2802]}},{"type":"Feature","properties":{"_region":"hokuriku","_region_ja":"北陸","_voltage_kv":275.0,"_display_name":""},"geometry":{"type":"Point","coordinates":[136.8758,36.3546]}},{"type":"Feature","properties":{"_region":"hokuriku","_region_ja":"北陸","_voltage_kv":275.0,"_display_name":""},"geometry":{"type":"Point","coordinates":[136.9819,36.4769]}},{"type":"Feature","properties":{"_region":"hokuriku","_region_ja":"北陸","_voltage_kv":275.0,"_display_name":""},"geometry":{"type":"Point","coordinates":[136.9822,36.4777]}},{"type":"Feature","properties":{"_region":"hokuriku","_region_ja":"北陸","_voltage_kv":500.0,"_display_name":""},"geometry":{"type":"Point","coordinates":[136.0206,35.7521]}},{"type":"Feature","properties":{"_region":"hokuriku","_region_ja":"北陸","_voltage_kv":275.0,"_display_name":""},"geometry":{"type":"Point","coordinates":[137.0073,37.0654]}},{"type":"Feature","properties":{"_region":"kansai","_region_ja":"関西","_voltage_kv":275.0,"_display_name":"南大阪変電所"},"geometry":{"type":"Point","coordinates":[135.4713,34.4682]}},{"type":"Feature","properties":{"_region":"kansai","_region_ja":"関西","_voltage_kv":500.0,"_display_name":"金剛変電所"},"geometry":{"type":"Point","coordinates":[135.5868,34.403]}},{"type":"Feature","properties":{"_region":"kansai","_region_ja":"関西","_voltage_kv":500.0,"_display_name":"紀北変換所"},"geometry":{"type":"Point","coordinates":[135.5022,34.2143]}},{"type":"Feature","properties":{"_region":"kansai","_region_ja":"関西","_voltage_kv":500.0,"_display_name":"信貴変電所"},"geometry":{"type":"Point","coordinates":[135.6477,34.5973]}},{"type":"Feature","properties":{"_region":"kansai","_region_ja":"関西","_voltage_kv":275.0,"_display_name":"南河内変電所"},"geometry":{"type":"Point","coordinates":[135.6264,34.4974]}},{"type":"Feature","properties":{"_region":"kansai","_region_ja":"関西","_voltage_kv":275.0,"_display_name":""},"geometry":{"type":"Point","coordinates":[135.3613,34.3797]}},{"type":"Feature","properties":{"_region":"kansai","_region_ja":"関西","_voltage_kv":770006.6,"_display_name":"泉北港変電所"},"geometry":{"type":"Point","coordinates":[135.4064,34.5406]}},{"type":"Feature","properties":{"_region":"kansai","_region_ja":"関西","_voltage_kv":500.0,"_display_name":"由良開閉所"},"geometry":{"type":"Point","coordinates":[135.0892,33.9769]}},{"type":"Feature","properties":{"_region":"kansai","_region_ja":"関西","_voltage_kv":500.0,"_display_name":"紀の川変電所"},"geometry":{"type":"Point","coordinates":[135.3362,34.2113]}},{"type":"Feature","properties":{"_region":"kansai","_region_ja":"関西","_voltage_kv":500.0,"_display_name":"阿南周波数変換所"},"geometry":{"type":"Point","coordinates":[134.6367,33.8277]}},{"type":"Feature","properties":{"_region":"kansai","_region_ja":"関西","_voltage_kv":770006.6,"_display_name":"信太変電所"},"geometry":{"type":"Point","coordinates":[135.4378,34.5113]}},{"type":"Feature","properties":{"_region":"kansai","_region_ja":"関西","_voltage_kv":500.0,"_display_name":""},"geometry":{"type":"Point","coordinates":[135.1543,33.8605]}},{"type":"Feature","properties":{"_region":"kansai","_region_ja":"関西","_voltage_kv":275.0,"_display_name":"海南港変電所"},"geometry":{"type":"Point","coordinates":[135.1876,34.1548]}},{"type":"Feature","properties":{"_region":"kansai","_region_ja":"関西","_voltage_kv":770006.6,"_display_name":"高石変電所"},"geometry":{"type":"Point","coordinates":[135.4281,34.5222]}},{"type":"Feature","properties":{"_region":"kansai","_region_ja":"関西","_voltage_kv":275.0,"_display_name":"多奈川変電所"},"geometry":{"type":"Point","coordinates":[135.1263,34.3211]}},{"type":"Feature","properties":{"_region":"kansai","_region_ja":"関西","_voltage_kv":770006.6,"_display_name":"助松変電所"},"geometry":{"type":"Point","coordinates":[135.4187,34.5111]}},{"type":"Feature","properties":{"_region":"kansai","_region_ja":"関西","_voltage_kv":275.0,"_display_name":"北葛城変電所"},"geometry":{"type":"Point","coordinates":[135.7254658,34.4982434]}},{"type":"Feature","properties":{"_region":"kansai","_region_ja":"関西","_voltage_kv":275.0,"_display_name":"北葛城変電所"},"geometry":{"type":"Point","coordinates":[135.7253,34.4984]}},{"type":"Feature","properties":{"_region":"kansai","_region_ja":"関西","_voltage_kv":500.0,"_display_name":"東大和開閉所"},"geometry":{"type":"Point","coordinates":[135.9026,34.4489]}},{"type":"Feature","properties":{"_region":"kansai","_region_ja":"関西","_voltage_kv":275.0,"_display_name":"南勢変電所 (Nansei Hendensho)"},"geometry":{"type":"Point","coordinates":[136.5383,34.5457]}},{"type":"Feature","properties":{"_region":"kansai","_region_ja":"関西","_voltage_kv":275.0,"_display_name":"伊勢開閉所"},"geometry":{"type":"Point","coordinates":[136.3703,34.4456]}},{"type":"Feature","properties":{"_region":"kansai","_region_ja":"関西","_voltage_kv":500.0,"_display_name":""},"geometry":{"type":"Point","coordinates":[135.8224,34.113]}},{"type":"Feature","properties":{"_region":"kansai","_region_ja":"関西","_voltage_kv":500.0,"_display_name":"新綾部変電所"},"geometry":{"type":"MultiPolygon","coordinates":[[[[135.2687648,35.3504146],[135.2686722,35.3494449],[135.2660219,35.3496132],[135.2661145,35.3505829],[135.2687648,35.3504146]]],[[[135.2644211,35.3529878],[135.2643983,35.3527917],[135.2674719,35.3525541],[135.2673144,35.3511994],[135.2661862,35.3512867],[135.2662187,35.3515658],[135.2642148,35.3517207],[135.2642029,35.3516186],[135.2636266,35.3516631],[135.2637862,35.3530369],[135.2644211,35.3529878]]]]}},{"type":"Feature","properties":{"_region":"kansai","_region_ja":"関西","_voltage_kv":275.0,"_display_name":"新神戸変電所"},"geometry":{"type":"Point","coordinates":[135.2455,34.7337]}},{"type":"Feature","properties":{"_region":"kansai","_region_ja":"関西","_voltage_kv":275.0,"_display_name":"宝塚開閉所 (Takarazuka Kaiheisho)"},"geometry":{"type":"Point","coordinates":[135.34,34.8764]}},{"type":"Feature","properties":{"_region":"kansai","_region_ja":"関西","_voltage_kv":275.0,"_display_name":"伊丹変電所"},"geometry":{"type":"Point","coordinates":[135.3752,34.786]}},{"type":"Feature","properties":{"_region":"kansai","_region_ja":"関西","_voltage_kv":500.0,"_display_name":"猪名川変電所"},"geometry":{"type":"Point","coordinates":[135.3456,34.9843]}},{"type":"Feature","properties":{"_region":"kansai","_region_ja":"関西","_voltage_kv":275.0,"_display_name":"西大阪変電所"},"geometry":{"type":"Point","coordinates":[135.5083,34.8689]}},{"type":"Feature","properties":{"_region":"kansai","_region_ja":"関西","_voltage_kv":275.0,"_display_name":"北大阪変電所"},"geometry":{"type":"Point","coordinates":[135.5759,34.881]}},{"type":"Feature","properties":{"_region":"kansai","_region_ja":"関西","_voltage_kv":275.0,"_display_name":"小曽根電力所"},"geometry":{"type":"Point","coordinates":[135.4818,34.7551]}},{"type":"Feature","properties":{"_region":"kansai","_region_ja":"関西","_voltage_kv":275.0,"_display_name":"東大阪変電所"},"geometry":{"type":"Point","coordinates":[135.6421,34.7047]}},{"type":"Feature","properties":{"_region":"kansai","_region_ja":"関西","_voltage_kv":500.0,"_display_name":"西京都変電所"},"geometry":{"type":"Point","coordinates":[135.6201,34.9697]}},{"type":"Feature","properties":{"_region":"kansai","_region_ja":"関西","_voltage_kv":500.0,"_display_name":"北摂変電所"},"geometry":{"type":"Point","coordinates":[135.1104,34.9321]}},{"type":"Feature","properties":{"_region":"kansai","_region_ja":"関西","_voltage_kv":275.0,"_display_name":"西神戸変電所"},"geometry":{"type":"Point","coordinates":[135.0867,34.7114]}},{"type":"Feature","properties":{"_region":"kansai","_region_ja":"関西","_voltage_kv":500.0,"_display_name":"山崎開閉所"},"geometry":{"type":"Point","coordinates":[134.6024,35.063]}},{"type":"Feature","properties":{"_region":"kansai","_region_ja":"関西","_voltage_kv":275.0,"_display_name":"姫路変電所"},"geometry":{"type":"Point","coordinates":[134.6682,34.8489]}},{"type":"Feature","properties":{"_region":"kansai","_region_ja":"関西","_voltage_kv":500.0,"_display_name":"能勢変電所"},"geometry":{"type":"Point","coordinates":[135.4842,34.9903]}},{"type":"Feature","properties":{"_region":"kansai","_region_ja":"関西","_voltage_kv":275.0,"_display_name":"新加古川変電所"},"geometry":{"type":"Point","coordinates":[134.857,34.8025]}},{"type":"Feature","properties":{"_region":"kansai","_region_ja":"関西","_voltage_kv":500.0,"_display_name":"京北開閉所"},"geometry":{"type":"Point","coordinates":[135.6444,35.1368]}},{"type":"Feature","properties":{"_region":"kansai","_region_ja":"関西","_voltage_kv":770006.6,"_display_name":"難波変電所"},"geometry":{"type":"Point","coordinates":[135.5032,34.66]}},{"type":"Feature","properties":{"_region":"kansai","_region_ja":"関西","_voltage_kv":275.0,"_display_name":""},"geometry":{"type":"Point","coordinates":[134.6692,34.7734]}},{"type":"Feature","properties":{"_region":"kansai","_region_ja":"関西","_voltage_kv":77000220006.6,"_display_name":"湊町変電所"},"geometry":{"type":"Point","coordinates":[135.4927,34.6653]}},{"type":"Feature","properties":{"_region":"kansai","_region_ja":"関西","_voltage_kv":500.0,"_display_name":"嶺南変電所"},"geometry":{"type":"MultiPolygon","coordinates":[[[[135.9700611,35.557217],[135.970155,35.5572399],[135.97032,35.5572716],[135.9704138,35.5572945],[135.9705211,35.5573316],[135.9705868,35.5573709],[135.9706465,35.5574352],[135.97068,35.5575012],[135.9706921,35.5575967],[135.9715719,35.5573605],[135.9716745,35.557361],[135.9717689,35.5573874],[135.9714304,35.5566748],[135.9709764,35.5556846],[135.9709221,35.5555799],[135.9708819,35.5555281],[135.9708121,35.5554681],[135.9707391,35.5554239],[135.9706317,35.555371],[135.9701168,35.5551483],[135.9700544,35.5552346],[135.9699994,35.5552586],[135.9698211,35.5552662],[135.9695166,35.5554102],[135.9690768,35.5556274],[135.9690084,35.5556797],[135.9689681,35.5557332],[135.9689386,35.5558085],[135.9688012,35.5563082],[135.9687482,35.5564969],[135.9687468,35.5565875],[135.968779,35.5566562],[135.9688541,35.5567173],[135.9689131,35.5567588],[135.9689922,35.5567894],[135.9690928,35.5568188],[135.969455,35.5569104],[135.969518,35.5569323],[135.9695998,35.5569737],[135.9697701,35.5570959],[135.9699377,35.557169],[135.9700611,35.557217]]],[[[135.9720342,35.5578146],[135.9722817,35.5583749],[135.9724361,35.5586431],[135.9736166,35.5581903],[135.973964,35.5580596],[135.9744164,35.5578903],[135.9749313,35.5576988],[135.9752693,35.5575727],[135.975447,35.5575028],[135.9755127,35.5574658],[135.9755583,35.5574058],[135.9755818,35.5573376],[135.9755647,35.5572601],[135.9753022,35.5566884],[135.9752498,35.5565815],[135.9752076,35.5565274],[135.9751479,35.556485],[135.9750715,35.5564587],[135.9749749,35.5564522],[135.9748811,35.5564693],[135.9746195,35.5565563],[135.9745928,35.5565183],[135.9745444,35.5563911],[135.9746075,35.5562624],[135.974299,35.5557845],[135.9742226,35.555599],[135.9741287,35.5554102],[135.9738216,35.5548407],[135.9735546,35.5543388],[135.9734921,35.5542706],[135.973434,35.5542384],[135.9733549,35.5542253],[135.9732878,35.5542319],[135.9729807,35.5543497],[135.9725837,35.5544741],[135.9721251,35.5546367],[135.9712239,35.5549367],[135.970845,35.5550584],[135.9707555,35.5550788],[135.9706582,35.5550873],[135.970564,35.5550862],[135.9704205,35.5550687],[135.9702878,35.5550709],[135.9702167,35.5550895],[135.9701818,35.5551249],[135.9707625,35.555383],[135.9708383,35.5554293],[135.970898,35.5554763],[135.9709509,35.555533],[135.9710019,35.5556045],[135.9714915,35.5566547],[135.9718247,35.5573665],[135.9720342,35.5578146]]],[[[135.9717911,35.5574369],[135.9716899,35.557408],[135.9716356,35.5573987],[135.9715672,35.5574041],[135.9707082,35.5576343],[135.9707142,35.5578673],[135.9706961,35.5580506],[135.9706613,35.558367],[135.9706673,35.5584128],[135.970796,35.5585655],[135.9708282,35.558613],[135.9711648,35.558847],[135.9712748,35.5589065],[135.9713197,35.5589239],[135.9713794,35.5589332],[135.9714465,35.5589321],[135.9718528,35.5588361],[135.9721479,35.5587619],[135.9723785,35.558679],[135.9721911,35.5583244],[135.9717911,35.5574369]]]]}},{"type":"Feature","properties":{"_region":"kansai","_region_ja":"関西","_voltage_kv":500.0,"_display_name":"新生駒 変電所"},"geometry":{"type":"Point","coordinates":[135.7152,34.7347]}},{"type":"Feature","properties":{"_region":"kansai","_region_ja":"関西","_voltage_kv":500.0,"_display_name":"南京都変電所"},"geometry":{"type":"Point","coordinates":[135.8974,34.8658]}},{"type":"Feature","properties":{"_region":"kansai","_region_ja":"関西","_voltage_kv":275.0,"_display_name":"西濃変電所"},"geometry":{"type":"Point","coordinates":[136.6448,35.4275]}},{"type":"Feature","properties":{"_region":"kansai","_region_ja":"関西","_voltage_kv":500.0,"_display_name":"西部変電所"},"geometry":{"type":"Point","coordinates":[136.5144,35.1928]}},{"type":"Feature","properties":{"_region":"kansai","_region_ja":"関西","_voltage_kv":500.0,"_display_name":"三重開閉所"},"geometry":{"type":"Point","coordinates":[136.4513,35.2033]}},{"type":"Feature","properties":{"_region":"kansai","_region_ja":"関西","_voltage_kv":500.0,"_display_name":"東近江開閉所"},"geometry":{"type":"Point","coordinates":[136.2935,35.0953]}},{"type":"Feature","properties":{"_region":"kansai","_region_ja":"関西","_voltage_kv":275.0,"_display_name":"淀川変電所"},"geometry":{"type":"Point","coordinates":[135.6572,34.8604]}},{"type":"Feature","properties":{"_region":"kansai","_region_ja":"関西","_voltage_kv":275.0,"_display_name":"西名古屋変電所"},"geometry":{"type":"Point","coordinates":[136.6157,35.0837]}},{"type":"Feature","properties":{"_region":"kansai","_region_ja":"関西","_voltage_kv":275.0,"_display_name":"西尾張"},"geometry":{"type":"Point","coordinates":[136.6973,35.1385]}},{"type":"Feature","properties":{"_region":"kansai","_region_ja":"関西","_voltage_kv":275.0,"_display_name":""},"geometry":{"type":"Point","coordinates":[136.6745,35.045]}},{"type":"Feature","properties":{"_region":"kansai","_region_ja":"関西","_voltage_kv":275.0,"_display_name":"湖東変電所"},"geometry":{"type":"Point","coordinates":[136.3058,35.3128]}},{"type":"Feature","properties":{"_region":"kansai","_region_ja":"関西","_voltage_kv":275.0,"_display_name":"甲賀変電所"},"geometry":{"type":"Point","coordinates":[136.1424,35.0068]}},{"type":"Feature","properties":{"_region":"kansai","_region_ja":"関西","_voltage_kv":500.0,"_display_name":""},"geometry":{"type":"Point","coordinates":[136.7234,35.5841]}},{"type":"Feature","properties":{"_region":"kansai","_region_ja":"関西","_voltage_kv":275.0,"_display_name":"湖南変電所"},"geometry":{"type":"Point","coordinates":[135.8953,34.938]}},{"type":"Feature","properties":{"_region":"kansai","_region_ja":"関西","_voltage_kv":275.0,"_display_name":"枚方変電所"},"geometry":{"type":"Point","coordinates":[135.7022,34.7947]}},{"type":"Feature","properties":{"_region":"kansai","_region_ja":"関西","_voltage_kv":275.0,"_display_name":""},"geometry":{"type":"Point","coordinates":[136.4058,34.716]}},{"type":"Feature","properties":{"_region":"kansai","_region_ja":"関西","_voltage_kv":275.0,"_display_name":"新鈴鹿変電所"},"geometry":{"type":"Point","coordinates":[136.4372,34.8398]}},{"type":"Feature","properties":{"_region":"kansai","_region_ja":"関西","_voltage_kv":500.0,"_display_name":""},"geometry":{"type":"Point","coordinates":[136.6609,35.7351]}},{"type":"Feature","properties":{"_region":"kansai","_region_ja":"関西","_voltage_kv":500.0,"_display_name":""},"geometry":{"type":"Point","coordinates":[136.0174,35.7536]}},{"type":"Feature","properties":{"_region":"kansai","_region_ja":"関西","_voltage_kv":500.0,"_display_name":""},"geometry":{"type":"Point","coordinates":[136.0206,35.7521]}},{"type":"Feature","properties":{"_region":"kansai","_region_ja":"関西","_voltage_kv":275.0,"_display_name":"新寝屋川変電所"},"geometry":{"type":"Point","coordinates":[135.6588,34.7618]}},{"type":"Feature","properties":{"_region":"chugoku","_region_ja":"中国","_voltage_kv":500.0,"_display_name":"讃岐変電所"},"geometry":{"type":"Point","coordinates":[133.9535,34.165]}},{"type":"Feature","properties":{"_region":"chugoku","_region_ja":"中国","_voltage_kv":500.0,"_display_name":""},"geometry":{"type":"Point","coordinates":[133.8623,34.3021]}},{"type":"Feature","properties":{"_region":"chugoku","_region_ja":"中国","_voltage_kv":500.0,"_display_name":"新広島変電所"},"geometry":{"type":"Point","coordinates":[132.7095,34.4892]}},{"type":"Feature","properties":{"_region":"chugoku","_region_ja":"中国","_voltage_kv":500.0,"_display_name":"東予変電所"},"geometry":{"type":"Point","coordinates":[133.3948,33.944]}},{"type":"Feature","properties":{"_region":"chugoku","_region_ja":"中国","_voltage_kv":500.0,"_display_name":"川内発電所"},"geometry":{"type":"Point","coordinates":[132.9288,33.7922]}},{"type":"Feature","properties":{"_region":"chugoku","_region_ja":"中国","_voltage_kv":500.0,"_display_name":"北九州変電所"},"geometry":{"type":"Point","coordinates":[130.8044,33.8098]}},{"type":"Feature","properties":{"_region":"chugoku","_region_ja":"中国","_voltage_kv":500.0,"_display_name":"新西広島変電所"},"geometry":{"type":"Point","coordinates":[132.2576,34.4126]}},{"type":"Feature","properties":{"_region":"chugoku","_region_ja":"中国","_voltage_kv":500.0,"_display_name":"新山口変電所"},"geometry":{"type":"Point","coordinates":[131.093,34.1631]}},{"type":"Feature","properties":{"_region":"chugoku","_region_ja":"中国","_voltage_kv":500.0,"_display_name":"東岡山変電所"},"geometry":{"type":"Point","coordinates":[134.0244,34.8877]}},{"type":"Feature","properties":{"_region":"chugoku","_region_ja":"中国","_voltage_kv":500.0,"_display_name":"西播変電所"},"geometry":{"type":"Point","coordinates":[134.4256,34.8616]}},{"type":"Feature","properties":{"_region":"chugoku","_region_ja":"中国","_voltage_kv":500.0,"_display_name":"新岡山変電所"},"geometry":{"type":"Point","coordinates":[133.3884,34.8039]}},{"type":"Feature","properties":{"_region":"chugoku","_region_ja":"中国","_voltage_kv":500.0,"_display_name":"日野変電所"},"geometry":{"type":"Point","coordinates":[133.4058,35.2962]}},{"type":"Feature","properties":{"_region":"chugoku","_region_ja":"中国","_voltage_kv":500.0,"_display_name":""},"geometry":{"type":"Point","coordinates":[133.7833,34.4581]}},{"type":"Feature","properties":{"_region":"chugoku","_region_ja":"中国","_voltage_kv":500.0,"_display_name":"東山口変電所 (Higashi Yamaguchi Hendensho)"},"geometry":{"type":"Point","coordinates":[131.8263,34.2]}},{"type":"Feature","properties":{"_region":"chugoku","_region_ja":"中国","_voltage_kv":500.0,"_display_name":"阿波変電所"},"geometry":{"type":"Point","coordinates":[134.4083,34.0008]}},{"type":"Feature","properties":{"_region":"chugoku","_region_ja":"中国","_voltage_kv":500.0,"_display_name":"西島根変電所"},"geometry":{"type":"Point","coordinates":[131.9794,34.6976]}},{"type":"Feature","properties":{"_region":"chugoku","_region_ja":"中国","_voltage_kv":500.0,"_display_name":"北松江変電所"},"geometry":{"type":"Point","coordinates":[133.1154,35.4703]}},{"type":"Feature","properties":{"_region":"chugoku","_region_ja":"中国","_voltage_kv":500.0,"_display_name":""},"geometry":{"type":"Point","coordinates":[133.1061,35.4096]}},{"type":"Feature","properties":{"_region":"chugoku","_region_ja":"中国","_voltage_kv":275.0,"_display_name":""},"geometry":{"type":"Point","coordinates":[131.9221,34.7761]}},{"type":"Feature","properties":{"_region":"chugoku","_region_ja":"中国","_voltage_kv":650.0,"_display_name":"段原変電所"},"geometry":{"type":"Point","coordinates":[132.4738,34.3899]}},{"type":"Feature","properties":{"_region":"shikoku","_region_ja":"四国","_voltage_kv":500.0,"_display_name":"讃岐変電所"},"geometry":{"type":"Point","coordinates":[133.9535,34.165]}},{"type":"Feature","properties":{"_region":"shikoku","_region_ja":"四国","_voltage_kv":500.0,"_display_name":""},"geometry":{"type":"Point","coordinates":[133.8623,34.3021]}},{"type":"Feature","properties":{"_region":"shikoku","_region_ja":"四国","_voltage_kv":500.0,"_display_name":"東予変電所"},"geometry":{"type":"Point","coordinates":[133.3948,33.944]}},{"type":"Feature","properties":{"_region":"shikoku","_region_ja":"四国","_voltage_kv":500.0,"_display_name":"川内発電所"},"geometry":{"type":"Point","coordinates":[132.9288,33.7922]}},{"type":"Feature","properties":{"_region":"shikoku","_region_ja":"四国","_voltage_kv":500.0,"_display_name":"阿波変電所"},"geometry":{"type":"Point","coordinates":[134.4083,34.0008]}},{"type":"Feature","properties":{"_region":"shikoku","_region_ja":"四国","_voltage_kv":500.0,"_display_name":"阿波変電所"},"geometry":{"type":"Point","coordinates":[134.4083,34.0008]}},{"type":"Feature","properties":{"_region":"shikoku","_region_ja":"四国","_voltage_kv":500.0,"_display_name":"阿南周波数変換所"},"geometry":{"type":"Point","coordinates":[134.6367,33.8277]}},{"type":"Feature","properties":{"_region":"shikoku","_region_ja":"四国","_voltage_kv":500.0,"_display_name":""},"geometry":{"type":"Point","coordinates":[132.3119,33.4889]}},{"type":"Feature","properties":{"_region":"shikoku","_region_ja":"四国","_voltage_kv":650.0,"_display_name":"段原変電所"},"geometry":{"type":"Point","coordinates":[132.4738,34.3899]}},{"type":"Feature","properties":{"_region":"kyushu","_region_ja":"九州","_voltage_kv":500.0,"_display_name":"九州電力中央変電所"},"geometry":{"type":"Point","coordinates":[130.6238,33.4919]}},{"type":"Feature","properties":{"_region":"kyushu","_region_ja":"九州","_voltage_kv":500.0,"_display_name":"九州電力中央変電所"},"geometry":{"type":"Point","coordinates":[130.6225,33.4907]}},{"type":"Feature","properties":{"_region":"kyushu","_region_ja":"九州","_voltage_kv":500.0,"_display_name":"九州電力脊振変電所"},"geometry":{"type":"Point","coordinates":[130.3646,33.4702]}},{"type":"Feature","properties":{"_region":"kyushu","_region_ja":"九州","_voltage_kv":500.0,"_display_name":"九州電力西九州変電所"},"geometry":{"type":"Point","coordinates":[129.9294,33.3497]}},{"type":"Feature","properties":{"_region":"kyushu","_region_ja":"九州","_voltage_kv":500.0,"_display_name":"3/4号 開閉所"},"geometry":{"type":"Point","coordinates":[129.8346,33.5156]}},{"type":"Feature","properties":{"_region":"kyushu","_region_ja":"九州","_voltage_kv":500.0,"_display_name":"北九州変電所"},"geometry":{"type":"Point","coordinates":[130.8044,33.8098]}},{"type":"Feature","properties":{"_region":"kyushu","_region_ja":"九州","_voltage_kv":500.0,"_display_name":"豊前変電所"},"geometry":{"type":"Point","coordinates":[131.0155,33.608]}},{"type":"Feature","properties":{"_region":"kyushu","_region_ja":"九州","_voltage_kv":500.0,"_display_name":"新山口変電所"},"geometry":{"type":"Point","coordinates":[131.093,34.1631]}},{"type":"Feature","properties":{"_region":"kyushu","_region_ja":"九州","_voltage_kv":500.0,"_display_name":"南九州変電所"},"geometry":{"type":"Point","coordinates":[130.6552,31.958]}},{"type":"Feature","properties":{"_region":"kyushu","_region_ja":"九州","_voltage_kv":500.0,"_display_name":"九州電力 中九州変電所"},"geometry":{"type":"Point","coordinates":[130.7989,32.6147]}},{"type":"Feature","properties":{"_region":"kyushu","_region_ja":"九州","_voltage_kv":500.0,"_display_name":"東九州変電所"},"geometry":{"type":"Point","coordinates":[131.7294,33.1344]}},{"type":"Feature","properties":{"_region":"kyushu","_region_ja":"九州","_voltage_kv":500.0,"_display_name":"ひむか変電所"},"geometry":{"type":"Point","coordinates":[131.3855,32.251]}},{"type":"Feature","properties":{"_region":"kyushu","_region_ja":"九州","_voltage_kv":500.0,"_display_name":"宮崎変電所"},"geometry":{"type":"Point","coordinates":[131.1942,31.9221]}},{"type":"Feature","properties":{"_region":"kyushu","_region_ja":"九州","_voltage_kv":500.0,"_display_name":"東山口変電所 (Higashi Yamaguchi Hendensho)"},"geometry":{"type":"Point","coordinates":[131.8263,34.2]}},{"type":"Feature","properties":{"_region":"kyushu","_region_ja":"九州","_voltage_kv":500.0,"_display_name":"熊本変電所"},"geometry":{"type":"Point","coordinates":[130.9026,32.9091]}}]}