{"type":"FeatureCollection","features":[{"type":"Feature","properties":{"_region":"hokkaido","_region_ja":"北海道","_voltage_kv":187.0,"_display_name":"西室蘭開閉所"},"geometry":{"type":"Point","coordinates":[140.9947,42.4016]}},{"type":"Feature","properties":{"_region":"hokkaido","_region_ja":"北海道","_voltage_kv":187.0,"_display_name":"室蘭変電所"},"geometry":{"type":"Point","coordinates":[141.033,42.3724]}},{"type":"Feature","properties":{"_region":"hokkaido","_region_ja":"北海道","_voltage_kv":187.0,"_display_name":"七飯発電所"},"geometry":{"type":"Point","coordinates":[140.6545,41.9321]}},{"type":"Feature","properties":{"_region":"hokkaido","_region_ja":"北海道","_voltage_kv":275.0,"_display_name":"Ōno Substation"},"geometry":{"type":"Point","coordinates":[140.6073,41.888]}},{"type":"Feature","properties":{"_region":"hokkaido","_region_ja":"北海道","_voltage_kv":187.0,"_display_name":"電源開発株式会社北地域制御所"},"geometry":{"type":"Point","coordinates":[140.6642,41.932]}},{"type":"Feature","properties":{"_region":"hokkaido","_region_ja":"北海道","_voltage_kv":154.0,"_display_name":"下北変電所"},"geometry":{"type":"Point","coordinates":[141.1939,41.3058]}},{"type":"Feature","properties":{"_region":"hokkaido","_region_ja":"北海道","_voltage_kv":187.0,"_display_name":""},"geometry":{"type":"Point","coordinates":[141.0083,42.3497]}},{"type":"Feature","properties":{"_region":"hokkaido","_region_ja":"北海道","_voltage_kv":187.0,"_display_name":"JR北海道 新函館変電所"},"geometry":{"type":"Point","coordinates":[140.6443,41.8416]}},{"type":"Feature","properties":{"_region":"hokkaido","_region_ja":"北海道","_voltage_kv":275.0,"_display_name":"北斗変換所"},"geometry":{"type":"Point","coordinates":[140.585,41.9163]}},{"type":"Feature","properties":{"_region":"hokkaido","_region_ja":"北海道","_voltage_kv":250.0,"_display_name":"吉岡ケーブルヘッド"},"geometry":{"type":"Point","coordinates":[140.2347,41.4418]}},{"type":"Feature","properties":{"_region":"hokkaido","_region_ja":"北海道","_voltage_kv":154.0,"_display_name":""},"geometry":{"type":"Point","coordinates":[141.4023,41.3791]}},{"type":"Feature","properties":{"_region":"hokkaido","_region_ja":"北海道","_voltage_kv":187.0,"_display_name":"苫小牧変電所"},"geometry":{"type":"Point","coordinates":[141.5566,42.6346]}},{"type":"Feature","properties":{"_region":"hokkaido","_region_ja":"北海道","_voltage_kv":187.0,"_display_name":""},"geometry":{"type":"Point","coordinates":[141.6618,42.6389]}},{"type":"Feature","properties":{"_region":"hokkaido","_region_ja":"北海道","_voltage_kv":275.0,"_display_name":"南早来変電所"},"geometry":{"type":"Point","coordinates":[141.7811,42.7139]}},{"type":"Feature","properties":{"_region":"hokkaido","_region_ja":"北海道","_voltage_kv":187.0,"_display_name":"新冠開閉所"},"geometry":{"type":"Point","coordinates":[142.5478,42.5999]}},{"type":"Feature","properties":{"_region":"hokkaido","_region_ja":"北海道","_voltage_kv":187.0,"_display_name":""},"geometry":{"type":"Point","coordinates":[142.592,42.6783]}},{"type":"Feature","properties":{"_region":"hokkaido","_region_ja":"北海道","_voltage_kv":187.0,"_display_name":"岩清水開閉所"},"geometry":{"type":"Point","coordinates":[142.5175,42.5105]}},{"type":"Feature","properties":{"_region":"hokkaido","_region_ja":"北海道","_voltage_kv":187.0,"_display_name":""},"geometry":{"type":"Point","coordinates":[142.5652,42.412]}},{"type":"Feature","properties":{"_region":"hokkaido","_region_ja":"北海道","_voltage_kv":275.0,"_display_name":""},"geometry":{"type":"Point","coordinates":[141.8035,42.612]}},{"type":"Feature","properties":{"_region":"hokkaido","_region_ja":"北海道","_voltage_kv":187.0,"_display_name":""},"geometry":{"type":"Point","coordinates":[141.6974,42.6444]}},{"type":"Feature","properties":{"_region":"hokkaido","_region_ja":"北海道","_voltage_kv":187.0,"_display_name":"南札幌変電所"},"geometry":{"type":"Point","coordinates":[141.4183,43.0223]}},{"type":"Feature","properties":{"_region":"hokkaido","_region_ja":"北海道","_voltage_kv":275.0,"_display_name":"西野変電所"},"geometry":{"type":"Point","coordinates":[141.2225,43.0575]}},{"type":"Feature","properties":{"_region":"hokkaido","_region_ja":"北海道","_voltage_kv":187.0,"_display_name":"西札幌変電所"},"geometry":{"type":"Point","coordinates":[141.2829,43.1218]}},{"type":"Feature","properties":{"_region":"hokkaido","_region_ja":"北海道","_voltage_kv":275.0,"_display_name":"西当別変電所"},"geometry":{"type":"Point","coordinates":[141.4506,43.2344]}},{"type":"Feature","properties":{"_region":"hokkaido","_region_ja":"北海道","_voltage_kv":187.0,"_display_name":"篠路変電所"},"geometry":{"type":"Point","coordinates":[141.3741,43.1388]}},{"type":"Feature","properties":{"_region":"hokkaido","_region_ja":"北海道","_voltage_kv":187.0,"_display_name":""},"geometry":{"type":"Point","coordinates":[141.3056,43.0366]}},{"type":"Feature","properties":{"_region":"hokkaido","_region_ja":"北海道","_voltage_kv":187.0,"_display_name":"苗穂変電所"},"geometry":{"type":"Point","coordinates":[141.4029,43.0928]}},{"type":"Feature","properties":{"_region":"hokkaido","_region_ja":"北海道","_voltage_kv":187.0,"_display_name":"西小樽変電所"},"geometry":{"type":"Point","coordinates":[140.9569,43.2047]}},{"type":"Feature","properties":{"_region":"hokkaido","_region_ja":"北海道","_voltage_kv":187.0,"_display_name":"Futaba Switching Station"},"geometry":{"type":"Point","coordinates":[141.0338,42.743]}},{"type":"Feature","properties":{"_region":"hokkaido","_region_ja":"北海道","_voltage_kv":275.0,"_display_name":"Nishifutaba Switching Station"},"geometry":{"type":"Point","coordinates":[141.0356,42.7494]}},{"type":"Feature","properties":{"_region":"hokkaido","_region_ja":"北海道","_voltage_kv":275.0,"_display_name":"石狩湾新港発電所"},"geometry":{"type":"Point","coordinates":[141.2765,43.192]}},{"type":"Feature","properties":{"_region":"hokkaido","_region_ja":"北海道","_voltage_kv":187.0,"_display_name":"西旭川変電所"},"geometry":{"type":"Point","coordinates":[142.323,43.8062]}},{"type":"Feature","properties":{"_region":"hokkaido","_region_ja":"北海道","_voltage_kv":187.0,"_display_name":""},"geometry":{"type":"Point","coordinates":[143.457,43.2549]}},{"type":"Feature","properties":{"_region":"hokkaido","_region_ja":"北海道","_voltage_kv":187.0,"_display_name":"北海道電力　総合研究所"},"geometry":{"type":"Point","coordinates":[141.5371,43.1204]}},{"type":"Feature","properties":{"_region":"hokkaido","_region_ja":"北海道","_voltage_kv":187.0,"_display_name":"西音更変電所 (Nishi-Otofuke Hendensho)"},"geometry":{"type":"Point","coordinates":[143.1517,42.9762]}},{"type":"Feature","properties":{"_region":"hokkaido","_region_ja":"北海道","_voltage_kv":187.0,"_display_name":"留辺蘂変電所"},"geometry":{"type":"Point","coordinates":[143.6002,43.7757]}},{"type":"Feature","properties":{"_region":"hokkaido","_region_ja":"北海道","_voltage_kv":187.0,"_display_name":"足寄変電所 (Ashoro Hendensho)"},"geometry":{"type":"Point","coordinates":[143.5465,43.2265]}},{"type":"Feature","properties":{"_region":"hokkaido","_region_ja":"北海道","_voltage_kv":187.0,"_display_name":""},"geometry":{"type":"Point","coordinates":[141.8432,43.4202]}},{"type":"Feature","properties":{"_region":"hokkaido","_region_ja":"北海道","_voltage_kv":187.0,"_display_name":"北新得変電所"},"geometry":{"type":"Point","coordinates":[142.9034,43.1621]}},{"type":"Feature","properties":{"_region":"hokkaido","_region_ja":"北海道","_voltage_kv":187.0,"_display_name":"北芽室変電所 (Kita-Memuro Hendensho)"},"geometry":{"type":"Point","coordinates":[143.0335,42.9215]}},{"type":"Feature","properties":{"_region":"hokkaido","_region_ja":"北海道","_voltage_kv":187.0,"_display_name":""},"geometry":{"type":"Point","coordinates":[142.6106,42.9459]}},{"type":"Feature","properties":{"_region":"hokkaido","_region_ja":"北海道","_voltage_kv":187.0,"_display_name":""},"geometry":{"type":"Point","coordinates":[143.394,43.344]}},{"type":"Feature","properties":{"_region":"hokkaido","_region_ja":"北海道","_voltage_kv":187.0,"_display_name":""},"geometry":{"type":"Point","coordinates":[143.2545,43.3613]}},{"type":"Feature","properties":{"_region":"hokkaido","_region_ja":"北海道","_voltage_kv":187.0,"_display_name":"北江別変電所"},"geometry":{"type":"Point","coordinates":[141.5346,43.1209]}},{"type":"Feature","properties":{"_region":"hokkaido","_region_ja":"北海道","_voltage_kv":275.0,"_display_name":"北新得変電所"},"geometry":{"type":"Point","coordinates":[142.9042,43.1643]}},{"type":"Feature","properties":{"_region":"hokkaido","_region_ja":"北海道","_voltage_kv":187.0,"_display_name":"Asahikawa Arashiyama Switching Station"},"geometry":{"type":"Point","coordinates":[142.2805,43.8154]}},{"type":"Feature","properties":{"_region":"hokkaido","_region_ja":"北海道","_voltage_kv":187.0,"_display_name":"糠平発電所"},"geometry":{"type":"Point","coordinates":[143.2551,43.3607]}},{"type":"Feature","properties":{"_region":"hokkaido","_region_ja":"北海道","_voltage_kv":187.0,"_display_name":"女満別変電所"},"geometry":{"type":"Point","coordinates":[144.2171,43.8324]}},{"type":"Feature","properties":{"_region":"hokkaido","_region_ja":"北海道","_voltage_kv":187.0,"_display_name":"宇円別変電所"},"geometry":{"type":"Point","coordinates":[144.1551,43.0775]}},{"type":"Feature","properties":{"_region":"hokkaido","_region_ja":"北海道","_voltage_kv":187.0,"_display_name":"東釧路変電所 (Higashi-Kushiro Hendensho)"},"geometry":{"type":"Point","coordinates":[144.4469,43.0106]}},{"type":"Feature","properties":{"_region":"hokkaido","_region_ja":"北海道","_voltage_kv":187.0,"_display_name":"西春別変電所"},"geometry":{"type":"Point","coordinates":[144.8068,43.3969]}},{"type":"Feature","properties":{"_region":"hokkaido","_region_ja":"北海道","_voltage_kv":187.0,"_display_name":"西名寄変電所"},"geometry":{"type":"Point","coordinates":[142.419,44.3448]}},{"type":"Feature","properties":{"_region":"hokkaido","_region_ja":"北海道","_voltage_kv":187.0,"_display_name":""},"geometry":{"type":"Point","coordinates":[142.0344,44.8312]}},{"type":"Feature","properties":{"_region":"hokkaido","_region_ja":"北海道","_voltage_kv":187.0,"_display_name":"Kitatoyotomi Substation"},"geometry":{"type":"Point","coordinates":[141.7955,45.1961]}},{"type":"Feature","properties":{"_region":"hokkaido","_region_ja":"北海道","_voltage_kv":187.0,"_display_name":"Wakkanai Keihoku Substation"},"geometry":{"type":"Point","coordinates":[141.805,45.349]}},{"type":"Feature","properties":{"_region":"tohoku","_region_ja":"東北","_voltage_kv":154.0,"_display_name":"新津変電所"},"geometry":{"type":"Point","coordinates":[139.1412,37.8073]}},{"type":"Feature","properties":{"_region":"tohoku","_region_ja":"東北","_voltage_kv":275.0,"_display_name":"田子倉発電所"},"geometry":{"type":"Point","coordinates":[139.288,37.314]}},{"type":"Feature","properties":{"_region":"tohoku","_region_ja":"東北","_voltage_kv":275.0,"_display_name":"新潟変電所"},"geometry":{"type":"Point","coordinates":[139.2468,37.7278]}},{"type":"Feature","properties":{"_region":"tohoku","_region_ja":"東北","_voltage_kv":154.0,"_display_name":""},"geometry":{"type":"Point","coordinates":[139.0206,37.8976]}},{"type":"Feature","properties":{"_region":"tohoku","_region_ja":"東北","_voltage_kv":275.0,"_display_name":"北新潟変電所"},"geometry":{"type":"Point","coordinates":[139.2847,37.9805]}},{"type":"Feature","properties":{"_region":"tohoku","_region_ja":"東北","_voltage_kv":154.0,"_display_name":""},"geometry":{"type":"Point","coordinates":[139.0977,37.9187]}},{"type":"Feature","properties":{"_region":"tohoku","_region_ja":"東北","_voltage_kv":154.0,"_display_name":"中新潟変電所"},"geometry":{"type":"Point","coordinates":[139.0922,37.9198]}},{"type":"Feature","properties":{"_region":"tohoku","_region_ja":"東北","_voltage_kv":154.0,"_display_name":"若松変電所"},"geometry":{"type":"Point","coordinates":[139.8945,37.4968]}},{"type":"Feature","properties":{"_region":"tohoku","_region_ja":"東北","_voltage_kv":154.0,"_display_name":""},"geometry":{"type":"Point","coordinates":[139.9834,37.5532]}},{"type":"Feature","properties":{"_region":"tohoku","_region_ja":"東北","_voltage_kv":275.0,"_display_name":""},"geometry":{"type":"Point","coordinates":[139.2441,37.1604]}},{"type":"Feature","properties":{"_region":"tohoku","_region_ja":"東北","_voltage_kv":275.0,"_display_name":"本名変電所"},"geometry":{"type":"Point","coordinates":[139.5013,37.4408]}},{"type":"Feature","properties":{"_region":"tohoku","_region_ja":"東北","_voltage_kv":154.0,"_display_name":"会津変電所"},"geometry":{"type":"Point","coordinates":[139.9233,37.5773]}},{"type":"Feature","properties":{"_region":"tohoku","_region_ja":"東北","_voltage_kv":154.0,"_display_name":""},"geometry":{"type":"Point","coordinates":[139.6859,37.6071]}},{"type":"Feature","properties":{"_region":"tohoku","_region_ja":"東北","_voltage_kv":154.0,"_display_name":""},"geometry":{"type":"Point","coordinates":[139.9299,37.5794]}},{"type":"Feature","properties":{"_region":"tohoku","_region_ja":"東北","_voltage_kv":275.0,"_display_name":"越後開閉所"},"geometry":{"type":"Point","coordinates":[139.411,37.8893]}},{"type":"Feature","properties":{"_region":"tohoku","_region_ja":"東北","_voltage_kv":275.0,"_display_name":"中越変電所"},"geometry":{"type":"Point","coordinates":[139.042,37.4839]}},{"type":"Feature","properties":{"_region":"tohoku","_region_ja":"東北","_voltage_kv":154.0,"_display_name":"坂町変電所"},"geometry":{"type":"Point","coordinates":[139.5312,38.094]}},{"type":"Feature","properties":{"_region":"tohoku","_region_ja":"東北","_voltage_kv":154.0,"_display_name":""},"geometry":{"type":"Point","coordinates":[139.3812,37.6972]}},{"type":"Feature","properties":{"_region":"tohoku","_region_ja":"東北","_voltage_kv":154.0,"_display_name":""},"geometry":{"type":"Point","coordinates":[139.632,37.6337]}},{"type":"Feature","properties":{"_region":"tohoku","_region_ja":"東北","_voltage_kv":154.0,"_display_name":""},"geometry":{"type":"Point","coordinates":[139.4705,37.7041]}},{"type":"Feature","properties":{"_region":"tohoku","_region_ja":"東北","_voltage_kv":275.0,"_display_name":""},"geometry":{"type":"Point","coordinates":[139.0472,36.8007]}},{"type":"Feature","properties":{"_region":"tohoku","_region_ja":"東北","_voltage_kv":154.0,"_display_name":""},"geometry":{"type":"Point","coordinates":[139.0597,36.8669]}},{"type":"Feature","properties":{"_region":"tohoku","_region_ja":"東北","_voltage_kv":154.0,"_display_name":""},"geometry":{"type":"Point","coordinates":[139.753,38.0667]}},{"type":"Feature","properties":{"_region":"tohoku","_region_ja":"東北","_voltage_kv":154.0,"_display_name":""},"geometry":{"type":"Point","coordinates":[139.7525,38.0648]}},{"type":"Feature","properties":{"_region":"tohoku","_region_ja":"東北","_voltage_kv":275.0,"_display_name":"沼原電力所"},"geometry":{"type":"Point","coordinates":[139.9047,37.0999]}},{"type":"Feature","properties":{"_region":"tohoku","_region_ja":"東北","_voltage_kv":154.0,"_display_name":""},"geometry":{"type":"Point","coordinates":[139.4676,37.7049]}},{"type":"Feature","properties":{"_region":"tohoku","_region_ja":"東北","_voltage_kv":154.0,"_display_name":""},"geometry":{"type":"Point","coordinates":[139.9614,37.5562]}},{"type":"Feature","properties":{"_region":"tohoku","_region_ja":"東北","_voltage_kv":154.0,"_display_name":""},"geometry":{"type":"Point","coordinates":[140.0035,37.5437]}},{"type":"Feature","properties":{"_region":"tohoku","_region_ja":"東北","_voltage_kv":154.0,"_display_name":""},"geometry":{"type":"Point","coordinates":[139.5614,38.0353]}},{"type":"Feature","properties":{"_region":"tohoku","_region_ja":"東北","_voltage_kv":154.0,"_display_name":"豊栄変電所"},"geometry":{"type":"Point","coordinates":[139.1861,37.9408]}},{"type":"Feature","properties":{"_region":"tohoku","_region_ja":"東北","_voltage_kv":154.0,"_display_name":""},"geometry":{"type":"Point","coordinates":[139.2383,37.9949]}},{"type":"Feature","properties":{"_region":"tohoku","_region_ja":"東北","_voltage_kv":275.0,"_display_name":""},"geometry":{"type":"Point","coordinates":[139.2425,37.997]}},{"type":"Feature","properties":{"_region":"tohoku","_region_ja":"東北","_voltage_kv":275.0,"_display_name":""},"geometry":{"type":"Point","coordinates":[139.2453,37.999]}},{"type":"Feature","properties":{"_region":"tohoku","_region_ja":"東北","_voltage_kv":500.0,"_display_name":""},"geometry":{"type":"Point","coordinates":[139.9084,37.3449]}},{"type":"Feature","properties":{"_region":"tohoku","_region_ja":"東北","_voltage_kv":154.0,"_display_name":""},"geometry":{"type":"Point","coordinates":[139.4632,37.3974]}},{"type":"Feature","properties":{"_region":"tohoku","_region_ja":"東北","_voltage_kv":154.0,"_display_name":"東若林変電所"},"geometry":{"type":"Point","coordinates":[140.952,38.2354]}},{"type":"Feature","properties":{"_region":"tohoku","_region_ja":"東北","_voltage_kv":275.0,"_display_name":""},"geometry":{"type":"Point","coordinates":[141.0315,37.4206]}},{"type":"Feature","properties":{"_region":"tohoku","_region_ja":"東北","_voltage_kv":275.0,"_display_name":""},"geometry":{"type":"Point","coordinates":[141.0305,37.4228]}},{"type":"Feature","properties":{"_region":"tohoku","_region_ja":"東北","_voltage_kv":500.0,"_display_name":""},"geometry":{"type":"Point","coordinates":[141.0308,37.4296]}},{"type":"Feature","properties":{"_region":"tohoku","_region_ja":"東北","_voltage_kv":275.0,"_display_name":"仙台変電所"},"geometry":{"type":"Point","coordinates":[140.9075,38.3191]}},{"type":"Feature","properties":{"_region":"tohoku","_region_ja":"東北","_voltage_kv":154.0,"_display_name":"南仙台変電所"},"geometry":{"type":"Point","coordinates":[140.8968,38.2159]}},{"type":"Feature","properties":{"_region":"tohoku","_region_ja":"東北","_voltage_kv":500.0,"_display_name":""},"geometry":{"type":"Point","coordinates":[141.0218,37.3162]}},{"type":"Feature","properties":{"_region":"tohoku","_region_ja":"東北","_voltage_kv":154.0,"_display_name":"郡山変電所"},"geometry":{"type":"Point","coordinates":[140.4116,37.3817]}},{"type":"Feature","properties":{"_region":"tohoku","_region_ja":"東北","_voltage_kv":275.0,"_display_name":"須賀川変電所"},"geometry":{"type":"Point","coordinates":[140.4261,37.3052]}},{"type":"Feature","properties":{"_region":"tohoku","_region_ja":"東北","_voltage_kv":275.0,"_display_name":"JR東日本 新福島変電所"},"geometry":{"type":"Point","coordinates":[140.4766,37.7947]}},{"type":"Feature","properties":{"_region":"tohoku","_region_ja":"東北","_voltage_kv":500.0,"_display_name":"新いわき開閉所"},"geometry":{"type":"Point","coordinates":[140.7228,37.1422]}},{"type":"Feature","properties":{"_region":"tohoku","_region_ja":"東北","_voltage_kv":154.0,"_display_name":"駒ヶ嶺変電所"},"geometry":{"type":"Point","coordinates":[140.9131,37.8402]}},{"type":"Feature","properties":{"_region":"tohoku","_region_ja":"東北","_voltage_kv":500.0,"_display_name":"新福島変電所"},"geometry":{"type":"Point","coordinates":[140.9606,37.3594]}},{"type":"Feature","properties":{"_region":"tohoku","_region_ja":"東北","_voltage_kv":275.0,"_display_name":"福島変電所"},"geometry":{"type":"Point","coordinates":[140.4228,37.676]}},{"type":"Feature","properties":{"_region":"tohoku","_region_ja":"東北","_voltage_kv":500.0,"_display_name":"南相馬変電所"},"geometry":{"type":"Point","coordinates":[140.9503,37.5362]}},{"type":"Feature","properties":{"_region":"tohoku","_region_ja":"東北","_voltage_kv":275.0,"_display_name":"いわき変電所"},"geometry":{"type":"Point","coordinates":[140.7479,36.9886]}},{"type":"Feature","properties":{"_region":"tohoku","_region_ja":"東北","_voltage_kv":154.0,"_display_name":"那須野変電所"},"geometry":{"type":"Point","coordinates":[140.0385,36.9376]}},{"type":"Feature","properties":{"_region":"tohoku","_region_ja":"東北","_voltage_kv":275.0,"_display_name":"米沢変電所"},"geometry":{"type":"Point","coordinates":[140.1162,37.8582]}},{"type":"Feature","properties":{"_region":"tohoku","_region_ja":"東北","_voltage_kv":500.0,"_display_name":"南いわき開閉所"},"geometry":{"type":"Point","coordinates":[140.8051,37.382]}},{"type":"Feature","properties":{"_region":"tohoku","_region_ja":"東北","_voltage_kv":275.0,"_display_name":"新那須変電所"},"geometry":{"type":"Point","coordinates":[140.105,37.0289]}},{"type":"Feature","properties":{"_region":"tohoku","_region_ja":"東北","_voltage_kv":154.0,"_display_name":"西福島変電所"},"geometry":{"type":"Point","coordinates":[140.4191,37.749]}},{"type":"Feature","properties":{"_region":"tohoku","_region_ja":"東北","_voltage_kv":154.0,"_display_name":"明通変電所"},"geometry":{"type":"Point","coordinates":[140.8616,38.3485]}},{"type":"Feature","properties":{"_region":"tohoku","_region_ja":"東北","_voltage_kv":154.0,"_display_name":""},"geometry":{"type":"Point","coordinates":[140.8207,38.1126]}},{"type":"Feature","properties":{"_region":"tohoku","_region_ja":"東北","_voltage_kv":275.0,"_display_name":""},"geometry":{"type":"Point","coordinates":[140.504,37.8032]}},{"type":"Feature","properties":{"_region":"tohoku","_region_ja":"東北","_voltage_kv":154.0,"_display_name":"東白石変電所"},"geometry":{"type":"Point","coordinates":[140.6762,38.004]}},{"type":"Feature","properties":{"_region":"tohoku","_region_ja":"東北","_voltage_kv":275.0,"_display_name":"西山形変電所"},"geometry":{"type":"Point","coordinates":[140.1824,38.2764]}},{"type":"Feature","properties":{"_region":"tohoku","_region_ja":"東北","_voltage_kv":154.0,"_display_name":"山形変電所"},"geometry":{"type":"Point","coordinates":[140.2817,38.2558]}},{"type":"Feature","properties":{"_region":"tohoku","_region_ja":"東北","_voltage_kv":154.0,"_display_name":"東山形変電所"},"geometry":{"type":"Point","coordinates":[140.383,38.2378]}},{"type":"Feature","properties":{"_region":"tohoku","_region_ja":"東北","_voltage_kv":154.0,"_display_name":"中山変電所"},"geometry":{"type":"Point","coordinates":[140.8185,38.2954]}},{"type":"Feature","properties":{"_region":"tohoku","_region_ja":"東北","_voltage_kv":154.0,"_display_name":"愛子変電所"},"geometry":{"type":"Point","coordinates":[140.7469,38.2667]}},{"type":"Feature","properties":{"_region":"tohoku","_region_ja":"東北","_voltage_kv":154.0,"_display_name":""},"geometry":{"type":"Point","coordinates":[140.3831,37.4487]}},{"type":"Feature","properties":{"_region":"tohoku","_region_ja":"東北","_voltage_kv":154.0,"_display_name":"仙台港変電所"},"geometry":{"type":"Point","coordinates":[140.9936,38.277]}},{"type":"Feature","properties":{"_region":"tohoku","_region_ja":"東北","_voltage_kv":154.0,"_display_name":"北平変電所"},"geometry":{"type":"Point","coordinates":[140.874,37.1144]}},{"type":"Feature","properties":{"_region":"tohoku","_region_ja":"東北","_voltage_kv":154.0,"_display_name":""},"geometry":{"type":"Point","coordinates":[140.3789,37.412]}},{"type":"Feature","properties":{"_region":"tohoku","_region_ja":"東北","_voltage_kv":154.0,"_display_name":"平変電所"},"geometry":{"type":"Point","coordinates":[140.8386,36.985]}},{"type":"Feature","properties":{"_region":"tohoku","_region_ja":"東北","_voltage_kv":154.0,"_display_name":""},"geometry":{"type":"Point","coordinates":[140.8213,36.9141]}},{"type":"Feature","properties":{"_region":"tohoku","_region_ja":"東北","_voltage_kv":500.0,"_display_name":"西仙台変電所"},"geometry":{"type":"Point","coordinates":[140.6436,38.2546]}},{"type":"Feature","properties":{"_region":"tohoku","_region_ja":"東北","_voltage_kv":275.0,"_display_name":""},"geometry":{"type":"Point","coordinates":[140.8548,38.1665]}},{"type":"Feature","properties":{"_region":"tohoku","_region_ja":"東北","_voltage_kv":275.0,"_display_name":"名取変電所"},"geometry":{"type":"Point","coordinates":[140.8508,38.165]}},{"type":"Feature","properties":{"_region":"tohoku","_region_ja":"東北","_voltage_kv":154.0,"_display_name":"置賜変電所"},"geometry":{"type":"Point","coordinates":[140.1119,38.032]}},{"type":"Feature","properties":{"_region":"tohoku","_region_ja":"東北","_voltage_kv":500.0,"_display_name":"宮城中央変電所"},"geometry":{"type":"Point","coordinates":[140.7512,38.3526]}},{"type":"Feature","properties":{"_region":"tohoku","_region_ja":"東北","_voltage_kv":275.0,"_display_name":"東仙台変電所"},"geometry":{"type":"Point","coordinates":[141.0408,38.2783]}},{"type":"Feature","properties":{"_region":"tohoku","_region_ja":"東北","_voltage_kv":154.0,"_display_name":"高森変電所"},"geometry":{"type":"Point","coordinates":[140.8296,38.3335]}},{"type":"Feature","properties":{"_region":"tohoku","_region_ja":"東北","_voltage_kv":154.0,"_display_name":"根白石変電所"},"geometry":{"type":"Point","coordinates":[140.8083,38.3267]}},{"type":"Feature","properties":{"_region":"tohoku","_region_ja":"東北","_voltage_kv":275.0,"_display_name":"JR東日本 新郡山変電所"},"geometry":{"type":"Point","coordinates":[140.3663,37.3373]}},{"type":"Feature","properties":{"_region":"tohoku","_region_ja":"東北","_voltage_kv":154.0,"_display_name":""},"geometry":{"type":"Point","coordinates":[140.2201,37.1693]}},{"type":"Feature","properties":{"_region":"tohoku","_region_ja":"東北","_voltage_kv":154.0,"_display_name":""},"geometry":{"type":"Point","coordinates":[140.3201,37.1637]}},{"type":"Feature","properties":{"_region":"tohoku","_region_ja":"東北","_voltage_kv":275.0,"_display_name":""},"geometry":{"type":"Point","coordinates":[140.6281,37.6049]}},{"type":"Feature","properties":{"_region":"tohoku","_region_ja":"東北","_voltage_kv":500.0,"_display_name":""},"geometry":{"type":"Point","coordinates":[140.949,37.851]}},{"type":"Feature","properties":{"_region":"tohoku","_region_ja":"東北","_voltage_kv":154.0,"_display_name":""},"geometry":{"type":"Point","coordinates":[140.9407,37.8438]}},{"type":"Feature","properties":{"_region":"tohoku","_region_ja":"東北","_voltage_kv":500.0,"_display_name":""},"geometry":{"type":"Point","coordinates":[140.9412,37.8447]}},{"type":"Feature","properties":{"_region":"tohoku","_region_ja":"東北","_voltage_kv":154.0,"_display_name":""},"geometry":{"type":"Point","coordinates":[140.9408,37.8279]}},{"type":"Feature","properties":{"_region":"tohoku","_region_ja":"東北","_voltage_kv":154.0,"_display_name":"豊原変電所"},"geometry":{"type":"Point","coordinates":[140.1063,37.0794]}},{"type":"Feature","properties":{"_region":"tohoku","_region_ja":"東北","_voltage_kv":154.0,"_display_name":""},"geometry":{"type":"Point","coordinates":[140.5961,37.9036]}},{"type":"Feature","properties":{"_region":"tohoku","_region_ja":"東北","_voltage_kv":154.0,"_display_name":"北福島変電所"},"geometry":{"type":"Point","coordinates":[140.4999,37.8437]}},{"type":"Feature","properties":{"_region":"tohoku","_region_ja":"東北","_voltage_kv":154.0,"_display_name":""},"geometry":{"type":"Point","coordinates":[140.9391,37.8337]}},{"type":"Feature","properties":{"_region":"tohoku","_region_ja":"東北","_voltage_kv":154.0,"_display_name":""},"geometry":{"type":"Point","coordinates":[140.9384,37.8399]}},{"type":"Feature","properties":{"_region":"tohoku","_region_ja":"東北","_voltage_kv":275.0,"_display_name":""},"geometry":{"type":"Point","coordinates":[141.0162,37.6645]}},{"type":"Feature","properties":{"_region":"tohoku","_region_ja":"東北","_voltage_kv":154.0,"_display_name":"由利変電所"},"geometry":{"type":"Point","coordinates":[139.9699,39.2167]}},{"type":"Feature","properties":{"_region":"tohoku","_region_ja":"東北","_voltage_kv":154.0,"_display_name":"酒田変電所"},"geometry":{"type":"Point","coordinates":[139.8528,38.8977]}},{"type":"Feature","properties":{"_region":"tohoku","_region_ja":"東北","_voltage_kv":154.0,"_display_name":"庄内変電所"},"geometry":{"type":"Point","coordinates":[139.8875,38.7658]}},{"type":"Feature","properties":{"_region":"tohoku","_region_ja":"東北","_voltage_kv":154.0,"_display_name":"酒田北港変電所"},"geometry":{"type":"Point","coordinates":[139.8447,38.9673]}},{"type":"Feature","properties":{"_region":"tohoku","_region_ja":"東北","_voltage_kv":154.0,"_display_name":"八幡開閉所"},"geometry":{"type":"Point","coordinates":[139.9722,38.9889]}},{"type":"Feature","properties":{"_region":"tohoku","_region_ja":"東北","_voltage_kv":154.0,"_display_name":""},"geometry":{"type":"Point","coordinates":[139.8067,38.542]}},{"type":"Feature","properties":{"_region":"tohoku","_region_ja":"東北","_voltage_kv":154.0,"_display_name":"JR東日本 酒田変電所"},"geometry":{"type":"Point","coordinates":[139.8671,38.9103]}},{"type":"Feature","properties":{"_region":"tohoku","_region_ja":"東北","_voltage_kv":500.0,"_display_name":"宮城変電所"},"geometry":{"type":"Point","coordinates":[140.8493,38.6057]}},{"type":"Feature","properties":{"_region":"tohoku","_region_ja":"東北","_voltage_kv":154.0,"_display_name":"御所野変電所"},"geometry":{"type":"Point","coordinates":[140.1746,39.6538]}},{"type":"Feature","properties":{"_region":"tohoku","_region_ja":"東北","_voltage_kv":154.0,"_display_name":""},"geometry":{"type":"Point","coordinates":[140.1365,39.6948]}},{"type":"Feature","properties":{"_region":"tohoku","_region_ja":"東北","_voltage_kv":275.0,"_display_name":"JR東日本 新古川変電所"},"geometry":{"type":"Point","coordinates":[141.0075,38.6369]}},{"type":"Feature","properties":{"_region":"tohoku","_region_ja":"東北","_voltage_kv":275.0,"_display_name":"雫石開閉所"},"geometry":{"type":"Point","coordinates":[140.929,39.6935]}},{"type":"Feature","properties":{"_region":"tohoku","_region_ja":"東北","_voltage_kv":154.0,"_display_name":"JR東日本 田沢湖変電所"},"geometry":{"type":"Point","coordinates":[140.6598,39.638]}},{"type":"Feature","properties":{"_region":"tohoku","_region_ja":"東北","_voltage_kv":275.0,"_display_name":"秋田変電所"},"geometry":{"type":"Point","coordinates":[140.0859,39.8128]}},{"type":"Feature","properties":{"_region":"tohoku","_region_ja":"東北","_voltage_kv":275.0,"_display_name":"新庄変電所"},"geometry":{"type":"Point","coordinates":[140.2503,38.7014]}},{"type":"Feature","properties":{"_region":"tohoku","_region_ja":"東北","_voltage_kv":275.0,"_display_name":"羽後変電所"},"geometry":{"type":"Point","coordinates":[140.427,39.1689]}},{"type":"Feature","properties":{"_region":"tohoku","_region_ja":"東北","_voltage_kv":154.0,"_display_name":"大仙変電所"},"geometry":{"type":"Point","coordinates":[140.501,39.4881]}},{"type":"Feature","properties":{"_region":"tohoku","_region_ja":"東北","_voltage_kv":154.0,"_display_name":"西村山変電所"},"geometry":{"type":"Point","coordinates":[140.3076,38.4603]}},{"type":"Feature","properties":{"_region":"tohoku","_region_ja":"東北","_voltage_kv":154.0,"_display_name":"新山変電所"},"geometry":{"type":"Point","coordinates":[140.0555,39.4073]}},{"type":"Feature","properties":{"_region":"tohoku","_region_ja":"東北","_voltage_kv":154.0,"_display_name":""},"geometry":{"type":"Point","coordinates":[140.9501,38.5119]}},{"type":"Feature","properties":{"_region":"tohoku","_region_ja":"東北","_voltage_kv":275.0,"_display_name":"JR東日本 院内変電所"},"geometry":{"type":"Point","coordinates":[140.4274,39.0526]}},{"type":"Feature","properties":{"_region":"tohoku","_region_ja":"東北","_voltage_kv":154.0,"_display_name":""},"geometry":{"type":"Point","coordinates":[140.0557,39.7823]}},{"type":"Feature","properties":{"_region":"tohoku","_region_ja":"東北","_voltage_kv":154.0,"_display_name":""},"geometry":{"type":"Point","coordinates":[140.0567,39.7834]}},{"type":"Feature","properties":{"_region":"tohoku","_region_ja":"東北","_voltage_kv":154.0,"_display_name":"西石巻変電所"},"geometry":{"type":"Point","coordinates":[141.2196,38.4742]}},{"type":"Feature","properties":{"_region":"tohoku","_region_ja":"東北","_voltage_kv":154.0,"_display_name":"金ケ崎変電所"},"geometry":{"type":"Point","coordinates":[141.083,39.2168]}},{"type":"Feature","properties":{"_region":"tohoku","_region_ja":"東北","_voltage_kv":500.0,"_display_name":"岩手変電所"},"geometry":{"type":"Point","coordinates":[141.1759,39.9049]}},{"type":"Feature","properties":{"_region":"tohoku","_region_ja":"東北","_voltage_kv":275.0,"_display_name":"水沢変電所"},"geometry":{"type":"Point","coordinates":[141.1976,39.0752]}},{"type":"Feature","properties":{"_region":"tohoku","_region_ja":"東北","_voltage_kv":154.0,"_display_name":"気仙沼変電所"},"geometry":{"type":"Point","coordinates":[141.5402,38.8756]}},{"type":"Feature","properties":{"_region":"tohoku","_region_ja":"東北","_voltage_kv":275.0,"_display_name":"JR東日本 新水沢変電所"},"geometry":{"type":"Point","coordinates":[141.1989,39.0851]}},{"type":"Feature","properties":{"_region":"tohoku","_region_ja":"東北","_voltage_kv":275.0,"_display_name":"石巻変電所"},"geometry":{"type":"Point","coordinates":[141.2377,38.4811]}},{"type":"Feature","properties":{"_region":"tohoku","_region_ja":"東北","_voltage_kv":154.0,"_display_name":"盛岡変電所"},"geometry":{"type":"Point","coordinates":[141.1124,39.6807]}},{"type":"Feature","properties":{"_region":"tohoku","_region_ja":"東北","_voltage_kv":154.0,"_display_name":"大船渡変電所"},"geometry":{"type":"Point","coordinates":[141.7136,39.0758]}},{"type":"Feature","properties":{"_region":"tohoku","_region_ja":"東北","_voltage_kv":154.0,"_display_name":"宮古変電所"},"geometry":{"type":"Point","coordinates":[141.8777,39.6244]}},{"type":"Feature","properties":{"_region":"tohoku","_region_ja":"東北","_voltage_kv":154.0,"_display_name":"北盛岡変電所"},"geometry":{"type":"Point","coordinates":[141.1002,39.7436]}},{"type":"Feature","properties":{"_region":"tohoku","_region_ja":"東北","_voltage_kv":154.0,"_display_name":"一関変電所"},"geometry":{"type":"Point","coordinates":[141.0968,38.9411]}},{"type":"Feature","properties":{"_region":"tohoku","_region_ja":"東北","_voltage_kv":275.0,"_display_name":"新盛岡変電所"},"geometry":{"type":"Point","coordinates":[141.1566,39.5758]}},{"type":"Feature","properties":{"_region":"tohoku","_region_ja":"東北","_voltage_kv":275.0,"_display_name":"東花巻変電所"},"geometry":{"type":"Point","coordinates":[141.2586,39.3498]}},{"type":"Feature","properties":{"_region":"tohoku","_region_ja":"東北","_voltage_kv":154.0,"_display_name":"北上変電所"},"geometry":{"type":"Point","coordinates":[141.0682,39.3353]}},{"type":"Feature","properties":{"_region":"tohoku","_region_ja":"東北","_voltage_kv":154.0,"_display_name":"JR東日本 盛岡変電所"},"geometry":{"type":"Point","coordinates":[141.1353,39.6987]}},{"type":"Feature","properties":{"_region":"tohoku","_region_ja":"東北","_voltage_kv":275.0,"_display_name":""},"geometry":{"type":"Point","coordinates":[141.5012,38.3978]}},{"type":"Feature","properties":{"_region":"tohoku","_region_ja":"東北","_voltage_kv":275.0,"_display_name":""},"geometry":{"type":"Point","coordinates":[141.4986,38.3998]}},{"type":"Feature","properties":{"_region":"tohoku","_region_ja":"東北","_voltage_kv":275.0,"_display_name":""},"geometry":{"type":"Point","coordinates":[139.9948,40.1899]}},{"type":"Feature","properties":{"_region":"tohoku","_region_ja":"東北","_voltage_kv":154.0,"_display_name":""},"geometry":{"type":"Point","coordinates":[140.5144,40.2798]}},{"type":"Feature","properties":{"_region":"tohoku","_region_ja":"東北","_voltage_kv":275.0,"_display_name":"能代変電所"},"geometry":{"type":"Point","coordinates":[140.0718,40.1623]}},{"type":"Feature","properties":{"_region":"tohoku","_region_ja":"東北","_voltage_kv":154.0,"_display_name":"青森変電所"},"geometry":{"type":"Point","coordinates":[140.7126,40.7773]}},{"type":"Feature","properties":{"_region":"tohoku","_region_ja":"東北","_voltage_kv":275.0,"_display_name":"青森変電所"},"geometry":{"type":"Point","coordinates":[140.7105,40.7746]}},{"type":"Feature","properties":{"_region":"tohoku","_region_ja":"東北","_voltage_kv":154.0,"_display_name":"大館変電所 (Ōdate Hendensho)"},"geometry":{"type":"Point","coordinates":[140.5944,40.2212]}},{"type":"Feature","properties":{"_region":"tohoku","_region_ja":"東北","_voltage_kv":154.0,"_display_name":"東北電力北津軽変電所"},"geometry":{"type":"Point","coordinates":[140.4393,40.7791]}},{"type":"Feature","properties":{"_region":"tohoku","_region_ja":"東北","_voltage_kv":275.0,"_display_name":"JR北海道 今別変電所"},"geometry":{"type":"Point","coordinates":[140.5081,41.1539]}},{"type":"Feature","properties":{"_region":"tohoku","_region_ja":"東北","_voltage_kv":154.0,"_display_name":"JR東日本 新青森変電所"},"geometry":{"type":"Point","coordinates":[140.7497,40.7681]}},{"type":"Feature","properties":{"_region":"tohoku","_region_ja":"東北","_voltage_kv":154.0,"_display_name":"浦町変電所"},"geometry":{"type":"Point","coordinates":[140.7523,40.8097]}},{"type":"Feature","properties":{"_region":"tohoku","_region_ja":"東北","_voltage_kv":154.0,"_display_name":"南津軽変電所"},"geometry":{"type":"Point","coordinates":[140.5459,40.5848]}},{"type":"Feature","properties":{"_region":"tohoku","_region_ja":"東北","_voltage_kv":275.0,"_display_name":"今別変換所"},"geometry":{"type":"Point","coordinates":[140.514,41.1337]}},{"type":"Feature","properties":{"_region":"tohoku","_region_ja":"東北","_voltage_kv":250.0,"_display_name":"竜飛ケーブルヘッド"},"geometry":{"type":"Point","coordinates":[140.3465,41.2525]}},{"type":"Feature","properties":{"_region":"tohoku","_region_ja":"東北","_voltage_kv":250.0,"_display_name":"吉岡ケーブルヘッド"},"geometry":{"type":"Point","coordinates":[140.2347,41.4418]}},{"type":"Feature","properties":{"_region":"tohoku","_region_ja":"東北","_voltage_kv":275.0,"_display_name":"JR東日本 新七戸変電所"},"geometry":{"type":"Point","coordinates":[141.1783,40.7106]}},{"type":"Feature","properties":{"_region":"tohoku","_region_ja":"東北","_voltage_kv":275.0,"_display_name":"五戸変電所"},"geometry":{"type":"Point","coordinates":[141.3568,40.5286]}},{"type":"Feature","properties":{"_region":"tohoku","_region_ja":"東北","_voltage_kv":154.0,"_display_name":"南八戸変電所"},"geometry":{"type":"Point","coordinates":[141.4525,40.4379]}},{"type":"Feature","properties":{"_region":"tohoku","_region_ja":"東北","_voltage_kv":154.0,"_display_name":"六ヶ所変電所"},"geometry":{"type":"Point","coordinates":[141.2997,40.9507]}},{"type":"Feature","properties":{"_region":"tohoku","_region_ja":"東北","_voltage_kv":154.0,"_display_name":"下北変電所"},"geometry":{"type":"Point","coordinates":[141.1939,41.3058]}},{"type":"Feature","properties":{"_region":"tohoku","_region_ja":"東北","_voltage_kv":154.0,"_display_name":"八戸変電所"},"geometry":{"type":"Point","coordinates":[141.4974,40.5352]}},{"type":"Feature","properties":{"_region":"tohoku","_region_ja":"東北","_voltage_kv":154.0,"_display_name":"六戸変電所"},"geometry":{"type":"Point","coordinates":[141.3137,40.665]}},{"type":"Feature","properties":{"_region":"tohoku","_region_ja":"東北","_voltage_kv":154.0,"_display_name":"北岩手変電所"},"geometry":{"type":"Point","coordinates":[141.309,40.2021]}},{"type":"Feature","properties":{"_region":"tohoku","_region_ja":"東北","_voltage_kv":154.0,"_display_name":"白糠変電所"},"geometry":{"type":"Point","coordinates":[141.3812,41.1891]}},{"type":"Feature","properties":{"_region":"tohoku","_region_ja":"東北","_voltage_kv":154.0,"_display_name":""},"geometry":{"type":"Point","coordinates":[141.3212,40.9645]}},{"type":"Feature","properties":{"_region":"tohoku","_region_ja":"東北","_voltage_kv":154.0,"_display_name":""},"geometry":{"type":"Point","coordinates":[141.3134,40.962]}},{"type":"Feature","properties":{"_region":"tohoku","_region_ja":"東北","_voltage_kv":154.0,"_display_name":""},"geometry":{"type":"Point","coordinates":[141.3133,40.9629]}},{"type":"Feature","properties":{"_region":"tohoku","_region_ja":"東北","_voltage_kv":154.0,"_display_name":"JR東日本 新八戸変電所"},"geometry":{"type":"Point","coordinates":[141.4039,40.4646]}},{"type":"Feature","properties":{"_region":"tohoku","_region_ja":"東北","_voltage_kv":500.0,"_display_name":"上北変電所"},"geometry":{"type":"Point","coordinates":[141.1721,40.7838]}},{"type":"Feature","properties":{"_region":"tohoku","_region_ja":"東北","_voltage_kv":275.0,"_display_name":"上北変換所"},"geometry":{"type":"Point","coordinates":[141.1972,40.8017]}},{"type":"Feature","properties":{"_region":"tohoku","_region_ja":"東北","_voltage_kv":154.0,"_display_name":""},"geometry":{"type":"Point","coordinates":[141.4964,40.5406]}},{"type":"Feature","properties":{"_region":"tohoku","_region_ja":"東北","_voltage_kv":154.0,"_display_name":"JR東日本 新沼宮内変電所"},"geometry":{"type":"Point","coordinates":[141.2244,39.9873]}},{"type":"Feature","properties":{"_region":"tohoku","_region_ja":"東北","_voltage_kv":154.0,"_display_name":""},"geometry":{"type":"Point","coordinates":[141.2847,40.9517]}},{"type":"Feature","properties":{"_region":"tohoku","_region_ja":"東北","_voltage_kv":154.0,"_display_name":""},"geometry":{"type":"Point","coordinates":[141.3202,40.9614]}},{"type":"Feature","properties":{"_region":"tohoku","_region_ja":"東北","_voltage_kv":154.0,"_display_name":""},"geometry":{"type":"Point","coordinates":[141.2498,40.9626]}},{"type":"Feature","properties":{"_region":"tohoku","_region_ja":"東北","_voltage_kv":154.0,"_display_name":""},"geometry":{"type":"Point","coordinates":[141.4195,40.3034]}},{"type":"Feature","properties":{"_region":"tohoku","_region_ja":"東北","_voltage_kv":154.0,"_display_name":""},"geometry":{"type":"Point","coordinates":[141.4192,40.3022]}},{"type":"Feature","properties":{"_region":"tohoku","_region_ja":"東北","_voltage_kv":154.0,"_display_name":""},"geometry":{"type":"Point","coordinates":[141.2713,40.9883]}},{"type":"Feature","properties":{"_region":"tohoku","_region_ja":"東北","_voltage_kv":154.0,"_display_name":""},"geometry":{"type":"Point","coordinates":[141.4023,41.3791]}},{"type":"Feature","properties":{"_region":"tohoku","_region_ja":"東北","_voltage_kv":154.0,"_display_name":""},"geometry":{"type":"Point","coordinates":[141.4997,40.5358]}},{"type":"Feature","properties":{"_region":"tohoku","_region_ja":"東北","_voltage_kv":154.0,"_display_name":""},"geometry":{"type":"Point","coordinates":[141.5052,40.5351]}},{"type":"Feature","properties":{"_region":"tohoku","_region_ja":"東北","_voltage_kv":500.0,"_display_name":""},"geometry":{"type":"Point","coordinates":[141.3866,41.1875]}},{"type":"Feature","properties":{"_region":"tokyo","_region_ja":"東京","_voltage_kv":275.0,"_display_name":"青梅変電所"},"geometry":{"type":"Point","coordinates":[139.317,35.7947]}},{"type":"Feature","properties":{"_region":"tokyo","_region_ja":"東京","_voltage_kv":275.0,"_display_name":"北相模変電所"},"geometry":{"type":"Point","coordinates":[139.3679,35.5343]}},{"type":"Feature","properties":{"_region":"tokyo","_region_ja":"東京","_voltage_kv":154.0,"_display_name":"和田堀変電所"},"geometry":{"type":"Point","coordinates":[139.6495,35.6816]}},{"type":"Feature","properties":{"_region":"tokyo","_region_ja":"東京","_voltage_kv":154.0,"_display_name":"原町田変電所"},"geometry":{"type":"Point","coordinates":[139.4501,35.5489]}},{"type":"Feature","properties":{"_region":"tokyo","_region_ja":"東京","_voltage_kv":154.0,"_display_name":"千歳変電所"},"geometry":{"type":"Point","coordinates":[139.5889,35.6737]}},{"type":"Feature","properties":{"_region":"tokyo","_region_ja":"東京","_voltage_kv":154.0,"_display_name":"武蔵境交流変電所"},"geometry":{"type":"Point","coordinates":[139.5308,35.7033]}},{"type":"Feature","properties":{"_region":"tokyo","_region_ja":"東京","_voltage_kv":275.0,"_display_name":"西東京変電所"},"geometry":{"type":"Point","coordinates":[139.4575,35.6045]}},{"type":"Feature","properties":{"_region":"tokyo","_region_ja":"東京","_voltage_kv":154.0,"_display_name":"久地変電所"},"geometry":{"type":"Point","coordinates":[139.6024,35.6103]}},{"type":"Feature","properties":{"_region":"tokyo","_region_ja":"東京","_voltage_kv":154.0,"_display_name":"戸塚変電所"},"geometry":{"type":"Point","coordinates":[139.5269,35.3996]}},{"type":"Feature","properties":{"_region":"tokyo","_region_ja":"東京","_voltage_kv":275.0,"_display_name":"南川越変電所"},"geometry":{"type":"Point","coordinates":[139.466,35.8914]}},{"type":"Feature","properties":{"_region":"tokyo","_region_ja":"東京","_voltage_kv":154.0,"_display_name":"昭島変電所"},"geometry":{"type":"Point","coordinates":[139.3843,35.7093]}},{"type":"Feature","properties":{"_region":"tokyo","_region_ja":"東京","_voltage_kv":154.0,"_display_name":"南武変電所"},"geometry":{"type":"Point","coordinates":[139.6263,35.5809]}},{"type":"Feature","properties":{"_region":"tokyo","_region_ja":"東京","_voltage_kv":275.0,"_display_name":"荏田変電所"},"geometry":{"type":"Point","coordinates":[139.5487,35.555]}},{"type":"Feature","properties":{"_region":"tokyo","_region_ja":"東京","_voltage_kv":154.0,"_display_name":"武蔵野変電所"},"geometry":{"type":"Point","coordinates":[139.5633,35.759]}},{"type":"Feature","properties":{"_region":"tokyo","_region_ja":"東京","_voltage_kv":154.0,"_display_name":"相模原変電所"},"geometry":{"type":"Point","coordinates":[139.3738,35.5745]}},{"type":"Feature","properties":{"_region":"tokyo","_region_ja":"東京","_voltage_kv":154.0,"_display_name":"橋本変電所"},"geometry":{"type":"Point","coordinates":[139.3423,35.5914]}},{"type":"Feature","properties":{"_region":"tokyo","_region_ja":"東京","_voltage_kv":275.0,"_display_name":"北多摩変電所"},"geometry":{"type":"Point","coordinates":[139.5028,35.6547]}},{"type":"Feature","properties":{"_region":"tokyo","_region_ja":"東京","_voltage_kv":154.0,"_display_name":"綱島変電所"},"geometry":{"type":"Point","coordinates":[139.6468,35.5362]}},{"type":"Feature","properties":{"_region":"tokyo","_region_ja":"東京","_voltage_kv":275.0,"_display_name":"港北変電所"},"geometry":{"type":"Point","coordinates":[139.6028,35.5362]}},{"type":"Feature","properties":{"_region":"tokyo","_region_ja":"東京","_voltage_kv":154.0,"_display_name":"旭変電所"},"geometry":{"type":"Point","coordinates":[139.6514,35.5289]}},{"type":"Feature","properties":{"_region":"tokyo","_region_ja":"東京","_voltage_kv":275.0,"_display_name":"京浜変電所"},"geometry":{"type":"Point","coordinates":[139.5005,35.4311]}},{"type":"Feature","properties":{"_region":"tokyo","_region_ja":"東京","_voltage_kv":500.0,"_display_name":"新飯能変電所"},"geometry":{"type":"Point","coordinates":[139.2397,35.852]}},{"type":"Feature","properties":{"_region":"tokyo","_region_ja":"東京","_voltage_kv":154.0,"_display_name":"豊岡変電所"},"geometry":{"type":"Point","coordinates":[139.3703,35.8219]}},{"type":"Feature","properties":{"_region":"tokyo","_region_ja":"東京","_voltage_kv":154.0,"_display_name":"東方変電所"},"geometry":{"type":"Point","coordinates":[139.5799,35.5162]}},{"type":"Feature","properties":{"_region":"tokyo","_region_ja":"東京","_voltage_kv":154.0,"_display_name":"新羽変電所"},"geometry":{"type":"Point","coordinates":[139.6098,35.5314]}},{"type":"Feature","properties":{"_region":"tokyo","_region_ja":"東京","_voltage_kv":275.0,"_display_name":"新座変電所"},"geometry":{"type":"Point","coordinates":[139.5504,35.7954]}},{"type":"Feature","properties":{"_region":"tokyo","_region_ja":"東京","_voltage_kv":154.0,"_display_name":"聖蹟桜ヶ丘変電所"},"geometry":{"type":"Point","coordinates":[139.4433,35.6516]}},{"type":"Feature","properties":{"_region":"tokyo","_region_ja":"東京","_voltage_kv":154.0,"_display_name":"子安変電所"},"geometry":{"type":"Point","coordinates":[139.6367,35.4898]}},{"type":"Feature","properties":{"_region":"tokyo","_region_ja":"東京","_voltage_kv":500.0,"_display_name":"新多摩変電所"},"geometry":{"type":"Point","coordinates":[139.223,35.7146]}},{"type":"Feature","properties":{"_region":"tokyo","_region_ja":"東京","_voltage_kv":275.0,"_display_name":"南多摩変電所"},"geometry":{"type":"Point","coordinates":[139.3583,35.6763]}},{"type":"Feature","properties":{"_region":"tokyo","_region_ja":"東京","_voltage_kv":154.0,"_display_name":"さちが丘変電所"},"geometry":{"type":"Point","coordinates":[139.5227,35.464]}},{"type":"Feature","properties":{"_region":"tokyo","_region_ja":"東京","_voltage_kv":500.0,"_display_name":"新秦野変電所"},"geometry":{"type":"Point","coordinates":[139.2259,35.4006]}},{"type":"Feature","properties":{"_region":"tokyo","_region_ja":"東京","_voltage_kv":500.0,"_display_name":"東山梨変電所"},"geometry":{"type":"Point","coordinates":[138.8,35.5905]}},{"type":"Feature","properties":{"_region":"tokyo","_region_ja":"東京","_voltage_kv":500.0,"_display_name":"新富士変電所"},"geometry":{"type":"Point","coordinates":[138.9624,35.3723]}},{"type":"Feature","properties":{"_region":"tokyo","_region_ja":"東京","_voltage_kv":275.0,"_display_name":"多摩変電所"},"geometry":{"type":"Point","coordinates":[139.4407,35.7341]}},{"type":"Feature","properties":{"_region":"tokyo","_region_ja":"東京","_voltage_kv":154.0,"_display_name":"東京電力駿河変電所"},"geometry":{"type":"Point","coordinates":[138.6921,35.1762]}},{"type":"Feature","properties":{"_region":"tokyo","_region_ja":"東京","_voltage_kv":275.0,"_display_name":"西横浜変電所"},"geometry":{"type":"Point","coordinates":[139.5048,35.5]}},{"type":"Feature","properties":{"_region":"tokyo","_region_ja":"東京","_voltage_kv":275.0,"_display_name":"南狭山変電所"},"geometry":{"type":"Point","coordinates":[139.4451,35.8385]}},{"type":"Feature","properties":{"_region":"tokyo","_region_ja":"東京","_voltage_kv":154.0,"_display_name":"武蔵赤坂開閉所"},"geometry":{"type":"Point","coordinates":[139.4815,35.8406]}},{"type":"Feature","properties":{"_region":"tokyo","_region_ja":"東京","_voltage_kv":154.0,"_display_name":"亀久保変電所"},"geometry":{"type":"Point","coordinates":[139.4983,35.8578]}},{"type":"Feature","properties":{"_region":"tokyo","_region_ja":"東京","_voltage_kv":275.0,"_display_name":"中相模変電所"},"geometry":{"type":"Point","coordinates":[139.4094,35.418]}},{"type":"Feature","properties":{"_region":"tokyo","_region_ja":"東京","_voltage_kv":154.0,"_display_name":"湘南変電所"},"geometry":{"type":"Point","coordinates":[139.344,35.3591]}},{"type":"Feature","properties":{"_region":"tokyo","_region_ja":"東京","_voltage_kv":275.0,"_display_name":"東清水変電所"},"geometry":{"type":"Point","coordinates":[138.5,35.058]}},{"type":"Feature","properties":{"_region":"tokyo","_region_ja":"東京","_voltage_kv":154.0,"_display_name":"鳥山変電所"},"geometry":{"type":"Point","coordinates":[139.6064,35.5046]}},{"type":"Feature","properties":{"_region":"tokyo","_region_ja":"東京","_voltage_kv":154.0,"_display_name":"駿東変電所"},"geometry":{"type":"Point","coordinates":[138.8799,35.1385]}},{"type":"Feature","properties":{"_region":"tokyo","_region_ja":"東京","_voltage_kv":154.0,"_display_name":"清水変電所"},"geometry":{"type":"Point","coordinates":[138.455,35.0163]}},{"type":"Feature","properties":{"_region":"tokyo","_region_ja":"東京","_voltage_kv":154.0,"_display_name":"富岡変電所"},"geometry":{"type":"Point","coordinates":[139.6225,35.3759]}},{"type":"Feature","properties":{"_region":"tokyo","_region_ja":"東京","_voltage_kv":154.0,"_display_name":"田方変電所"},"geometry":{"type":"Point","coordinates":[138.9737,35.0092]}},{"type":"Feature","properties":{"_region":"tokyo","_region_ja":"東京","_voltage_kv":154.0,"_display_name":"山梨変電所 (Yamanashi Hendensho)"},"geometry":{"type":"Point","coordinates":[138.574,35.6368]}},{"type":"Feature","properties":{"_region":"tokyo","_region_ja":"東京","_voltage_kv":154.0,"_display_name":"北駿変電所"},"geometry":{"type":"Point","coordinates":[138.9536,35.2271]}},{"type":"Feature","properties":{"_region":"tokyo","_region_ja":"東京","_voltage_kv":154.0,"_display_name":"西相模変電所"},"geometry":{"type":"Point","coordinates":[139.1182,35.2924]}},{"type":"Feature","properties":{"_region":"tokyo","_region_ja":"東京","_voltage_kv":154.0,"_display_name":"武蔵大井変電所"},"geometry":{"type":"Point","coordinates":[139.5227,35.8442]}},{"type":"Feature","properties":{"_region":"tokyo","_region_ja":"東京","_voltage_kv":275.0,"_display_name":"逗子変電所"},"geometry":{"type":"Point","coordinates":[139.6064,35.3102]}},{"type":"Feature","properties":{"_region":"tokyo","_region_ja":"東京","_voltage_kv":154.0,"_display_name":"白根変電所"},"geometry":{"type":"Point","coordinates":[139.5518,35.4851]}},{"type":"Feature","properties":{"_region":"tokyo","_region_ja":"東京","_voltage_kv":154.0,"_display_name":"谷村変電所"},"geometry":{"type":"Point","coordinates":[138.9135,35.5591]}},{"type":"Feature","properties":{"_region":"tokyo","_region_ja":"東京","_voltage_kv":154.0,"_display_name":"中央新幹線 都留変電所"},"geometry":{"type":"Point","coordinates":[138.929,35.5811]}},{"type":"Feature","properties":{"_region":"tokyo","_region_ja":"東京","_voltage_kv":154.0,"_display_name":"岸根変電所"},"geometry":{"type":"Point","coordinates":[139.6087,35.5009]}},{"type":"Feature","properties":{"_region":"tokyo","_region_ja":"東京","_voltage_kv":154.0,"_display_name":"恩田変電所"},"geometry":{"type":"Point","coordinates":[139.5148,35.5395]}},{"type":"Feature","properties":{"_region":"tokyo","_region_ja":"東京","_voltage_kv":154.0,"_display_name":"西厚木変電所"},"geometry":{"type":"Point","coordinates":[139.346,35.4266]}},{"type":"Feature","properties":{"_region":"tokyo","_region_ja":"東京","_voltage_kv":154.0,"_display_name":"岳南変電所"},"geometry":{"type":"Point","coordinates":[138.6824,35.1495]}},{"type":"Feature","properties":{"_region":"tokyo","_region_ja":"東京","_voltage_kv":275.0,"_display_name":"練馬変電所"},"geometry":{"type":"Point","coordinates":[139.6469,35.7367]}},{"type":"Feature","properties":{"_region":"tokyo","_region_ja":"東京","_voltage_kv":154.0,"_display_name":"名栗変電所"},"geometry":{"type":"Point","coordinates":[139.1787,35.8881]}},{"type":"Feature","properties":{"_region":"tokyo","_region_ja":"東京","_voltage_kv":154.0,"_display_name":"港南台変電所"},"geometry":{"type":"Point","coordinates":[139.5862,35.3754]}},{"type":"Feature","properties":{"_region":"tokyo","_region_ja":"東京","_voltage_kv":275.0,"_display_name":"世田谷変電所"},"geometry":{"type":"Point","coordinates":[139.6502,35.6318]}},{"type":"Feature","properties":{"_region":"tokyo","_region_ja":"東京","_voltage_kv":154.0,"_display_name":"宮戸変電所"},"geometry":{"type":"Point","coordinates":[139.5868,35.8243]}},{"type":"Feature","properties":{"_region":"tokyo","_region_ja":"東京","_voltage_kv":154.0,"_display_name":"宗岡変電所"},"geometry":{"type":"Point","coordinates":[139.5899,35.8404]}},{"type":"Feature","properties":{"_region":"tokyo","_region_ja":"東京","_voltage_kv":154.0,"_display_name":"西相模変電所"},"geometry":{"type":"Point","coordinates":[139.1195,35.293]}},{"type":"Feature","properties":{"_region":"tokyo","_region_ja":"東京","_voltage_kv":154.0,"_display_name":"小倉開閉所"},"geometry":{"type":"Point","coordinates":[139.2913,35.5825]}},{"type":"Feature","properties":{"_region":"tokyo","_region_ja":"東京","_voltage_kv":154.0,"_display_name":"松郷変電所"},"geometry":{"type":"Point","coordinates":[139.4984,35.7977]}},{"type":"Feature","properties":{"_region":"tokyo","_region_ja":"東京","_voltage_kv":154.0,"_display_name":"前沢変電所"},"geometry":{"type":"Point","coordinates":[139.5046,35.7507]}},{"type":"Feature","properties":{"_region":"tokyo","_region_ja":"東京","_voltage_kv":500.0,"_display_name":"新豊洲変電所"},"geometry":{"type":"Point","coordinates":[139.7908,35.6479]}},{"type":"Feature","properties":{"_region":"tokyo","_region_ja":"東京","_voltage_kv":154.0,"_display_name":"川崎変電所"},"geometry":{"type":"Point","coordinates":[139.6875,35.5294]}},{"type":"Feature","properties":{"_region":"tokyo","_region_ja":"東京","_voltage_kv":275.0,"_display_name":"南川崎変電所"},"geometry":{"type":"Point","coordinates":[139.7115,35.5]}},{"type":"Feature","properties":{"_region":"tokyo","_region_ja":"東京","_voltage_kv":500.0,"_display_name":"新佐原変電所"},"geometry":{"type":"Point","coordinates":[140.4586,35.8658]}},{"type":"Feature","properties":{"_region":"tokyo","_region_ja":"東京","_voltage_kv":154.0,"_display_name":"鳩ヶ谷変電所"},"geometry":{"type":"Point","coordinates":[139.7364,35.8218]}},{"type":"Feature","properties":{"_region":"tokyo","_region_ja":"東京","_voltage_kv":154.0,"_display_name":"花畑変電所"},"geometry":{"type":"Point","coordinates":[139.8193,35.7795]}},{"type":"Feature","properties":{"_region":"tokyo","_region_ja":"東京","_voltage_kv":275.0,"_display_name":"北葛飾変電所"},"geometry":{"type":"Point","coordinates":[139.8697,35.8698]}},{"type":"Feature","properties":{"_region":"tokyo","_region_ja":"東京","_voltage_kv":154.0,"_display_name":"亀戸変電所"},"geometry":{"type":"Point","coordinates":[139.8498,35.7068]}},{"type":"Feature","properties":{"_region":"tokyo","_region_ja":"東京","_voltage_kv":154.0,"_display_name":"松島変電所"},"geometry":{"type":"Point","coordinates":[139.856,35.7115]}},{"type":"Feature","properties":{"_region":"tokyo","_region_ja":"東京","_voltage_kv":154.0,"_display_name":"江戸川変電所"},"geometry":{"type":"Point","coordinates":[139.8449,35.7565]}},{"type":"Feature","properties":{"_region":"tokyo","_region_ja":"東京","_voltage_kv":154.0,"_display_name":"小松川変電所"},"geometry":{"type":"Point","coordinates":[139.8693,35.6874]}},{"type":"Feature","properties":{"_region":"tokyo","_region_ja":"東京","_voltage_kv":275.0,"_display_name":"北総変電所"},"geometry":{"type":"Point","coordinates":[140.2658,35.7112]}},{"type":"Feature","properties":{"_region":"tokyo","_region_ja":"東京","_voltage_kv":500.0,"_display_name":"房総変電所"},"geometry":{"type":"Point","coordinates":[140.1665,35.4992]}},{"type":"Feature","properties":{"_region":"tokyo","_region_ja":"東京","_voltage_kv":275.0,"_display_name":"西越谷変電所"},"geometry":{"type":"Point","coordinates":[139.751,35.8904]}},{"type":"Feature","properties":{"_region":"tokyo","_region_ja":"東京","_voltage_kv":154.0,"_display_name":"柏井変電所"},"geometry":{"type":"Point","coordinates":[139.9572,35.7613]}},{"type":"Feature","properties":{"_region":"tokyo","_region_ja":"東京","_voltage_kv":154.0,"_display_name":"矢切変電所"},"geometry":{"type":"Point","coordinates":[139.8945,35.7649]}},{"type":"Feature","properties":{"_region":"tokyo","_region_ja":"東京","_voltage_kv":275.0,"_display_name":"墨東変電所"},"geometry":{"type":"Point","coordinates":[139.8203,35.6985]}},{"type":"Feature","properties":{"_region":"tokyo","_region_ja":"東京","_voltage_kv":275.0,"_display_name":"池上変電所"},"geometry":{"type":"Point","coordinates":[139.6964,35.5694]}},{"type":"Feature","properties":{"_region":"tokyo","_region_ja":"東京","_voltage_kv":154.0,"_display_name":"天王洲変電所"},"geometry":{"type":"Point","coordinates":[139.7571,35.6217]}},{"type":"Feature","properties":{"_region":"tokyo","_region_ja":"東京","_voltage_kv":500.0,"_display_name":"新京葉変電所"},"geometry":{"type":"Point","coordinates":[140.0695,35.781]}},{"type":"Feature","properties":{"_region":"tokyo","_region_ja":"東京","_voltage_kv":154.0,"_display_name":"東千葉変電所"},"geometry":{"type":"Point","coordinates":[140.1508,35.6217]}},{"type":"Feature","properties":{"_region":"tokyo","_region_ja":"東京","_voltage_kv":154.0,"_display_name":"東小岩変電所"},"geometry":{"type":"Point","coordinates":[139.8832,35.7152]}},{"type":"Feature","properties":{"_region":"tokyo","_region_ja":"東京","_voltage_kv":154.0,"_display_name":"外房変電所"},"geometry":{"type":"Point","coordinates":[140.2948,35.5222]}},{"type":"Feature","properties":{"_region":"tokyo","_region_ja":"東京","_voltage_kv":154.0,"_display_name":"東葛変電所 (Tōkatsu Hendensho)"},"geometry":{"type":"Point","coordinates":[139.9356,35.857]}},{"type":"Feature","properties":{"_region":"tokyo","_region_ja":"東京","_voltage_kv":275.0,"_display_name":"江東変電所"},"geometry":{"type":"Point","coordinates":[139.8403,35.6636]}},{"type":"Feature","properties":{"_region":"tokyo","_region_ja":"東京","_voltage_kv":154.0,"_display_name":"田端変電所"},"geometry":{"type":"Point","coordinates":[139.7657,35.747]}},{"type":"Feature","properties":{"_region":"tokyo","_region_ja":"東京","_voltage_kv":154.0,"_display_name":"東八潮変電所"},"geometry":{"type":"Point","coordinates":[139.8364,35.8281]}},{"type":"Feature","properties":{"_region":"tokyo","_region_ja":"東京","_voltage_kv":154.0,"_display_name":"水元変電所"},"geometry":{"type":"Point","coordinates":[139.8692,35.7777]}},{"type":"Feature","properties":{"_region":"tokyo","_region_ja":"東京","_voltage_kv":154.0,"_display_name":"大瀬変電所"},"geometry":{"type":"Point","coordinates":[139.8442,35.8059]}},{"type":"Feature","properties":{"_region":"tokyo","_region_ja":"東京","_voltage_kv":154.0,"_display_name":"伊原変電所"},"geometry":{"type":"Point","coordinates":[139.8088,35.8681]}},{"type":"Feature","properties":{"_region":"tokyo","_region_ja":"東京","_voltage_kv":154.0,"_display_name":"寄巻変電所"},"geometry":{"type":"Point","coordinates":[139.8762,35.8026]}},{"type":"Feature","properties":{"_region":"tokyo","_region_ja":"東京","_voltage_kv":275.0,"_display_name":"水道橋変電所"},"geometry":{"type":"Point","coordinates":[139.7523,35.7003]}},{"type":"Feature","properties":{"_region":"tokyo","_region_ja":"東京","_voltage_kv":275.0,"_display_name":"花見川変電所 (Hanamigawa Hendensho)"},"geometry":{"type":"Point","coordinates":[140.0719,35.669]}},{"type":"Feature","properties":{"_region":"tokyo","_region_ja":"東京","_voltage_kv":154.0,"_display_name":"戸田変電所"},"geometry":{"type":"Point","coordinates":[139.6741,35.7942]}},{"type":"Feature","properties":{"_region":"tokyo","_region_ja":"東京","_voltage_kv":275.0,"_display_name":"千葉中央変電所"},"geometry":{"type":"Point","coordinates":[140.1264,35.5648]}},{"type":"Feature","properties":{"_region":"tokyo","_region_ja":"東京","_voltage_kv":500.0,"_display_name":""},"geometry":{"type":"Point","coordinates":[139.9803,35.4641]}},{"type":"Feature","properties":{"_region":"tokyo","_region_ja":"東京","_voltage_kv":275.0,"_display_name":"上野変電所"},"geometry":{"type":"Point","coordinates":[139.7898,35.7271]}},{"type":"Feature","properties":{"_region":"tokyo","_region_ja":"東京","_voltage_kv":154.0,"_display_name":"坪井変電所"},"geometry":{"type":"Point","coordinates":[140.054,35.7288]}},{"type":"Feature","properties":{"_region":"tokyo","_region_ja":"東京","_voltage_kv":154.0,"_display_name":"下総変電所"},"geometry":{"type":"Point","coordinates":[139.9628,35.7009]}},{"type":"Feature","properties":{"_region":"tokyo","_region_ja":"東京","_voltage_kv":500.0,"_display_name":""},"geometry":{"type":"Point","coordinates":[139.8365,35.3439]}},{"type":"Feature","properties":{"_region":"tokyo","_region_ja":"東京","_voltage_kv":154.0,"_display_name":"内房変電所"},"geometry":{"type":"Point","coordinates":[140.0259,35.3418]}},{"type":"Feature","properties":{"_region":"tokyo","_region_ja":"東京","_voltage_kv":500.0,"_display_name":"新木更津変電所"},"geometry":{"type":"Point","coordinates":[140.0273,35.3431]}},{"type":"Feature","properties":{"_region":"tokyo","_region_ja":"東京","_voltage_kv":275.0,"_display_name":"鹿島変電所"},"geometry":{"type":"Point","coordinates":[140.6561,35.8966]}},{"type":"Feature","properties":{"_region":"tokyo","_region_ja":"東京","_voltage_kv":154.0,"_display_name":"二和東変電所"},"geometry":{"type":"Point","coordinates":[140.0207,35.7455]}},{"type":"Feature","properties":{"_region":"tokyo","_region_ja":"東京","_voltage_kv":275.0,"_display_name":"永代橋変電所"},"geometry":{"type":"Point","coordinates":[139.7844,35.6756]}},{"type":"Feature","properties":{"_region":"tokyo","_region_ja":"東京","_voltage_kv":275.0,"_display_name":"京北変電所"},"geometry":{"type":"Point","coordinates":[139.7861,35.8281]}},{"type":"Feature","properties":{"_region":"tokyo","_region_ja":"東京","_voltage_kv":154.0,"_display_name":"鎌ヶ谷変電所"},"geometry":{"type":"Point","coordinates":[140.0031,35.7514]}},{"type":"Feature","properties":{"_region":"tokyo","_region_ja":"東京","_voltage_kv":154.0,"_display_name":"長沼変電所"},"geometry":{"type":"Point","coordinates":[140.1227,35.6748]}},{"type":"Feature","properties":{"_region":"tokyo","_region_ja":"東京","_voltage_kv":154.0,"_display_name":""},"geometry":{"type":"Point","coordinates":[140.1684,35.505]}},{"type":"Feature","properties":{"_region":"tokyo","_region_ja":"東京","_voltage_kv":275.0,"_display_name":"新宿変電所"},"geometry":{"type":"Point","coordinates":[139.6892,35.6911]}},{"type":"Feature","properties":{"_region":"tokyo","_region_ja":"東京","_voltage_kv":275.0,"_display_name":"東新宿変電所"},"geometry":{"type":"Point","coordinates":[139.7104,35.6921]}},{"type":"Feature","properties":{"_region":"tokyo","_region_ja":"東京","_voltage_kv":275.0,"_display_name":"豊島変電所"},"geometry":{"type":"Point","coordinates":[139.7202,35.7288]}},{"type":"Feature","properties":{"_region":"tokyo","_region_ja":"東京","_voltage_kv":275.0,"_display_name":"城南変電所"},"geometry":{"type":"Point","coordinates":[139.723,35.673]}},{"type":"Feature","properties":{"_region":"tokyo","_region_ja":"東京","_voltage_kv":275.0,"_display_name":"高輪変電所"},"geometry":{"type":"Point","coordinates":[139.7339,35.635]}},{"type":"Feature","properties":{"_region":"tokyo","_region_ja":"東京","_voltage_kv":275.0,"_display_name":"東内幸町変電所"},"geometry":{"type":"Point","coordinates":[139.7584,35.6702]}},{"type":"Feature","properties":{"_region":"tokyo","_region_ja":"東京","_voltage_kv":154.0,"_display_name":"酒井根変電所"},"geometry":{"type":"Point","coordinates":[139.9622,35.8261]}},{"type":"Feature","properties":{"_region":"tokyo","_region_ja":"東京","_voltage_kv":154.0,"_display_name":"千葉ニュータウン変電所"},"geometry":{"type":"Point","coordinates":[140.1305,35.805]}},{"type":"Feature","properties":{"_region":"tokyo","_region_ja":"東京","_voltage_kv":154.0,"_display_name":"鷹の台変電所"},"geometry":{"type":"Point","coordinates":[140.1035,35.6982]}},{"type":"Feature","properties":{"_region":"tokyo","_region_ja":"東京","_voltage_kv":275.0,"_display_name":"葛南変電所"},"geometry":{"type":"Point","coordinates":[139.9077,35.6659]}},{"type":"Feature","properties":{"_region":"tokyo","_region_ja":"東京","_voltage_kv":154.0,"_display_name":"東松戸変電所"},"geometry":{"type":"Point","coordinates":[139.9227,35.7697]}},{"type":"Feature","properties":{"_region":"tokyo","_region_ja":"東京","_voltage_kv":154.0,"_display_name":"小合変電所"},"geometry":{"type":"Point","coordinates":[139.8619,35.7871]}},{"type":"Feature","properties":{"_region":"tokyo","_region_ja":"東京","_voltage_kv":154.0,"_display_name":"新郷変電所"},"geometry":{"type":"Point","coordinates":[139.7715,35.83]}},{"type":"Feature","properties":{"_region":"tokyo","_region_ja":"東京","_voltage_kv":154.0,"_display_name":"笹目変電所"},"geometry":{"type":"Point","coordinates":[139.6577,35.8247]}},{"type":"Feature","properties":{"_region":"tokyo","_region_ja":"東京","_voltage_kv":154.0,"_display_name":"常盤台変電所"},"geometry":{"type":"Point","coordinates":[139.6913,35.7575]}},{"type":"Feature","properties":{"_region":"tokyo","_region_ja":"東京","_voltage_kv":154.0,"_display_name":"南大田変電所"},"geometry":{"type":"Point","coordinates":[139.7332,35.5484]}},{"type":"Feature","properties":{"_region":"tokyo","_region_ja":"東京","_voltage_kv":500.0,"_display_name":"西群馬開閉所"},"geometry":{"type":"Point","coordinates":[138.8018,36.6222]}},{"type":"Feature","properties":{"_region":"tokyo","_region_ja":"東京","_voltage_kv":154.0,"_display_name":"奥秩父変電所"},"geometry":{"type":"Point","coordinates":[139.0461,35.961]}},{"type":"Feature","properties":{"_region":"tokyo","_region_ja":"東京","_voltage_kv":154.0,"_display_name":"群馬変電所"},"geometry":{"type":"Point","coordinates":[139.0343,36.353]}},{"type":"Feature","properties":{"_region":"tokyo","_region_ja":"東京","_voltage_kv":500.0,"_display_name":"新坂戸変電所"},"geometry":{"type":"Point","coordinates":[139.4366,35.9621]}},{"type":"Feature","properties":{"_region":"tokyo","_region_ja":"東京","_voltage_kv":500.0,"_display_name":"新所沢変電所"},"geometry":{"type":"Point","coordinates":[139.3691,35.9281]}},{"type":"Feature","properties":{"_region":"tokyo","_region_ja":"東京","_voltage_kv":275.0,"_display_name":"中東京変電所"},"geometry":{"type":"Point","coordinates":[139.3535,35.9154]}},{"type":"Feature","properties":{"_region":"tokyo","_region_ja":"東京","_voltage_kv":275.0,"_display_name":"北熊谷変電所"},"geometry":{"type":"Point","coordinates":[139.3449,36.2058]}},{"type":"Feature","properties":{"_region":"tokyo","_region_ja":"東京","_voltage_kv":500.0,"_display_name":"新榛名"},"geometry":{"type":"Point","coordinates":[138.8331,36.5478]}},{"type":"Feature","properties":{"_region":"tokyo","_region_ja":"東京","_voltage_kv":275.0,"_display_name":"西毛変電所"},"geometry":{"type":"Point","coordinates":[139.0414,36.2219]}},{"type":"Feature","properties":{"_region":"tokyo","_region_ja":"東京","_voltage_kv":154.0,"_display_name":"埼玉変電所"},"geometry":{"type":"Point","coordinates":[139.4945,36.081]}},{"type":"Feature","properties":{"_region":"tokyo","_region_ja":"東京","_voltage_kv":154.0,"_display_name":"金井変電所"},"geometry":{"type":"Point","coordinates":[138.9882,36.5231]}},{"type":"Feature","properties":{"_region":"tokyo","_region_ja":"東京","_voltage_kv":154.0,"_display_name":"佐野変電所"},"geometry":{"type":"Point","coordinates":[139.555,36.2803]}},{"type":"Feature","properties":{"_region":"tokyo","_region_ja":"東京","_voltage_kv":154.0,"_display_name":"菖蒲変電所"},"geometry":{"type":"Point","coordinates":[139.6007,36.0736]}},{"type":"Feature","properties":{"_region":"tokyo","_region_ja":"東京","_voltage_kv":275.0,"_display_name":"上尾変電所"},"geometry":{"type":"Point","coordinates":[139.612,35.969]}},{"type":"Feature","properties":{"_region":"tokyo","_region_ja":"東京","_voltage_kv":500.0,"_display_name":"新秩父開閉所"},"geometry":{"type":"Point","coordinates":[138.937,36.0311]}},{"type":"Feature","properties":{"_region":"tokyo","_region_ja":"東京","_voltage_kv":154.0,"_display_name":"東太田変電所"},"geometry":{"type":"Point","coordinates":[139.4048,36.3172]}},{"type":"Feature","properties":{"_region":"tokyo","_region_ja":"東京","_voltage_kv":275.0,"_display_name":"東毛変電所"},"geometry":{"type":"Point","coordinates":[139.3285,36.2989]}},{"type":"Feature","properties":{"_region":"tokyo","_region_ja":"東京","_voltage_kv":500.0,"_display_name":"東群馬変電所"},"geometry":{"type":"Point","coordinates":[139.2235,36.5793]}},{"type":"Feature","properties":{"_region":"tokyo","_region_ja":"東京","_voltage_kv":154.0,"_display_name":"佐波変電所"},"geometry":{"type":"Point","coordinates":[139.2197,36.292]}},{"type":"Feature","properties":{"_region":"tokyo","_region_ja":"東京","_voltage_kv":154.0,"_display_name":"岡部交流変電所"},"geometry":{"type":"Point","coordinates":[139.2301,36.2083]}},{"type":"Feature","properties":{"_region":"tokyo","_region_ja":"東京","_voltage_kv":500.0,"_display_name":"新岡部変電所"},"geometry":{"type":"Point","coordinates":[139.2123,36.2202]}},{"type":"Feature","properties":{"_region":"tokyo","_region_ja":"東京","_voltage_kv":154.0,"_display_name":"南魚沼変電所"},"geometry":{"type":"Point","coordinates":[138.8173,36.9911]}},{"type":"Feature","properties":{"_region":"tokyo","_region_ja":"東京","_voltage_kv":154.0,"_display_name":""},"geometry":{"type":"Point","coordinates":[138.9055,36.6923]}},{"type":"Feature","properties":{"_region":"tokyo","_region_ja":"東京","_voltage_kv":154.0,"_display_name":"ＪＲ新熊谷変電所"},"geometry":{"type":"Point","coordinates":[139.3365,36.1525]}},{"type":"Feature","properties":{"_region":"tokyo","_region_ja":"東京","_voltage_kv":500.0,"_display_name":"新新田変電所"},"geometry":{"type":"Point","coordinates":[139.3052,36.3262]}},{"type":"Feature","properties":{"_region":"tokyo","_region_ja":"東京","_voltage_kv":275.0,"_display_name":""},"geometry":{"type":"Point","coordinates":[139.0472,36.8007]}},{"type":"Feature","properties":{"_region":"tokyo","_region_ja":"東京","_voltage_kv":154.0,"_display_name":""},"geometry":{"type":"Point","coordinates":[139.0597,36.8669]}},{"type":"Feature","properties":{"_region":"tokyo","_region_ja":"東京","_voltage_kv":154.0,"_display_name":"小松変電所"},"geometry":{"type":"Point","coordinates":[138.9796,36.7165]}},{"type":"Feature","properties":{"_region":"tokyo","_region_ja":"東京","_voltage_kv":154.0,"_display_name":"上里変電所"},"geometry":{"type":"Point","coordinates":[139.1405,36.2383]}},{"type":"Feature","properties":{"_region":"tokyo","_region_ja":"東京","_voltage_kv":154.0,"_display_name":"南佐野変電所"},"geometry":{"type":"Point","coordinates":[139.5888,36.2928]}},{"type":"Feature","properties":{"_region":"tokyo","_region_ja":"東京","_voltage_kv":154.0,"_display_name":"久喜変電所"},"geometry":{"type":"Point","coordinates":[139.641,36.0628]}},{"type":"Feature","properties":{"_region":"tokyo","_region_ja":"東京","_voltage_kv":275.0,"_display_name":"東日本旅客鉄道新箕郷変電所"},"geometry":{"type":"Point","coordinates":[138.966,36.3773]}},{"type":"Feature","properties":{"_region":"tokyo","_region_ja":"東京","_voltage_kv":154.0,"_display_name":"総社変電所"},"geometry":{"type":"Point","coordinates":[139.026,36.41]}},{"type":"Feature","properties":{"_region":"tokyo","_region_ja":"東京","_voltage_kv":154.0,"_display_name":"吉岡変電所"},"geometry":{"type":"Point","coordinates":[139.0036,36.4522]}},{"type":"Feature","properties":{"_region":"tokyo","_region_ja":"東京","_voltage_kv":275.0,"_display_name":"新湯沢変電所"},"geometry":{"type":"Point","coordinates":[138.8209,36.9225]}},{"type":"Feature","properties":{"_region":"tokyo","_region_ja":"東京","_voltage_kv":500.0,"_display_name":"新野田変電所"},"geometry":{"type":"MultiPolygon","coordinates":[[[[139.9116649,35.9290707],[139.9113759,35.9290382],[139.9115052,35.9287447],[139.9114818,35.9286411],[139.9114672,35.9285764],[139.9114593,35.9285598],[139.9114389,35.9285169],[139.911366,35.9285082],[139.9113326,35.9285252],[139.9113195,35.9285998],[139.9112774,35.9286465],[139.9111896,35.9287068],[139.9108316,35.928648],[139.9106271,35.9286624],[139.9105202,35.9286825],[139.9104855,35.928689],[139.9104363,35.9286805],[139.9103424,35.928742],[139.9101223,35.9287465],[139.9098578,35.9282573],[139.909849,35.9282411],[139.9094029,35.9274763],[139.909385,35.9274726],[139.9088013,35.9277867],[139.9079086,35.9282434],[139.9078763,35.9282929],[139.9079053,35.9285738],[139.908269,35.9284085],[139.9084226,35.9286377],[139.9079782,35.9288318],[139.9079431,35.9288467],[139.9079734,35.9292455],[139.907986,35.9294296],[139.9079816,35.9295794],[139.9079579,35.9297243],[139.9078142,35.9304153],[139.9077138,35.9306832],[139.9074929,35.931064],[139.9075215,35.9313148],[139.9077495,35.9315374],[139.9079184,35.9315327],[139.9103628,35.9304369],[139.9104857,35.9303759],[139.9105984,35.9303068],[139.9106799,35.9302452],[139.9107818,35.9301586],[139.9109127,35.9300205],[139.9110026,35.9298889],[139.9113784,35.9293334],[139.9115606,35.9291454],[139.9116649,35.9290707]]],[[[139.9081407,35.9321881],[139.9087929,35.933193],[139.9091972,35.9338139],[139.9094897,35.9342589],[139.9095501,35.9343239],[139.9096157,35.9343775],[139.9096998,35.9344245],[139.9097844,35.9344501],[139.9098485,35.9344498],[139.9099024,35.934439],[139.9099626,35.9344199],[139.9129629,35.9330822],[139.9138163,35.9326993],[139.9142536,35.9324947],[139.9142537,35.9324483],[139.914248,35.9324287],[139.9142375,35.9324063],[139.9140992,35.9322111],[139.9137328,35.9316634],[139.9136954,35.9316043],[139.9136733,35.9316128],[139.9135988,35.9314929],[139.9136611,35.9314639],[139.9136958,35.9314478],[139.9136528,35.9313828],[139.91321,35.9307147],[139.9124345,35.9295671],[139.9125836,35.9291269],[139.9124594,35.9289656],[139.9124282,35.9289795],[139.9123581,35.9290379],[139.9123016,35.9291568],[139.9122674,35.9291509],[139.9119799,35.9294778],[139.9116003,35.9293326],[139.9115269,35.9294077],[139.911047,35.9301214],[139.9108379,35.930332],[139.9105872,35.9304972],[139.9079776,35.9316617],[139.9079668,35.931667],[139.9079459,35.9316801],[139.9079195,35.9317032],[139.9079026,35.9317281],[139.9078946,35.931759],[139.9078937,35.9317863],[139.9079006,35.9318151],[139.9081407,35.9321881]]]]}},{"type":"Feature","properties":{"_region":"tokyo","_region_ja":"東京","_voltage_kv":500.0,"_display_name":"新古河変電所"},"geometry":{"type":"Point","coordinates":[139.8323,36.1065]}},{"type":"Feature","properties":{"_region":"tokyo","_region_ja":"東京","_voltage_kv":154.0,"_display_name":"清原変電所"},"geometry":{"type":"Point","coordinates":[139.9813,36.5467]}},{"type":"Feature","properties":{"_region":"tokyo","_region_ja":"東京","_voltage_kv":154.0,"_display_name":"芳賀変電所"},"geometry":{"type":"Point","coordinates":[140.01,36.5144]}},{"type":"Feature","properties":{"_region":"tokyo","_region_ja":"東京","_voltage_kv":500.0,"_display_name":"新栃木変電所"},"geometry":{"type":"Point","coordinates":[139.9173,36.6553]}},{"type":"Feature","properties":{"_region":"tokyo","_region_ja":"東京","_voltage_kv":154.0,"_display_name":"茨城変電所"},"geometry":{"type":"Point","coordinates":[140.5179,36.4636]}},{"type":"Feature","properties":{"_region":"tokyo","_region_ja":"東京","_voltage_kv":275.0,"_display_name":"那珂変電所"},"geometry":{"type":"Point","coordinates":[140.4455,36.479]}},{"type":"Feature","properties":{"_region":"tokyo","_region_ja":"東京","_voltage_kv":154.0,"_display_name":"西水戸変電所"},"geometry":{"type":"Point","coordinates":[140.4117,36.4068]}},{"type":"Feature","properties":{"_region":"tokyo","_region_ja":"東京","_voltage_kv":154.0,"_display_name":"石岡変電所"},"geometry":{"type":"Point","coordinates":[140.2538,36.2191]}},{"type":"Feature","properties":{"_region":"tokyo","_region_ja":"東京","_voltage_kv":154.0,"_display_name":"霞ヶ浦変電所"},"geometry":{"type":"Point","coordinates":[140.1663,36.1194]}},{"type":"Feature","properties":{"_region":"tokyo","_region_ja":"東京","_voltage_kv":500.0,"_display_name":"新筑波変電所"},"geometry":{"type":"Point","coordinates":[139.9038,36.1666]}},{"type":"Feature","properties":{"_region":"tokyo","_region_ja":"東京","_voltage_kv":275.0,"_display_name":"北東京変電所"},"geometry":{"type":"Point","coordinates":[139.6903,36.0267]}},{"type":"Feature","properties":{"_region":"tokyo","_region_ja":"東京","_voltage_kv":154.0,"_display_name":"岩槻変電所"},"geometry":{"type":"Point","coordinates":[139.7189,35.9236]}},{"type":"Feature","properties":{"_region":"tokyo","_region_ja":"東京","_voltage_kv":154.0,"_display_name":"西宇都宮変電所"},"geometry":{"type":"Point","coordinates":[139.8214,36.5815]}},{"type":"Feature","properties":{"_region":"tokyo","_region_ja":"東京","_voltage_kv":500.0,"_display_name":"新茂木"},"geometry":{"type":"Point","coordinates":[140.1524,36.5229]}},{"type":"Feature","properties":{"_region":"tokyo","_region_ja":"東京","_voltage_kv":500.0,"_display_name":"新今市開閉所"},"geometry":{"type":"Point","coordinates":[139.8326,36.7131]}},{"type":"Feature","properties":{"_region":"tokyo","_region_ja":"東京","_voltage_kv":154.0,"_display_name":"南赤塚変電所"},"geometry":{"type":"Point","coordinates":[139.7427,36.225]}},{"type":"Feature","properties":{"_region":"tokyo","_region_ja":"東京","_voltage_kv":275.0,"_display_name":"いわき変電所"},"geometry":{"type":"Point","coordinates":[140.7479,36.9886]}},{"type":"Feature","properties":{"_region":"tokyo","_region_ja":"東京","_voltage_kv":154.0,"_display_name":"河内変電所"},"geometry":{"type":"Point","coordinates":[139.9405,36.6241]}},{"type":"Feature","properties":{"_region":"tokyo","_region_ja":"東京","_voltage_kv":154.0,"_display_name":"小山変電所"},"geometry":{"type":"Point","coordinates":[139.8164,36.3254]}},{"type":"Feature","properties":{"_region":"tokyo","_region_ja":"東京","_voltage_kv":154.0,"_display_name":"那須野変電所"},"geometry":{"type":"Point","coordinates":[140.0385,36.9376]}},{"type":"Feature","properties":{"_region":"tokyo","_region_ja":"東京","_voltage_kv":154.0,"_display_name":"東野田変電所"},"geometry":{"type":"Point","coordinates":[139.7977,36.2537]}},{"type":"Feature","properties":{"_region":"tokyo","_region_ja":"東京","_voltage_kv":154.0,"_display_name":"野木変電所"},"geometry":{"type":"Point","coordinates":[139.7557,36.2446]}},{"type":"Feature","properties":{"_region":"tokyo","_region_ja":"東京","_voltage_kv":154.0,"_display_name":"慈恩寺変電所"},"geometry":{"type":"Point","coordinates":[139.7165,35.98]}},{"type":"Feature","properties":{"_region":"tokyo","_region_ja":"東京","_voltage_kv":154.0,"_display_name":"栗橋変電所"},"geometry":{"type":"Point","coordinates":[139.7051,36.1316]}},{"type":"Feature","properties":{"_region":"tokyo","_region_ja":"東京","_voltage_kv":154.0,"_display_name":"深作変電所"},"geometry":{"type":"Point","coordinates":[139.6578,35.9457]}},{"type":"Feature","properties":{"_region":"tokyo","_region_ja":"東京","_voltage_kv":154.0,"_display_name":"八千代変電所"},"geometry":{"type":"Point","coordinates":[139.8929,36.1756]}},{"type":"Feature","properties":{"_region":"tokyo","_region_ja":"東京","_voltage_kv":275.0,"_display_name":"筑波南変電所"},"geometry":{"type":"Point","coordinates":[140.2498,35.9731]}},{"type":"Feature","properties":{"_region":"tokyo","_region_ja":"東京","_voltage_kv":154.0,"_display_name":"東光台変電所"},"geometry":{"type":"Point","coordinates":[140.0628,36.0858]}},{"type":"Feature","properties":{"_region":"tokyo","_region_ja":"東京","_voltage_kv":275.0,"_display_name":"常総変電所"},"geometry":{"type":"Point","coordinates":[140.0452,36.018]}},{"type":"Feature","properties":{"_region":"tokyo","_region_ja":"東京","_voltage_kv":275.0,"_display_name":"常磐変電所"},"geometry":{"type":"Point","coordinates":[140.6721,36.6887]}},{"type":"Feature","properties":{"_region":"tokyo","_region_ja":"東京","_voltage_kv":154.0,"_display_name":"平変電所"},"geometry":{"type":"Point","coordinates":[140.8386,36.985]}},{"type":"Feature","properties":{"_region":"tokyo","_region_ja":"東京","_voltage_kv":154.0,"_display_name":""},"geometry":{"type":"Point","coordinates":[140.8213,36.9141]}},{"type":"Feature","properties":{"_region":"tokyo","_region_ja":"東京","_voltage_kv":154.0,"_display_name":"新宇都宮変電所"},"geometry":{"type":"Point","coordinates":[139.9136,36.6548]}},{"type":"Feature","properties":{"_region":"tokyo","_region_ja":"東京","_voltage_kv":154.0,"_display_name":"桂変電所"},"geometry":{"type":"Point","coordinates":[140.3813,36.4992]}},{"type":"Feature","properties":{"_region":"tokyo","_region_ja":"東京","_voltage_kv":750.0,"_display_name":"平出変電所"},"geometry":{"type":"Point","coordinates":[139.9404,36.554]}},{"type":"Feature","properties":{"_region":"tokyo","_region_ja":"東京","_voltage_kv":154.0,"_display_name":"砂田変電所"},"geometry":{"type":"Point","coordinates":[139.9056,36.497]}},{"type":"Feature","properties":{"_region":"tokyo","_region_ja":"東京","_voltage_kv":750.0,"_display_name":"今泉変電所"},"geometry":{"type":"Point","coordinates":[139.9105,36.5598]}},{"type":"Feature","properties":{"_region":"tokyo","_region_ja":"東京","_voltage_kv":154.0,"_display_name":"栃山開閉所"},"geometry":{"type":"Point","coordinates":[139.8844,36.4704]}},{"type":"Feature","properties":{"_region":"tokyo","_region_ja":"東京","_voltage_kv":154.0,"_display_name":"徳次郎変電所"},"geometry":{"type":"Point","coordinates":[139.8366,36.6627]}},{"type":"Feature","properties":{"_region":"tokyo","_region_ja":"東京","_voltage_kv":750.0,"_display_name":"芳賀変電所"},"geometry":{"type":"Point","coordinates":[140.0097,36.5639]}},{"type":"Feature","properties":{"_region":"tokyo","_region_ja":"東京","_voltage_kv":154.0,"_display_name":"水戸北部変電所"},"geometry":{"type":"Point","coordinates":[140.3752,36.5353]}},{"type":"Feature","properties":{"_region":"tokyo","_region_ja":"東京","_voltage_kv":154.0,"_display_name":"下滝開閉所"},"geometry":{"type":"Point","coordinates":[139.9642,36.7371]}},{"type":"Feature","properties":{"_region":"tokyo","_region_ja":"東京","_voltage_kv":154.0,"_display_name":"茂木変電所"},"geometry":{"type":"Point","coordinates":[140.2043,36.5393]}},{"type":"Feature","properties":{"_region":"tokyo","_region_ja":"東京","_voltage_kv":154.0,"_display_name":"簗瀬町変電所"},"geometry":{"type":"Point","coordinates":[139.8913,36.5488]}},{"type":"Feature","properties":{"_region":"tokyo","_region_ja":"東京","_voltage_kv":154.0,"_display_name":"筑波西部変電所"},"geometry":{"type":"Point","coordinates":[140.0746,36.0648]}},{"type":"Feature","properties":{"_region":"tokyo","_region_ja":"東京","_voltage_kv":154.0,"_display_name":"学園都市変電所"},"geometry":{"type":"Point","coordinates":[140.0983,36.0866]}},{"type":"Feature","properties":{"_region":"tokyo","_region_ja":"東京","_voltage_kv":154.0,"_display_name":"五霞変電所"},"geometry":{"type":"Point","coordinates":[139.7435,36.1034]}},{"type":"Feature","properties":{"_region":"tokyo","_region_ja":"東京","_voltage_kv":154.0,"_display_name":"宝積寺変電所"},"geometry":{"type":"Point","coordinates":[139.9904,36.6246]}},{"type":"Feature","properties":{"_region":"chubu","_region_ja":"中部","_voltage_kv":275.0,"_display_name":"幸田変電所"},"geometry":{"type":"Point","coordinates":[137.1873,34.8703]}},{"type":"Feature","properties":{"_region":"chubu","_region_ja":"中部","_voltage_kv":500.0,"_display_name":"中能登変電所"},"geometry":{"type":"MultiPolygon","coordinates":[[[[136.8386248,36.9950133],[136.8382758,36.9953525],[136.8382989,36.9955524],[136.8381672,36.9956233],[136.8388849,36.996867],[136.8399581,36.99652],[136.8401029,36.9962938],[136.840656,36.9960914],[136.8398955,36.99459],[136.8386248,36.9950133]]],[[[136.8355097,36.9965807],[136.8358606,36.9964568],[136.8366511,36.9978844],[136.8387814,36.997132],[136.8376199,36.9950342],[136.8351386,36.9959106],[136.8355097,36.9965807]]]]}},{"type":"Feature","properties":{"_region":"chubu","_region_ja":"中部","_voltage_kv":500.0,"_display_name":"西群馬開閉所"},"geometry":{"type":"Point","coordinates":[138.8018,36.6222]}},{"type":"Feature","properties":{"_region":"chubu","_region_ja":"中部","_voltage_kv":154.0,"_display_name":"奥秩父変電所"},"geometry":{"type":"Point","coordinates":[139.0461,35.961]}},{"type":"Feature","properties":{"_region":"chubu","_region_ja":"中部","_voltage_kv":154.0,"_display_name":"岩倉変電所"},"geometry":{"type":"Point","coordinates":[136.872,35.2616]}},{"type":"Feature","properties":{"_region":"chubu","_region_ja":"中部","_voltage_kv":500.0,"_display_name":""},"geometry":{"type":"Point","coordinates":[137.7082,35.0716]}},{"type":"Feature","properties":{"_region":"chubu","_region_ja":"中部","_voltage_kv":154.0,"_display_name":"群馬変電所"},"geometry":{"type":"Point","coordinates":[139.0343,36.353]}},{"type":"Feature","properties":{"_region":"chubu","_region_ja":"中部","_voltage_kv":500.0,"_display_name":"中部電力(株)豊根開閉所"},"geometry":{"type":"Point","coordinates":[137.7291,35.1623]}},{"type":"Feature","properties":{"_region":"chubu","_region_ja":"中部","_voltage_kv":500.0,"_display_name":"東山梨変電所"},"geometry":{"type":"Point","coordinates":[138.8,35.5905]}},{"type":"Feature","properties":{"_region":"chubu","_region_ja":"中部","_voltage_kv":500.0,"_display_name":"新富士変電所"},"geometry":{"type":"Point","coordinates":[138.9624,35.3723]}},{"type":"Feature","properties":{"_region":"chubu","_region_ja":"中部","_voltage_kv":154.0,"_display_name":"中電猪高変電所"},"geometry":{"type":"Point","coordinates":[137.005,35.1876]}},{"type":"Feature","properties":{"_region":"chubu","_region_ja":"中部","_voltage_kv":154.0,"_display_name":"東京電力駿河変電所"},"geometry":{"type":"Point","coordinates":[138.6921,35.1762]}},{"type":"Feature","properties":{"_region":"chubu","_region_ja":"中部","_voltage_kv":275.0,"_display_name":""},"geometry":{"type":"Point","coordinates":[138.2863,34.9944]}},{"type":"Feature","properties":{"_region":"chubu","_region_ja":"中部","_voltage_kv":275.0,"_display_name":"北松本変電所"},"geometry":{"type":"Point","coordinates":[138.0034,36.3406]}},{"type":"Feature","properties":{"_region":"chubu","_region_ja":"中部","_voltage_kv":154.0,"_display_name":"北一宮変電所"},"geometry":{"type":"Point","coordinates":[136.8208,35.328]}},{"type":"Feature","properties":{"_region":"chubu","_region_ja":"中部","_voltage_kv":154.0,"_display_name":""},"geometry":{"type":"Point","coordinates":[136.7881,35.38]}},{"type":"Feature","properties":{"_region":"chubu","_region_ja":"中部","_voltage_kv":154.0,"_display_name":"加納変電所 (Kanō Hendensho)"},"geometry":{"type":"Point","coordinates":[136.7365,35.4074]}},{"type":"Feature","properties":{"_region":"chubu","_region_ja":"中部","_voltage_kv":275.0,"_display_name":"関開閉所"},"geometry":{"type":"Point","coordinates":[136.8702,35.5054]}},{"type":"Feature","properties":{"_region":"chubu","_region_ja":"中部","_voltage_kv":500.0,"_display_name":"北部変電所"},"geometry":{"type":"Point","coordinates":[136.9365,35.5277]}},{"type":"Feature","properties":{"_region":"chubu","_region_ja":"中部","_voltage_kv":275.0,"_display_name":"西濃変電所"},"geometry":{"type":"Point","coordinates":[136.6448,35.4275]}},{"type":"Feature","properties":{"_region":"chubu","_region_ja":"中部","_voltage_kv":154.0,"_display_name":"大垣変電所 (Ogaki Hendensho)"},"geometry":{"type":"Point","coordinates":[136.611,35.3847]}},{"type":"Feature","properties":{"_region":"chubu","_region_ja":"中部","_voltage_kv":275.0,"_display_name":"東清水変電所"},"geometry":{"type":"Point","coordinates":[138.5,35.058]}},{"type":"Feature","properties":{"_region":"chubu","_region_ja":"中部","_voltage_kv":275.0,"_display_name":"佐久間周波数変換所"},"geometry":{"type":"Point","coordinates":[137.7989,35.083]}},{"type":"Feature","properties":{"_region":"chubu","_region_ja":"中部","_voltage_kv":275.0,"_display_name":"電源名古屋"},"geometry":{"type":"Point","coordinates":[136.9942,35.2649]}},{"type":"Feature","properties":{"_region":"chubu","_region_ja":"中部","_voltage_kv":275.0,"_display_name":"瀬戸変電所"},"geometry":{"type":"Point","coordinates":[137.136,35.2023]}},{"type":"Feature","properties":{"_region":"chubu","_region_ja":"中部","_voltage_kv":500.0,"_display_name":"東部変電所"},"geometry":{"type":"Point","coordinates":[137.2618,35.1064]}},{"type":"Feature","properties":{"_region":"chubu","_region_ja":"中部","_voltage_kv":500.0,"_display_name":"南福光連系所"},"geometry":{"type":"Point","coordinates":[136.8253,36.4994]}},{"type":"Feature","properties":{"_region":"chubu","_region_ja":"中部","_voltage_kv":500.0,"_display_name":"加賀変電所"},"geometry":{"type":"Point","coordinates":[136.7253,36.5017]}},{"type":"Feature","properties":{"_region":"chubu","_region_ja":"中部","_voltage_kv":154.0,"_display_name":"名南変電所"},"geometry":{"type":"Point","coordinates":[136.8101,35.0997]}},{"type":"Feature","properties":{"_region":"chubu","_region_ja":"中部","_voltage_kv":500.0,"_display_name":"新榛名"},"geometry":{"type":"Point","coordinates":[138.8331,36.5478]}},{"type":"Feature","properties":{"_region":"chubu","_region_ja":"中部","_voltage_kv":275.0,"_display_name":"三河変電所"},"geometry":{"type":"Point","coordinates":[137.4706,34.8444]}},{"type":"Feature","properties":{"_region":"chubu","_region_ja":"中部","_voltage_kv":500.0,"_display_name":"新三河変電所"},"geometry":{"type":"Point","coordinates":[137.4523,34.8908]}},{"type":"Feature","properties":{"_region":"chubu","_region_ja":"中部","_voltage_kv":275.0,"_display_name":"額田開閉所"},"geometry":{"type":"Point","coordinates":[137.2778,34.9634]}},{"type":"Feature","properties":{"_region":"chubu","_region_ja":"中部","_voltage_kv":275.0,"_display_name":""},"geometry":{"type":"Point","coordinates":[137.0692,34.6546]}},{"type":"Feature","properties":{"_region":"chubu","_region_ja":"中部","_voltage_kv":275.0,"_display_name":"中部電力湖西変電所"},"geometry":{"type":"Point","coordinates":[137.508,34.7111]}},{"type":"Feature","properties":{"_region":"chubu","_region_ja":"中部","_voltage_kv":275.0,"_display_name":"田原"},"geometry":{"type":"Point","coordinates":[137.3074,34.6585]}},{"type":"Feature","properties":{"_region":"chubu","_region_ja":"中部","_voltage_kv":500.0,"_display_name":""},"geometry":{"type":"Point","coordinates":[136.9627,35.6358]}},{"type":"Feature","properties":{"_region":"chubu","_region_ja":"中部","_voltage_kv":275.0,"_display_name":"東豊田変電所"},"geometry":{"type":"Point","coordinates":[137.2188,35.0407]}},{"type":"Feature","properties":{"_region":"chubu","_region_ja":"中部","_voltage_kv":275.0,"_display_name":""},"geometry":{"type":"Point","coordinates":[136.9384,35.4486]}},{"type":"Feature","properties":{"_region":"chubu","_region_ja":"中部","_voltage_kv":275.0,"_display_name":"駿遠変電所"},"geometry":{"type":"Point","coordinates":[138.0644,34.8105]}},{"type":"Feature","properties":{"_region":"chubu","_region_ja":"中部","_voltage_kv":500.0,"_display_name":"西部変電所"},"geometry":{"type":"Point","coordinates":[136.5144,35.1928]}},{"type":"Feature","properties":{"_region":"chubu","_region_ja":"中部","_voltage_kv":500.0,"_display_name":"三重開閉所"},"geometry":{"type":"Point","coordinates":[136.4513,35.2033]}},{"type":"Feature","properties":{"_region":"chubu","_region_ja":"中部","_voltage_kv":500.0,"_display_name":"東近江開閉所"},"geometry":{"type":"Point","coordinates":[136.2935,35.0953]}},{"type":"Feature","properties":{"_region":"chubu","_region_ja":"中部","_voltage_kv":275.0,"_display_name":"西毛変電所"},"geometry":{"type":"Point","coordinates":[139.0414,36.2219]}},{"type":"Feature","properties":{"_region":"chubu","_region_ja":"中部","_voltage_kv":275.0,"_display_name":"西名古屋変電所"},"geometry":{"type":"Point","coordinates":[136.6157,35.0837]}},{"type":"Feature","properties":{"_region":"chubu","_region_ja":"中部","_voltage_kv":275.0,"_display_name":"西尾張"},"geometry":{"type":"Point","coordinates":[136.6973,35.1385]}},{"type":"Feature","properties":{"_region":"chubu","_region_ja":"中部","_voltage_kv":154.0,"_display_name":"大井水力発電所"},"geometry":{"type":"Point","coordinates":[137.3955,35.4837]}},{"type":"Feature","properties":{"_region":"chubu","_region_ja":"中部","_voltage_kv":500.0,"_display_name":"愛知変電所"},"geometry":{"type":"Point","coordinates":[137.2978,35.2103]}},{"type":"Feature","properties":{"_region":"chubu","_region_ja":"中部","_voltage_kv":154.0,"_display_name":"築港変電所"},"geometry":{"type":"Point","coordinates":[136.8816,35.1048]}},{"type":"Feature","properties":{"_region":"chubu","_region_ja":"中部","_voltage_kv":154.0,"_display_name":"寛政変電所"},"geometry":{"type":"Point","coordinates":[136.8587,35.1005]}},{"type":"Feature","properties":{"_region":"chubu","_region_ja":"中部","_voltage_kv":154.0,"_display_name":"大高変電所"},"geometry":{"type":"Point","coordinates":[136.9525,35.0549]}},{"type":"Feature","properties":{"_region":"chubu","_region_ja":"中部","_voltage_kv":154.0,"_display_name":"中部電力パワーグリッド 日進変電所"},"geometry":{"type":"Point","coordinates":[137.0092,35.1306]}},{"type":"Feature","properties":{"_region":"chubu","_region_ja":"中部","_voltage_kv":275.0,"_display_name":"東名古屋変電所"},"geometry":{"type":"Point","coordinates":[136.9915,35.041]}},{"type":"Feature","properties":{"_region":"chubu","_region_ja":"中部","_voltage_kv":154.0,"_display_name":"南豊田変電所"},"geometry":{"type":"Point","coordinates":[137.1318,35.0456]}},{"type":"Feature","properties":{"_region":"chubu","_region_ja":"中部","_voltage_kv":275.0,"_display_name":""},"geometry":{"type":"Point","coordinates":[136.6745,35.045]}},{"type":"Feature","properties":{"_region":"chubu","_region_ja":"中部","_voltage_kv":154.0,"_display_name":"水主町変電所"},"geometry":{"type":"Point","coordinates":[136.8922,35.1604]}},{"type":"Feature","properties":{"_region":"chubu","_region_ja":"中部","_voltage_kv":154.0,"_display_name":"昭和町変電所"},"geometry":{"type":"Point","coordinates":[136.901,35.0829]}},{"type":"Feature","properties":{"_region":"chubu","_region_ja":"中部","_voltage_kv":154.0,"_display_name":"松岡"},"geometry":{"type":"Point","coordinates":[136.2842,36.0904]}},{"type":"Feature","properties":{"_region":"chubu","_region_ja":"中部","_voltage_kv":154.0,"_display_name":"正法寺変電所"},"geometry":{"type":"Point","coordinates":[136.2757,35.2575]}},{"type":"Feature","properties":{"_region":"chubu","_region_ja":"中部","_voltage_kv":275.0,"_display_name":"湖東変電所"},"geometry":{"type":"Point","coordinates":[136.3058,35.3128]}},{"type":"Feature","properties":{"_region":"chubu","_region_ja":"中部","_voltage_kv":275.0,"_display_name":"甲賀変電所"},"geometry":{"type":"Point","coordinates":[136.1424,35.0068]}},{"type":"Feature","properties":{"_region":"chubu","_region_ja":"中部","_voltage_kv":154.0,"_display_name":"北岐阜変電所 (Kita Gifu Hendensho)"},"geometry":{"type":"Point","coordinates":[136.8021,35.4915]}},{"type":"Feature","properties":{"_region":"chubu","_region_ja":"中部","_voltage_kv":500.0,"_display_name":""},"geometry":{"type":"Point","coordinates":[136.7234,35.5841]}},{"type":"Feature","properties":{"_region":"chubu","_region_ja":"中部","_voltage_kv":154.0,"_display_name":"浜松変電所"},"geometry":{"type":"Point","coordinates":[137.7348,34.739]}},{"type":"Feature","properties":{"_region":"chubu","_region_ja":"中部","_voltage_kv":154.0,"_display_name":"新八幡変電所"},"geometry":{"type":"Point","coordinates":[136.1054,35.1132]}},{"type":"Feature","properties":{"_region":"chubu","_region_ja":"中部","_voltage_kv":154.0,"_display_name":"北方開閉所 (Kitakata Kaiheisho)"},"geometry":{"type":"Point","coordinates":[136.6944,35.436]}},{"type":"Feature","properties":{"_region":"chubu","_region_ja":"中部","_voltage_kv":154.0,"_display_name":""},"geometry":{"type":"Point","coordinates":[136.8798,35.584]}},{"type":"Feature","properties":{"_region":"chubu","_region_ja":"中部","_voltage_kv":154.0,"_display_name":"稲沢変電所"},"geometry":{"type":"Point","coordinates":[136.7931,35.224]}},{"type":"Feature","properties":{"_region":"chubu","_region_ja":"中部","_voltage_kv":154.0,"_display_name":"清水変電所"},"geometry":{"type":"Point","coordinates":[138.455,35.0163]}},{"type":"Feature","properties":{"_region":"chubu","_region_ja":"中部","_voltage_kv":275.0,"_display_name":"丸山変電所 (Maruyama Hendensho)"},"geometry":{"type":"Point","coordinates":[137.1626,35.47]}},{"type":"Feature","properties":{"_region":"chubu","_region_ja":"中部","_voltage_kv":154.0,"_display_name":"犬山開閉所"},"geometry":{"type":"Point","coordinates":[136.9624,35.3589]}},{"type":"Feature","properties":{"_region":"chubu","_region_ja":"中部","_voltage_kv":154.0,"_display_name":"金井変電所"},"geometry":{"type":"Point","coordinates":[138.9882,36.5231]}},{"type":"Feature","properties":{"_region":"chubu","_region_ja":"中部","_voltage_kv":500.0,"_display_name":"新秩父開閉所"},"geometry":{"type":"Point","coordinates":[138.937,36.0311]}},{"type":"Feature","properties":{"_region":"chubu","_region_ja":"中部","_voltage_kv":275.0,"_display_name":"新北信変電所"},"geometry":{"type":"Point","coordinates":[138.294,36.7408]}},{"type":"Feature","properties":{"_region":"chubu","_region_ja":"中部","_voltage_kv":154.0,"_display_name":"田方変電所"},"geometry":{"type":"Point","coordinates":[138.9737,35.0092]}},{"type":"Feature","properties":{"_region":"chubu","_region_ja":"中部","_voltage_kv":154.0,"_display_name":"山梨変電所 (Yamanashi Hendensho)"},"geometry":{"type":"Point","coordinates":[138.574,35.6368]}},{"type":"Feature","properties":{"_region":"chubu","_region_ja":"中部","_voltage_kv":154.0,"_display_name":"北駿変電所"},"geometry":{"type":"Point","coordinates":[138.9536,35.2271]}},{"type":"Feature","properties":{"_region":"chubu","_region_ja":"中部","_voltage_kv":154.0,"_display_name":"七宝変電所"},"geometry":{"type":"Point","coordinates":[136.784,35.1608]}},{"type":"Feature","properties":{"_region":"chubu","_region_ja":"中部","_voltage_kv":154.0,"_display_name":"西相模変電所"},"geometry":{"type":"Point","coordinates":[139.1182,35.2924]}},{"type":"Feature","properties":{"_region":"chubu","_region_ja":"中部","_voltage_kv":154.0,"_display_name":"瑞浪変電所 (Mizunami Hendensho)"},"geometry":{"type":"Point","coordinates":[137.2318,35.38]}},{"type":"Feature","properties":{"_region":"chubu","_region_ja":"中部","_voltage_kv":154.0,"_display_name":"落合川"},"geometry":{"type":"Point","coordinates":[137.521,35.52]}},{"type":"Feature","properties":{"_region":"chubu","_region_ja":"中部","_voltage_kv":154.0,"_display_name":"北巨摩変電所"},"geometry":{"type":"Point","coordinates":[138.3977,35.7859]}},{"type":"Feature","properties":{"_region":"chubu","_region_ja":"中部","_voltage_kv":154.0,"_display_name":"読書水力発電所"},"geometry":{"type":"Point","coordinates":[137.5924,35.5878]}},{"type":"Feature","properties":{"_region":"chubu","_region_ja":"中部","_voltage_kv":154.0,"_display_name":"須原開閉所"},"geometry":{"type":"Point","coordinates":[137.6801,35.6958]}},{"type":"Feature","properties":{"_region":"chubu","_region_ja":"中部","_voltage_kv":500.0,"_display_name":"南信変電所"},"geometry":{"type":"Point","coordinates":[137.9969,35.71]}},{"type":"Feature","properties":{"_region":"chubu","_region_ja":"中部","_voltage_kv":154.0,"_display_name":""},"geometry":{"type":"Point","coordinates":[137.2049,35.7339]}},{"type":"Feature","properties":{"_region":"chubu","_region_ja":"中部","_voltage_kv":154.0,"_display_name":"北勢変電所 (Hokusei Hendensho)"},"geometry":{"type":"Point","coordinates":[136.5943,34.9445]}},{"type":"Feature","properties":{"_region":"chubu","_region_ja":"中部","_voltage_kv":500.0,"_display_name":"信濃変電所"},"geometry":{"type":"Point","coordinates":[137.9879,36.064]}},{"type":"Feature","properties":{"_region":"chubu","_region_ja":"中部","_voltage_kv":154.0,"_display_name":"岡崎変電所 (Okazaki Hendensho)"},"geometry":{"type":"Point","coordinates":[137.1227,34.9673]}},{"type":"Feature","properties":{"_region":"chubu","_region_ja":"中部","_voltage_kv":154.0,"_display_name":"北刈谷変電所 (Kita Kariya Hendensho)"},"geometry":{"type":"Point","coordinates":[137.017,35.0195]}},{"type":"Feature","properties":{"_region":"chubu","_region_ja":"中部","_voltage_kv":500.0,"_display_name":"駿遠変電所"},"geometry":{"type":"Point","coordinates":[138.0639,34.8087]}},{"type":"Feature","properties":{"_region":"chubu","_region_ja":"中部","_voltage_kv":154.0,"_display_name":"依佐美変電所"},"geometry":{"type":"Point","coordinates":[137.0428,34.9735]}},{"type":"Feature","properties":{"_region":"chubu","_region_ja":"中部","_voltage_kv":154.0,"_display_name":"磐田変電所 (Iwata Hendensho)"},"geometry":{"type":"Point","coordinates":[137.8529,34.7736]}},{"type":"Feature","properties":{"_region":"chubu","_region_ja":"中部","_voltage_kv":275.0,"_display_name":"川根変電所"},"geometry":{"type":"Point","coordinates":[138.1099,35.0926]}},{"type":"Feature","properties":{"_region":"chubu","_region_ja":"中部","_voltage_kv":154.0,"_display_name":""},"geometry":{"type":"Point","coordinates":[137.5987,35.8588]}},{"type":"Feature","properties":{"_region":"chubu","_region_ja":"中部","_voltage_kv":275.0,"_display_name":""},"geometry":{"type":"Point","coordinates":[137.4626,35.1949]}},{"type":"Feature","properties":{"_region":"chubu","_region_ja":"中部","_voltage_kv":154.0,"_display_name":"宮田変電所"},"geometry":{"type":"Point","coordinates":[137.9564,35.7741]}},{"type":"Feature","properties":{"_region":"chubu","_region_ja":"中部","_voltage_kv":154.0,"_display_name":""},"geometry":{"type":"Point","coordinates":[137.9703,35.861]}},{"type":"Feature","properties":{"_region":"chubu","_region_ja":"中部","_voltage_kv":154.0,"_display_name":"松島変電所"},"geometry":{"type":"Point","coordinates":[137.9743,35.9224]}},{"type":"Feature","properties":{"_region":"chubu","_region_ja":"中部","_voltage_kv":154.0,"_display_name":"平岡変電所"},"geometry":{"type":"Point","coordinates":[137.8464,35.2759]}},{"type":"Feature","properties":{"_region":"chubu","_region_ja":"中部","_voltage_kv":275.0,"_display_name":"東信変電所"},"geometry":{"type":"Point","coordinates":[138.3198,36.4254]}},{"type":"Feature","properties":{"_region":"chubu","_region_ja":"中部","_voltage_kv":154.0,"_display_name":"名北変電所"},"geometry":{"type":"Point","coordinates":[136.9428,35.2148]}},